Facility-Facility1-To-Satellite-ISS_Access.csv

"Access","Start Time (UTCG)","Stop Time (UTCG)","Duration (sec)"
1,4 Aug 2021 10:25:52.005,4 Aug 2021 10:31:45.255,353.250
2,5 Aug 2021 04:42:35.603,5 Aug 2021 04:47:06.330,270.726
3,5 Aug 2021 06:17:26.131,5 Aug 2021 06:23:52.712,386.580
4,5 Aug 2021 07:53:37.770,5 Aug 2021 08:00:09.312,391.542
5,5 Aug 2021 09:29:54.349,5 Aug 2021 09:36:20.558,386.208
6,5 Aug 2021 11:06:42.203,5 Aug 2021 11:11:08.597,266.393
7,6 Aug 2021 05:22:00.592,6 Aug 2021 05:27:55.396,354.804
8,6 Aug 2021 06:57:45.034,6 Aug 2021 07:04:16.709,391.675
9,6 Aug 2021 08:34:02.606,6 Aug 2021 08:40:34.362,391.756
10,6 Aug 2021 10:10:22.483,6 Aug 2021 10:16:23.636,361.153
11,7 Aug 2021 04:27:24.534,7 Aug 2021 04:31:29.484,244.950
12,7 Aug 2021 06:02:00.495,7 Aug 2021 06:08:24.808,384.313
13,7 Aug 2021 07:38:09.800,7 Aug 2021 07:44:41.356,391.556
14,7 Aug 2021 09:14:26.532,7 Aug 2021 09:20:54.560,388.028
15,7 Aug 2021 10:51:07.085,7 Aug 2021 10:55:55.382,288.297
16,8 Aug 2021 05:06:39.768,8 Aug 2021 05:12:25.452,345.684
17,8 Aug 2021 06:42:17.564,8 Aug 2021 06:48:49.015,391.451
18,8 Aug 2021 08:18:34.848,8 Aug 2021 08:25:06.621,391.773
19,8 Aug 2021 09:54:53.396,8 Aug 2021 10:01:01.151,367.755
20,9 Aug 2021 04:12:16.974,9 Aug 2021 04:15:49.654,212.679
21,9 Aug 2021 05:46:35.349,9 Aug 2021 05:52:56.768,381.419
22,9 Aug 2021 07:22:41.828,9 Aug 2021 07:29:13.429,391.601
23,9 Aug 2021 08:58:58.785,9 Aug 2021 09:05:28.175,389.390
24,9 Aug 2021 10:35:33.561,9 Aug 2021 10:40:40.067,306.507
25,10 Aug 2021 04:51:20.028,10 Aug 2021 04:56:54.887,334.859
26,10 Aug 2021 06:26:50.298,10 Aug 2021 06:33:21.336,391.038
27,10 Aug 2021 08:03:07.049,10 Aug 2021 08:09:38.780,391.731
28,10 Aug 2021 09:39:24.658,10 Aug 2021 09:45:37.885,373.227
29,10 Aug 2021 11:17:16.545,10 Aug 2021 11:18:59.341,102.796
30,11 Aug 2021 03:57:14.893,11 Aug 2021 04:00:04.874,169.981
31,11 Aug 2021 05:31:10.756,11 Aug 2021 05:37:28.545,377.789
32,11 Aug 2021 07:07:13.874,11 Aug 2021 07:13:45.538,391.663
33,11 Aug 2021 08:43:31.087,11 Aug 2021 08:50:01.449,390.363
34,11 Aug 2021 10:20:01.256,11 Aug 2021 10:25:23.039,321.783
35,12 Aug 2021 04:36:01.530,12 Aug 2021 04:41:23.556,322.025
36,12 Aug 2021 06:11:23.278,12 Aug 2021 06:17:53.655,390.377
37,12 Aug 2021 07:47:39.205,12 Aug 2021 07:54:10.870,391.665
38,12 Aug 2021 09:23:56.203,12 Aug 2021 09:30:13.921,377.719
39,12 Aug 2021 11:01:20.232,12 Aug 2021 11:04:09.335,169.103
40,13 Aug 2021 03:42:24.528,13 Aug 2021 03:44:08.908,104.379
41,13 Aug 2021 05:15:46.787,13 Aug 2021 05:22:00.101,373.314
42,13 Aug 2021 06:51:45.963,13 Aug 2021 06:58:17.695,391.732
43,13 Aug 2021 08:28:03.407,13 Aug 2021 08:34:34.435,391.028
44,13 Aug 2021 10:04:29.910,13 Aug 2021 10:10:04.565,334.655
45,14 Aug 2021 04:20:44.474,14 Aug 2021 04:25:51.270,306.796
46,14 Aug 2021 05:55:56.546,14 Aug 2021 06:02:25.957,389.411
47,14 Aug 2021 07:32:11.317,14 Aug 2021 07:38:42.919,391.602
48,14 Aug 2021 09:08:27.981,14 Aug 2021 09:14:49.344,381.363
49,14 Aug 2021 10:45:35.332,14 Aug 2021 10:49:07.378,212.047
50,15 Aug 2021 05:00:23.509,15 Aug 2021 05:06:31.366,367.856
51,15 Aug 2021 06:36:18.123,15 Aug 2021 06:42:49.893,391.770
52,15 Aug 2021 08:12:35.728,15 Aug 2021 08:19:07.172,391.444
53,15 Aug 2021 09:48:59.333,15 Aug 2021 09:54:44.846,345.512
54,16 Aug 2021 04:05:29.127,16 Aug 2021 04:10:17.767,288.639
55,16 Aug 2021 05:40:30.156,16 Aug 2021 05:46:58.212,388.056
56,16 Aug 2021 07:16:43.391,16 Aug 2021 07:23:14.947,391.556
57,16 Aug 2021 08:52:59.938,16 Aug 2021 08:59:24.207,384.269
58,16 Aug 2021 10:29:55.434,16 Aug 2021 10:33:59.889,244.455
59,17 Aug 2021 04:45:01.004,17 Aug 2021 04:51:02.281,361.278
60,17 Aug 2021 06:20:50.379,17 Aug 2021 06:27:22.137,391.758
61,17 Aug 2021 07:57:08.033,17 Aug 2021 08:03:39.704,391.671
62,17 Aug 2021 09:33:29.378,17 Aug 2021 09:39:24.038,354.660
63,18 Aug 2021 03:50:15.871,18 Aug 2021 03:54:42.686,266.815
64,18 Aug 2021 05:25:04.151,18 Aug 2021 05:31:30.395,386.245
65,18 Aug 2021 07:01:15.435,18 Aug 2021 07:07:46.977,391.542
66,18 Aug 2021 08:37:32.032,18 Aug 2021 08:43:58.579,386.546
67,18 Aug 2021 10:14:18.553,18 Aug 2021 10:18:48.872,270.319
68,19 Aug 2021 04:29:39.370,19 Aug 2021 04:35:32.771,353.401
69,19 Aug 2021 06:05:22.769,19 Aug 2021 06:11:54.417,391.648
70,19 Aug 2021 07:41:40.308,19 Aug 2021 07:48:12.073,391.764
71,19 Aug 2021 09:17:59.935,19 Aug 2021 09:24:02.270,362.335
72,20 Aug 2021 03:35:05.301,20 Aug 2021 03:39:05.426,240.125
73,20 Aug 2021 05:09:38.591,20 Aug 2021 05:16:02.472,383.881
74,20 Aug 2021 06:45:47.463,20 Aug 2021 06:52:19.025,391.561
75,20 Aug 2021 08:22:04.229,20 Aug 2021 08:28:32.513,388.284
76,20 Aug 2021 09:58:43.729,20 Aug 2021 10:03:35.273,291.544
77,21 Aug 2021 04:14:18.716,21 Aug 2021 04:20:02.733,344.017
78,21 Aug 2021 05:49:55.330,21 Aug 2021 05:56:26.725,391.396
79,21 Aug 2021 07:26:12.543,21 Aug 2021 07:32:44.312,391.769
80,21 Aug 2021 09:02:30.910,21 Aug 2021 09:08:39.646,368.736
81,22 Aug 2021 03:19:58.467,22 Aug 2021 03:23:24.957,206.489
82,22 Aug 2021 04:54:13.533,22 Aug 2021 05:00:34.405,380.872
83,22 Aug 2021 06:30:19.493,22 Aug 2021 06:36:51.103,391.610
84,22 Aug 2021 08:06:36.491,22 Aug 2021 08:13:06.069,389.577
85,22 Aug 2021 09:43:10.430,22 Aug 2021 09:48:19.655,309.225
86,23 Aug 2021 03:58:59.175,23 Aug 2021 04:04:32.048,332.873
87,23 Aug 2021 05:34:28.101,23 Aug 2021 05:40:59.049,390.947
88,23 Aug 2021 07:10:44.737,23 Aug 2021 07:17:16.460,391.722
89,23 Aug 2021 08:47:02.224,23 Aug 2021 08:53:16.261,374.037
90,23 Aug 2021 10:24:47.950,23 Aug 2021 10:26:44.894,116.944
91,24 Aug 2021 03:04:57.653,24 Aug 2021 03:07:38.995,161.341
92,24 Aug 2021 04:38:49.040,24 Aug 2021 04:45:06.151,377.111
93,24 Aug 2021 06:14:51.545,24 Aug 2021 06:21:23.219,391.674
94,24 Aug 2021 07:51:08.798,24 Aug 2021 07:57:39.291,390.493
95,24 Aug 2021 09:27:38.299,24 Aug 2021 09:33:02.367,324.068
96,25 Aug 2021 03:43:40.897,25 Aug 2021 03:49:00.575,319.678
97,25 Aug 2021 05:19:01.127,25 Aug 2021 05:25:31.366,390.239
98,25 Aug 2021 06:55:16.886,25 Aug 2021 07:01:48.541,391.655
99,25 Aug 2021 08:31:33.812,25 Aug 2021 08:37:52.190,378.378
100,25 Aug 2021 10:08:54.586,25 Aug 2021 10:11:51.848,177.262
101,26 Aug 2021 02:50:11.191,26 Aug 2021 02:51:39.215,88.024
102,26 Aug 2021 04:23:25.179,26 Aug 2021 04:29:37.660,372.481
103,26 Aug 2021 05:59:23.643,26 Aug 2021 06:05:55.382,391.740
104,26 Aug 2021 07:35:41.120,26 Aug 2021 07:42:12.233,391.113
105,26 Aug 2021 09:12:07.097,26 Aug 2021 09:17:43.676,336.579
106,27 Aug 2021 03:28:24.103,27 Aug 2021 03:33:28.107,304.004
107,27 Aug 2021 05:03:34.447,27 Aug 2021 05:10:03.662,389.215
108,27 Aug 2021 06:39:48.992,27 Aug 2021 06:46:20.584,391.592
109,27 Aug 2021 08:16:05.622,27 Aug 2021 08:22:27.510,381.888
110,27 Aug 2021 09:53:10.747,27 Aug 2021 09:56:48.745,217.998
111,28 Aug 2021 04:08:02.023,28 Aug 2021 04:14:08.871,366.848
112,28 Aug 2021 05:43:55.817,28 Aug 2021 05:50:27.590,391.773
113,28 Aug 2021 07:20:13.439,28 Aug 2021 07:26:44.932,391.493
114,28 Aug 2021 08:56:36.629,28 Aug 2021 09:02:23.765,347.135
115,29 Aug 2021 03:13:09.072,29 Aug 2021 03:17:54.380,285.308
116,29 Aug 2021 04:48:08.118,29 Aug 2021 04:54:35.907,387.789
117,29 Aug 2021 06:24:21.060,29 Aug 2021 06:30:52.611,391.552
118,29 Aug 2021 08:00:37.605,29 Aug 2021 08:07:02.292,384.687
119,29 Aug 2021 09:37:31.448,29 Aug 2021 09:41:40.577,249.130
120,30 Aug 2021 03:52:39.655,30 Aug 2021 03:58:39.723,360.068
121,30 Aug 2021 05:28:28.093,30 Aug 2021 05:34:59.841,391.747
122,30 Aug 2021 07:04:45.740,30 Aug 2021 07:11:17.435,391.695
123,30 Aug 2021 08:41:06.765,30 Aug 2021 08:47:02.792,356.027
124,31 Aug 2021 02:57:56.211,31 Aug 2021 03:02:18.983,262.771
125,31 Aug 2021 04:32:42.183,31 Aug 2021 04:39:08.074,385.891
126,31 Aug 2021 06:08:53.100,31 Aug 2021 06:15:24.643,391.543
127,31 Aug 2021 07:45:09.718,31 Aug 2021 07:51:36.588,386.870
128,31 Aug 2021 09:21:54.952,31 Aug 2021 09:26:29.079,274.127
129,1 Sep 2021 03:37:18.176,1 Sep 2021 03:43:10.133,351.957
130,1 Sep 2021 05:13:00.509,1 Sep 2021 05:19:32.126,391.617
131,1 Sep 2021 06:49:18.011,1 Sep 2021 06:55:49.780,391.769
132,1 Sep 2021 08:25:37.398,1 Sep 2021 08:31:40.878,363.480
133,2 Sep 2021 02:42:46.170,2 Sep 2021 02:46:41.281,235.111
134,2 Sep 2021 04:17:16.702,2 Sep 2021 04:23:40.132,383.430
135,2 Sep 2021 05:53:25.128,2 Sep 2021 05:59:56.695,391.568
136,2 Sep 2021 07:29:41.928,2 Sep 2021 07:36:10.457,388.528
137,2 Sep 2021 09:06:20.416,2 Sep 2021 09:11:15.117,294.701
138,3 Sep 2021 03:21:57.695,3 Sep 2021 03:27:39.997,342.301
139,3 Sep 2021 04:57:33.102,3 Sep 2021 05:04:04.439,391.337
140,3 Sep 2021 06:33:50.239,3 Sep 2021 06:40:22.002,391.763
141,3 Sep 2021 08:10:08.435,3 Sep 2021 08:16:18.120,369.686
142,4 Sep 2021 02:27:40.119,4 Sep 2021 02:31:00.116,199.997
143,4 Sep 2021 04:01:51.733,4 Sep 2021 04:08:12.037,380.304
144,4 Sep 2021 05:37:57.159,4 Sep 2021 05:44:28.780,391.620
145,4 Sep 2021 07:14:14.199,4 Sep 2021 07:20:43.951,389.752
146,4 Sep 2021 08:50:47.334,4 Sep 2021 08:55:59.198,311.865
147,5 Sep 2021 03:06:38.348,5 Sep 2021 03:12:09.195,330.847
148,5 Sep 2021 04:42:05.912,5 Sep 2021 04:48:36.762,390.849
149,5 Sep 2021 06:18:22.425,5 Sep 2021 06:24:54.137,391.712
150,5 Sep 2021 07:54:39.798,5 Sep 2021 08:00:54.615,374.817
151,5 Sep 2021 09:32:20.214,5 Sep 2021 09:34:29.577,129.362
152,6 Sep 2021 02:12:40.746,6 Sep 2021 02:15:12.798,152.052
153,6 Sep 2021 03:46:27.337,6 Sep 2021 03:52:43.747,376.410
154,6 Sep 2021 05:22:29.217,6 Sep 2021 05:29:00.903,391.686
155,6 Sep 2021 06:58:46.510,6 Sep 2021 07:05:17.126,390.615
156,6 Sep 2021 08:35:15.369,6 Sep 2021 08:40:41.663,326.294
157,7 Sep 2021 02:51:20.305,7 Sep 2021 02:56:37.570,317.265
158,7 Sep 2021 04:26:38.981,7 Sep 2021 04:33:09.076,390.095
159,7 Sep 2021 06:02:54.566,7 Sep 2021 06:09:26.210,391.643
160,7 Sep 2021 07:39:11.426,7 Sep 2021 07:45:30.442,379.016
161,7 Sep 2021 09:16:29.175,7 Sep 2021 09:19:34.117,184.942
162,8 Sep 2021 01:57:59.962,8 Sep 2021 01:59:07.434,67.472
163,8 Sep 2021 03:31:03.586,8 Sep 2021 03:37:15.212,371.626
164,8 Sep 2021 05:07:01.325,8 Sep 2021 05:13:33.075,391.750
165,8 Sep 2021 06:43:18.833,8 Sep 2021 06:49:50.024,391.191
166,8 Sep 2021 08:19:44.296,8 Sep 2021 08:25:22.759,338.463
167,9 Sep 2021 02:36:03.780,9 Sep 2021 02:41:04.917,301.137
168,9 Sep 2021 04:11:12.358,9 Sep 2021 04:17:41.366,389.008
169,9 Sep 2021 05:47:26.665,9 Sep 2021 05:53:58.248,391.583
170,9 Sep 2021 07:23:43.268,9 Sep 2021 07:30:05.671,382.403
171,9 Sep 2021 09:00:46.283,9 Sep 2021 09:04:29.977,223.694
172,10 Sep 2021 03:15:40.559,10 Sep 2021 03:21:46.370,365.811
173,10 Sep 2021 04:51:33.515,10 Sep 2021 04:58:05.289,391.774
174,10 Sep 2021 06:27:51.151,10 Sep 2021 06:34:22.687,391.537
175,10 Sep 2021 08:04:13.943,10 Sep 2021 08:10:02.661,348.718
176,11 Sep 2021 02:20:49.076,11 Sep 2021 02:25:30.939,281.863
177,11 Sep 2021 03:55:46.089,11 Sep 2021 04:02:13.600,387.511
178,11 Sep 2021 05:31:58.728,11 Sep 2021 05:38:30.276,391.548
179,11 Sep 2021 07:08:15.275,11 Sep 2021 07:14:40.363,385.087
180,11 Sep 2021 08:45:07.531,11 Sep 2021 08:49:21.173,253.642
181,12 Sep 2021 03:00:18.331,12 Sep 2021 03:06:17.156,358.825
182,12 Sep 2021 04:36:05.812,12 Sep 2021 04:42:37.546,391.734
183,12 Sep 2021 06:12:23.448,12 Sep 2021 06:18:55.162,391.715
184,12 Sep 2021 07:48:44.167,12 Sep 2021 07:54:41.526,357.359
185,13 Sep 2021 02:05:36.629,13 Sep 2021 02:09:55.217,258.588
186,13 Sep 2021 03:40:20.227,13 Sep 2021 03:46:45.751,385.523
187,13 Sep 2021 05:16:30.765,13 Sep 2021 05:23:02.310,391.544
188,13 Sep 2021 06:52:47.407,13 Sep 2021 06:59:14.582,387.175
189,13 Sep 2021 08:29:31.411,13 Sep 2021 08:34:09.221,277.809
190,14 Sep 2021 02:44:57.013,14 Sep 2021 02:50:47.478,350.465
191,14 Sep 2021 04:20:38.254,14 Sep 2021 04:27:09.836,391.582
192,14 Sep 2021 05:56:55.712,14 Sep 2021 06:03:27.484,391.773
193,14 Sep 2021 07:33:14.873,14 Sep 2021 07:39:19.460,364.587
194,15 Sep 2021 01:50:27.147,15 Sep 2021 01:54:17.045,229.899
195,15 Sep 2021 03:24:54.827,15 Sep 2021 03:31:17.786,382.959
196,15 Sep 2021 05:01:02.792,15 Sep 2021 05:07:34.367,391.575
197,15 Sep 2021 06:37:19.629,15 Sep 2021 06:43:48.386,388.757
198,15 Sep 2021 08:13:57.143,15 Sep 2021 08:18:54.902,297.759
199,16 Sep 2021 02:29:36.711,16 Sep 2021 02:35:17.242,340.531
200,16 Sep 2021 04:05:10.880,16 Sep 2021 04:11:42.151,391.271
201,16 Sep 2021 05:41:27.933,16 Sep 2021 05:47:59.689,391.756
202,16 Sep 2021 07:17:45.968,16 Sep 2021 07:23:56.575,370.607
203,16 Sep 2021 08:56:11.821,16 Sep 2021 08:56:40.951,29.130
204,17 Sep 2021 01:35:21.944,17 Sep 2021 01:38:35.117,193.172
205,17 Sep 2021 03:09:29.949,17 Sep 2021 03:15:49.664,379.715
206,17 Sep 2021 04:45:34.826,17 Sep 2021 04:52:06.457,391.631
207,17 Sep 2021 06:21:51.908,17 Sep 2021 06:28:21.824,389.916
208,17 Sep 2021 07:58:24.264,17 Sep 2021 08:03:38.697,314.433
209,18 Sep 2021 02:14:17.562,18 Sep 2021 02:19:46.314,328.752
210,18 Sep 2021 03:49:43.730,18 Sep 2021 03:56:14.475,390.744
211,18 Sep 2021 05:26:00.111,18 Sep 2021 05:32:31.808,391.697
212,18 Sep 2021 07:02:17.376,18 Sep 2021 07:08:32.954,375.578
213,18 Sep 2021 08:39:53.098,18 Sep 2021 08:42:13.624,140.526
214,19 Sep 2021 01:20:24.231,19 Sep 2021 01:22:46.231,142.000
215,19 Sep 2021 02:54:05.657,19 Sep 2021 03:00:21.336,375.679
216,19 Sep 2021 04:30:06.890,19 Sep 2021 04:36:38.586,391.696
217,19 Sep 2021 06:06:24.223,19 Sep 2021 06:12:54.952,390.728
218,19 Sep 2021 07:42:52.463,19 Sep 2021 07:48:20.920,328.458
219,20 Sep 2021 01:58:59.754,20 Sep 2021 02:04:14.539,314.786
220,20 Sep 2021 03:34:16.847,20 Sep 2021 03:40:46.786,389.939
221,20 Sep 2021 05:10:32.245,20 Sep 2021 05:17:03.876,391.631
222,20 Sep 2021 06:46:49.046,20 Sep 2021 06:53:08.677,379.631
223,20 Sep 2021 08:24:03.970,20 Sep 2021 08:27:16.163,192.194
224,21 Sep 2021 01:05:54.128,21 Sep 2021 01:06:30.272,36.144
225,21 Sep 2021 02:38:42.021,21 Sep 2021 02:44:52.755,370.734
226,21 Sep 2021 04:14:39.010,21 Sep 2021 04:21:10.765,391.755
227,21 Sep 2021 05:50:56.546,21 Sep 2021 05:57:27.809,391.263
228,21 Sep 2021 07:27:21.519,21 Sep 2021 07:33:01.806,340.287
229,22 Sep 2021 01:43:43.507,22 Sep 2021 01:48:41.688,298.181
230,22 Sep 2021 03:18:50.279,22 Sep 2021 03:25:19.069,388.789
231,22 Sep 2021 04:55:04.337,22 Sep 2021 05:01:35.913,391.575
232,22 Sep 2021 06:31:20.919,22 Sep 2021 06:37:43.813,382.894
233,22 Sep 2021 08:08:21.929,22 Sep 2021 08:12:11.084,229.155
234,23 Sep 2021 02:23:19.117,23 Sep 2021 02:29:23.856,364.740
235,23 Sep 2021 03:59:11.215,23 Sep 2021 04:05:42.988,391.773
236,23 Sep 2021 05:35:28.861,23 Sep 2021 05:42:00.438,391.576
237,23 Sep 2021 07:11:51.271,23 Sep 2021 07:17:41.527,350.256
238,24 Sep 2021 01:28:29.141,24 Sep 2021 01:33:07.458,278.316
239,24 Sep 2021 03:03:24.074,24 Sep 2021 03:09:51.291,387.217
240,24 Sep 2021 04:39:36.396,24 Sep 2021 04:46:07.940,391.545
241,24 Sep 2021 06:15:52.949,24 Sep 2021 06:22:18.422,385.472
242,24 Sep 2021 07:52:43.688,24 Sep 2021 07:57:01.686,257.997
243,25 Sep 2021 02:07:57.032,25 Sep 2021 02:13:54.573,357.541
244,25 Sep 2021 03:43:43.534,25 Sep 2021 03:50:15.252,391.718
245,25 Sep 2021 05:20:01.154,25 Sep 2021 05:26:32.885,391.732
246,25 Sep 2021 06:56:21.581,25 Sep 2021 07:02:20.231,358.650
247,26 Sep 2021 01:13:17.127,26 Sep 2021 01:17:31.386,254.258
248,26 Sep 2021 02:47:58.285,26 Sep 2021 02:54:23.427,385.143
249,26 Sep 2021 04:24:08.430,26 Sep 2021 04:30:39.977,391.547
250,26 Sep 2021 06:00:25.098,26 Sep 2021 06:06:52.569,387.471
251,26 Sep 2021 07:37:07.918,26 Sep 2021 07:41:49.296,281.378
252,27 Sep 2021 01:52:35.874,27 Sep 2021 01:58:24.809,348.935
253,27 Sep 2021 03:28:16.004,27 Sep 2021 03:34:47.547,391.543
254,27 Sep 2021 05:04:33.410,27 Sep 2021 05:11:05.186,391.776
255,27 Sep 2021 06:40:52.358,27 Sep 2021 06:46:58.025,365.667
256,28 Sep 2021 00:58:08.240,28 Sep 2021 01:01:52.708,224.469
257,28 Sep 2021 02:32:32.967,28 Sep 2021 02:38:55.435,382.468
258,28 Sep 2021 04:08:40.457,28 Sep 2021 04:15:12.039,391.582
259,28 Sep 2021 05:44:57.332,28 Sep 2021 05:51:26.310,388.978
260,28 Sep 2021 07:21:33.908,28 Sep 2021 07:26:34.640,300.732
261,29 Sep 2021 01:37:15.755,29 Sep 2021 01:42:54.469,338.714
262,29 Sep 2021 03:12:48.664,29 Sep 2021 03:19:19.863,391.199
263,29 Sep 2021 04:49:05.626,29 Sep 2021 04:55:37.377,391.751
264,29 Sep 2021 06:25:23.507,29 Sep 2021 06:31:35.010,371.503
265,29 Sep 2021 08:03:32.862,29 Sep 2021 08:04:36.916,64.054
266,30 Sep 2021 00:43:03.963,30 Sep 2021 00:46:09.938,185.975
267,30 Sep 2021 02:17:08.181,30 Sep 2021 02:23:27.284,379.103
268,30 Sep 2021 03:53:12.495,30 Sep 2021 03:59:44.133,391.639
269,30 Sep 2021 05:29:29.619,30 Sep 2021 05:35:59.692,390.074
270,30 Sep 2021 07:06:01.228,30 Sep 2021 07:11:18.154,316.926
271,1 Oct 2021 01:21:56.814,1 Oct 2021 01:27:23.415,326.601
272,1 Oct 2021 02:57:21.556,1 Oct 2021 03:03:52.187,390.631
273,1 Oct 2021 04:33:37.797,1 Oct 2021 04:40:09.484,391.687
274,1 Oct 2021 06:09:54.968,1 Oct 2021 06:16:11.275,376.307
275,1 Oct 2021 07:47:26.470,1 Oct 2021 07:49:57.170,150.700
276,2 Oct 2021 00:28:08.201,2 Oct 2021 00:30:19.193,130.991
277,2 Oct 2021 02:01:43.993,2 Oct 2021 02:07:58.918,374.925
278,2 Oct 2021 03:37:44.566,2 Oct 2021 03:44:16.274,391.709
279,2 Oct 2021 05:14:01.936,2 Oct 2021 05:20:32.771,390.835
280,2 Oct 2021 06:50:29.581,2 Oct 2021 06:56:00.140,330.559
281,3 Oct 2021 01:06:39.247,3 Oct 2021 01:11:51.476,312.229
282,3 Oct 2021 02:41:54.721,3 Oct 2021 02:48:24.495,389.773
283,3 Oct 2021 04:18:09.923,3 Oct 2021 04:24:41.545,391.622
284,3 Oct 2021 05:54:26.672,3 Oct 2021 06:00:46.894,380.222
285,3 Oct 2021 07:31:38.946,3 Oct 2021 07:34:58.016,199.070
286,4 Oct 2021 01:46:20.473,4 Oct 2021 01:52:30.290,369.817
287,4 Oct 2021 03:22:16.697,4 Oct 2021 03:28:48.459,391.762
288,4 Oct 2021 04:58:34.259,4 Oct 2021 05:05:05.588,391.329
289,4 Oct 2021 06:34:58.762,4 Oct 2021 06:40:40.822,342.060
290,5 Oct 2021 00:51:23.286,5 Oct 2021 00:56:18.422,295.136
291,5 Oct 2021 02:26:28.210,5 Oct 2021 02:32:56.773,388.563
292,5 Oct 2021 04:02:42.009,5 Oct 2021 04:09:13.577,391.568
293,5 Oct 2021 05:38:58.574,5 Oct 2021 05:45:21.940,383.366
294,5 Oct 2021 07:15:57.677,5 Oct 2021 07:19:52.080,234.403
295,6 Oct 2021 01:30:57.697,6 Oct 2021 01:37:01.334,363.636
296,6 Oct 2021 03:06:48.919,6 Oct 2021 03:13:20.689,391.771
297,6 Oct 2021 04:43:06.572,6 Oct 2021 04:49:38.184,391.612
298,6 Oct 2021 06:19:28.612,6 Oct 2021 06:25:20.366,351.754
299,7 Oct 2021 00:36:09.272,7 Oct 2021 00:40:43.923,274.651
300,7 Oct 2021 02:11:02.070,7 Oct 2021 02:17:28.984,386.915
301,7 Oct 2021 03:47:14.062,7 Oct 2021 03:53:45.605,391.543
302,7 Oct 2021 05:23:30.626,7 Oct 2021 05:29:56.469,385.842
303,7 Oct 2021 07:00:19.913,7 Oct 2021 07:04:42.116,262.202
304,8 Oct 2021 01:15:35.759,8 Oct 2021 01:21:31.976,356.217
305,8 Oct 2021 02:51:21.260,8 Oct 2021 02:57:52.959,391.699
306,8 Oct 2021 04:27:38.859,8 Oct 2021 04:34:10.604,391.745
307,8 Oct 2021 06:03:59.008,8 Oct 2021 06:09:58.908,359.900
308,9 Oct 2021 00:20:57.710,9 Oct 2021 00:25:07.485,249.774
309,9 Oct 2021 01:55:36.355,9 Oct 2021 02:02:01.100,384.745
310,9 Oct 2021 03:31:46.095,9 Oct 2021 03:38:17.646,391.551
311,9 Oct 2021 05:08:02.794,9 Oct 2021 05:14:30.545,387.751
312,9 Oct 2021 06:44:44.474,9 Oct 2021 06:49:29.310,284.836
313,10 Oct 2021 01:00:14.763,10 Oct 2021 01:06:02.123,347.360
314,10 Oct 2021 02:35:53.759,10 Oct 2021 02:42:25.258,391.499
315,10 Oct 2021 04:12:11.108,10 Oct 2021 04:18:42.884,391.775
316,10 Oct 2021 05:48:29.854,10 Oct 2021 05:54:36.560,366.706
317,11 Oct 2021 00:05:49.453,11 Oct 2021 00:09:28.262,218.809
318,11 Oct 2021 01:40:11.121,11 Oct 2021 01:46:33.087,381.965
319,11 Oct 2021 03:16:18.122,11 Oct 2021 03:22:49.713,391.591
320,11 Oct 2021 04:52:35.036,11 Oct 2021 04:59:04.223,389.187
321,11 Oct 2021 06:29:10.709,11 Oct 2021 06:34:14.321,303.612
322,12 Oct 2021 00:44:54.825,12 Oct 2021 00:50:31.677,336.852
323,12 Oct 2021 02:20:26.455,12 Oct 2021 02:26:57.580,391.125
324,12 Oct 2021 03:56:43.317,12 Oct 2021 04:03:15.059,391.742
325,12 Oct 2021 05:33:01.061,12 Oct 2021 05:39:13.425,372.364
326,12 Oct 2021 07:11:00.643,12 Oct 2021 07:12:26.127,85.484
327,12 Oct 2021 23:50:46.197,12 Oct 2021 23:53:44.559,178.362
328,13 Oct 2021 01:24:46.429,13 Oct 2021 01:31:04.898,378.469
329,13 Oct 2021 03:00:50.163,13 Oct 2021 03:07:21.816,391.653
330,13 Oct 2021 04:37:07.329,13 Oct 2021 04:43:37.551,390.222
331,13 Oct 2021 06:13:38.217,13 Oct 2021 06:18:57.564,319.347
332,14 Oct 2021 00:29:36.102,14 Oct 2021 00:35:00.485,324.383
333,14 Oct 2021 02:04:59.389,14 Oct 2021 02:11:29.900,390.511
334,14 Oct 2021 03:41:15.480,14 Oct 2021 03:47:47.154,391.674
335,14 Oct 2021 05:17:32.560,14 Oct 2021 05:23:49.578,377.018
336,14 Oct 2021 06:55:00.227,14 Oct 2021 06:57:40.316,160.089
337,14 Oct 2021 23:35:52.780,14 Oct 2021 23:37:51.555,118.776
338,15 Oct 2021 01:09:22.347,15 Oct 2021 01:15:36.493,374.145
339,15 Oct 2021 02:45:22.242,15 Oct 2021 02:51:53.961,391.719
340,15 Oct 2021 04:21:39.650,15 Oct 2021 04:28:10.583,390.934
341,15 Oct 2021 05:58:06.726,15 Oct 2021 06:03:39.322,332.596
342,16 Oct 2021 00:14:18.781,16 Oct 2021 00:19:28.383,309.601
343,16 Oct 2021 01:49:32.604,16 Oct 2021 01:56:02.207,389.603
344,16 Oct 2021 03:25:47.600,16 Oct 2021 03:32:19.211,391.611
345,16 Oct 2021 05:02:04.303,16 Oct 2021 05:08:25.097,380.794
346,16 Oct 2021 06:39:14.083,16 Oct 2021 06:42:39.692,205.609
347,17 Oct 2021 00:53:58.945,17 Oct 2021 01:00:07.816,368.871
348,17 Oct 2021 02:29:54.386,17 Oct 2021 02:36:26.154,391.768
349,17 Oct 2021 04:06:11.972,17 Oct 2021 04:12:43.361,391.389
350,17 Oct 2021 05:42:36.023,17 Oct 2021 05:48:19.807,343.783
351,17 Oct 2021 23:59:03.118,18 Oct 2021 00:03:55.111,291.993
352,18 Oct 2021 01:34:06.152,18 Oct 2021 01:40:34.472,388.320
353,18 Oct 2021 03:10:19.680,18 Oct 2021 03:16:51.241,391.562
354,18 Oct 2021 04:46:36.233,18 Oct 2021 04:53:00.053,383.820
355,18 Oct 2021 06:23:33.519,18 Oct 2021 06:27:32.965,239.446
356,19 Oct 2021 00:38:36.300,19 Oct 2021 00:44:38.800,362.499
357,19 Oct 2021 02:14:26.626,19 Oct 2021 02:20:58.391,391.765
358,19 Oct 2021 03:50:44.281,19 Oct 2021 03:57:15.924,391.643
359,19 Oct 2021 05:27:05.971,19 Oct 2021 05:32:59.176,353.204
360,19 Oct 2021 23:43:49.469,19 Oct 2021 23:48:20.338,270.869
361,20 Oct 2021 01:18:40.077,20 Oct 2021 01:25:06.670,386.593
362,20 Oct 2021 02:54:51.729,20 Oct 2021 03:01:23.270,391.542
363,20 Oct 2021 04:31:08.307,20 Oct 2021 04:37:34.504,386.198
364,20 Oct 2021 06:07:56.204,20 Oct 2021 06:12:22.468,266.264
365,21 Oct 2021 00:23:14.511,21 Oct 2021 00:29:09.367,354.856
366,21 Oct 2021 01:58:58.991,21 Oct 2021 02:05:30.666,391.676
367,21 Oct 2021 03:35:16.563,21 Oct 2021 03:41:48.319,391.756
368,21 Oct 2021 05:11:36.448,21 Oct 2021 05:17:37.563,361.115
369,21 Oct 2021 23:28:38.383,21 Oct 2021 23:32:43.506,245.123
370,22 Oct 2021 01:03:14.438,22 Oct 2021 01:09:38.767,384.329
371,22 Oct 2021 02:39:23.759,22 Oct 2021 02:45:55.314,391.555
372,22 Oct 2021 04:15:40.489,22 Oct 2021 04:22:08.509,388.020
373,22 Oct 2021 05:52:21.076,22 Oct 2021 05:57:09.266,288.190
374,23 Oct 2021 00:07:53.681,23 Oct 2021 00:13:39.426,345.745
375,23 Oct 2021 01:43:31.520,23 Oct 2021 01:50:02.968,391.448
376,23 Oct 2021 03:19:48.806,23 Oct 2021 03:26:20.579,391.773
377,23 Oct 2021 04:56:07.359,23 Oct 2021 05:02:15.079,367.719
378,23 Oct 2021 23:13:30.800,23 Oct 2021 23:17:03.697,212.897
379,24 Oct 2021 00:47:49.290,24 Oct 2021 00:54:10.729,381.439
380,24 Oct 2021 02:23:55.787,24 Oct 2021 02:30:27.387,391.600
381,24 Oct 2021 04:00:12.742,24 Oct 2021 04:06:42.126,389.384
382,24 Oct 2021 05:36:47.546,24 Oct 2021 05:41:53.957,306.411
383,24 Oct 2021 23:52:33.939,24 Oct 2021 23:58:08.864,334.925
384,25 Oct 2021 01:28:04.252,25 Oct 2021 01:34:35.293,391.041
385,25 Oct 2021 03:04:21.007,25 Oct 2021 03:10:52.740,391.733
386,25 Oct 2021 04:40:38.616,25 Oct 2021 04:46:51.820,373.204
387,25 Oct 2021 06:18:30.731,25 Oct 2021 06:20:13.015,102.284
388,25 Oct 2021 22:58:28.677,25 Oct 2021 23:01:18.954,170.278
389,26 Oct 2021 00:32:24.696,26 Oct 2021 00:38:42.506,377.811
390,26 Oct 2021 02:08:27.833,26 Oct 2021 02:14:59.497,391.664
391,26 Oct 2021 03:44:45.044,26 Oct 2021 03:51:15.402,390.358
392,26 Oct 2021 05:21:15.235,26 Oct 2021 05:26:36.940,321.705
393,26 Oct 2021 23:37:15.429,26 Oct 2021 23:42:37.534,322.105
394,27 Oct 2021 01:12:37.230,27 Oct 2021 01:19:07.612,390.382
395,27 Oct 2021 02:48:53.163,27 Oct 2021 02:55:24.827,391.664
396,27 Oct 2021 04:25:10.165,27 Oct 2021 04:31:27.859,377.694
397,27 Oct 2021 06:02:34.303,27 Oct 2021 06:05:23.124,168.821
398,27 Oct 2021 22:43:38.193,27 Oct 2021 22:45:23.103,104.910
399,28 Oct 2021 00:17:00.720,28 Oct 2021 00:23:14.063,373.343
400,28 Oct 2021 01:52:59.921,28 Oct 2021 01:59:31.652,391.732
401,28 Oct 2021 03:29:17.363,28 Oct 2021 03:35:48.389,391.025
402,28 Oct 2021 05:05:43.884,28 Oct 2021 05:11:18.470,334.586
403,28 Oct 2021 23:21:58.363,28 Oct 2021 23:27:05.257,306.894
404,29 Oct 2021 00:57:10.496,29 Oct 2021 01:03:39.914,389.418
405,29 Oct 2021 02:33:25.275,29 Oct 2021 02:39:56.877,391.602
406,29 Oct 2021 04:09:41.940,29 Oct 2021 04:16:03.285,381.345
407,29 Oct 2021 05:46:49.367,29 Oct 2021 05:50:21.208,211.841
408,30 Oct 2021 00:01:37.437,30 Oct 2021 00:07:45.330,367.892
409,30 Oct 2021 01:37:32.080,30 Oct 2021 01:44:03.850,391.770
410,30 Oct 2021 03:13:49.684,30 Oct 2021 03:20:21.125,391.441
411,30 Oct 2021 04:50:13.303,30 Oct 2021 04:55:58.760,345.457
412,30 Oct 2021 23:06:43.005,30 Oct 2021 23:11:31.763,288.758
413,31 Oct 2021 00:41:44.103,31 Oct 2021 00:48:12.169,388.066
414,31 Oct 2021 02:17:57.349,31 Oct 2021 02:24:28.905,391.556
415,31 Oct 2021 03:54:13.896,31 Oct 2021 04:00:38.151,384.255
416,31 Oct 2021 05:31:09.448,31 Oct 2021 05:35:13.747,244.299
417,31 Oct 2021 23:46:14.927,31 Oct 2021 23:52:16.248,361.321
418,1 Nov 2021 01:22:04.336,1 Nov 2021 01:28:36.094,391.758
419,1 Nov 2021 02:58:21.989,1 Nov 2021 03:04:53.660,391.671
420,1 Nov 2021 04:34:43.345,1 Nov 2021 04:40:37.960,354.615
421,1 Nov 2021 22:51:29.735,1 Nov 2021 22:55:56.694,266.959
422,2 Nov 2021 00:26:18.096,2 Nov 2021 00:32:44.354,386.257
423,2 Nov 2021 02:02:29.394,2 Nov 2021 02:09:00.935,391.542
424,2 Nov 2021 03:38:45.990,2 Nov 2021 03:45:12.526,386.536
425,2 Nov 2021 05:15:32.549,2 Nov 2021 05:20:02.744,270.195
426,2 Nov 2021 23:30:53.289,2 Nov 2021 23:36:46.741,353.453
427,3 Nov 2021 01:06:36.725,3 Nov 2021 01:13:08.374,391.649
428,3 Nov 2021 02:42:54.266,3 Nov 2021 02:49:26.030,391.764
429,3 Nov 2021 04:19:13.900,3 Nov 2021 04:25:16.197,362.297
430,3 Nov 2021 22:36:19.149,3 Nov 2021 22:40:19.449,240.299
431,4 Nov 2021 00:10:52.535,4 Nov 2021 00:17:16.431,383.897
432,4 Nov 2021 01:47:01.423,4 Nov 2021 01:53:32.984,391.561
433,4 Nov 2021 03:23:18.187,4 Nov 2021 03:29:46.463,388.276
434,4 Nov 2021 04:59:57.721,4 Nov 2021 05:04:49.157,291.436
435,4 Nov 2021 23:15:32.629,4 Nov 2021 23:21:16.707,344.077
436,5 Nov 2021 00:51:09.285,5 Nov 2021 00:57:40.681,391.395
437,5 Nov 2021 02:27:26.502,5 Nov 2021 02:33:58.271,391.769
438,5 Nov 2021 04:03:44.874,5 Nov 2021 04:09:53.578,368.704
439,5 Nov 2021 22:21:12.290,5 Nov 2021 22:24:39.001,206.711
440,5 Nov 2021 23:55:27.474,6 Nov 2021 00:01:48.365,380.892
441,6 Nov 2021 01:31:33.452,6 Nov 2021 01:38:05.062,391.610
442,6 Nov 2021 03:07:50.449,6 Nov 2021 03:14:20.020,389.571
443,6 Nov 2021 04:44:24.415,6 Nov 2021 04:49:33.547,309.132
444,6 Nov 2021 23:00:13.082,6 Nov 2021 23:05:46.025,332.943
445,7 Nov 2021 00:35:42.055,7 Nov 2021 00:42:13.006,390.951
446,7 Nov 2021 02:11:58.696,7 Nov 2021 02:18:30.417,391.722
447,7 Nov 2021 03:48:16.186,7 Nov 2021 03:54:30.196,374.010
448,7 Nov 2021 05:26:02.109,7 Nov 2021 05:27:58.598,116.489
449,7 Nov 2021 22:06:11.430,7 Nov 2021 22:08:53.081,161.651
450,7 Nov 2021 23:40:02.974,7 Nov 2021 23:46:20.112,377.138
451,8 Nov 2021 01:16:05.503,8 Nov 2021 01:22:37.178,391.675
452,8 Nov 2021 02:52:22.755,8 Nov 2021 02:58:53.244,390.489
453,8 Nov 2021 04:28:52.279,8 Nov 2021 04:34:16.269,323.990
454,8 Nov 2021 22:44:54.796,8 Nov 2021 22:50:14.556,319.760
455,9 Nov 2021 00:20:15.078,9 Nov 2021 00:26:45.323,390.244
456,9 Nov 2021 01:56:30.844,9 Nov 2021 02:03:02.497,391.654
457,9 Nov 2021 03:32:47.772,9 Nov 2021 03:39:06.128,378.356
458,9 Nov 2021 05:10:08.656,9 Nov 2021 05:13:05.644,176.988
459,9 Nov 2021 21:51:24.809,9 Nov 2021 21:52:53.456,88.648
460,9 Nov 2021 23:24:39.107,9 Nov 2021 23:30:51.622,372.515
461,10 Nov 2021 01:00:37.600,10 Nov 2021 01:07:09.340,391.740
462,10 Nov 2021 02:36:55.076,10 Nov 2021 02:43:26.186,391.110
463,10 Nov 2021 04:13:21.066,10 Nov 2021 04:18:57.584,336.517
464,10 Nov 2021 22:29:37.991,10 Nov 2021 22:34:42.094,304.103
465,11 Nov 2021 00:04:48.397,11 Nov 2021 00:11:17.618,389.222
466,11 Nov 2021 01:41:02.949,11 Nov 2021 01:47:34.541,391.592
467,11 Nov 2021 03:17:19.580,11 Nov 2021 03:23:41.455,381.875
468,11 Nov 2021 04:54:24.781,11 Nov 2021 04:58:02.576,217.796
469,11 Nov 2021 23:09:15.950,11 Nov 2021 23:15:22.835,366.884
470,12 Nov 2021 00:45:09.773,12 Nov 2021 00:51:41.546,391.773
471,12 Nov 2021 02:21:27.395,12 Nov 2021 02:27:58.888,391.493
472,12 Nov 2021 03:57:50.599,12 Nov 2021 04:03:37.679,347.080
473,12 Nov 2021 22:14:22.948,12 Nov 2021 22:19:08.376,285.427
474,12 Nov 2021 23:49:22.065,12 Nov 2021 23:55:49.863,387.798
475,13 Nov 2021 01:25:35.017,13 Nov 2021 01:32:06.569,391.552
476,13 Nov 2021 03:01:51.562,13 Nov 2021 03:08:16.235,384.673
477,13 Nov 2021 04:38:45.462,13 Nov 2021 04:42:54.432,248.970
478,13 Nov 2021 22:53:53.577,13 Nov 2021 22:59:53.689,360.112
479,14 Nov 2021 00:29:42.049,14 Nov 2021 00:36:13.797,391.748
480,14 Nov 2021 02:05:59.696,14 Nov 2021 02:12:31.391,391.694
481,14 Nov 2021 03:42:20.732,14 Nov 2021 03:48:16.715,355.983
482,14 Nov 2021 21:59:10.074,14 Nov 2021 22:03:32.990,262.916
483,14 Nov 2021 23:33:56.127,14 Nov 2021 23:40:22.031,385.903
484,15 Nov 2021 01:10:07.058,15 Nov 2021 01:16:38.601,391.542
485,15 Nov 2021 02:46:23.675,15 Nov 2021 02:52:50.534,386.859
486,15 Nov 2021 04:23:08.952,15 Nov 2021 04:27:42.950,273.998
487,15 Nov 2021 22:38:32.093,15 Nov 2021 22:44:24.102,352.008
488,16 Nov 2021 00:14:14.464,16 Nov 2021 00:20:46.082,391.618
489,16 Nov 2021 01:50:31.967,16 Nov 2021 01:57:03.737,391.769
490,16 Nov 2021 03:26:51.363,16 Nov 2021 03:32:54.804,363.441
491,16 Nov 2021 21:44:00.015,16 Nov 2021 21:47:55.305,235.290
492,16 Nov 2021 23:18:30.644,16 Nov 2021 23:24:54.090,383.446
493,17 Nov 2021 00:54:39.086,17 Nov 2021 01:01:10.653,391.567
494,17 Nov 2021 02:30:55.885,17 Nov 2021 02:37:24.405,388.520
495,17 Nov 2021 04:07:34.407,17 Nov 2021 04:12:29.001,294.593
496,17 Nov 2021 22:23:11.612,17 Nov 2021 22:28:53.969,342.357
497,17 Nov 2021 23:58:47.056,18 Nov 2021 00:05:18.395,391.339
498,18 Nov 2021 01:35:04.196,18 Nov 2021 01:41:35.959,391.763
499,18 Nov 2021 03:11:22.398,18 Nov 2021 03:17:32.051,369.653
500,18 Nov 2021 21:28:53.937,18 Nov 2021 21:32:14.163,200.226
501,18 Nov 2021 23:03:05.672,18 Nov 2021 23:09:25.995,380.322
502,19 Nov 2021 00:39:11.118,19 Nov 2021 00:45:42.738,391.620
503,19 Nov 2021 02:15:28.156,19 Nov 2021 02:21:57.902,389.746
504,19 Nov 2021 03:52:01.318,19 Nov 2021 03:57:13.092,311.774
505,19 Nov 2021 22:07:52.254,19 Nov 2021 22:13:23.172,330.918
506,19 Nov 2021 23:43:19.865,19 Nov 2021 23:49:50.718,390.853
507,20 Nov 2021 01:19:36.382,20 Nov 2021 01:26:08.094,391.711
508,20 Nov 2021 02:55:53.759,20 Nov 2021 03:02:08.549,374.790
509,20 Nov 2021 04:33:34.352,20 Nov 2021 04:35:43.300,128.948
510,20 Nov 2021 21:13:54.512,20 Nov 2021 21:16:26.897,152.384
511,20 Nov 2021 22:47:41.273,20 Nov 2021 22:53:57.707,376.434
512,21 Nov 2021 00:23:43.175,21 Nov 2021 00:30:14.861,391.687
513,21 Nov 2021 02:00:00.467,21 Nov 2021 02:06:31.078,390.611
514,21 Nov 2021 03:36:29.348,21 Nov 2021 03:41:55.564,326.216
515,21 Nov 2021 21:52:34.203,21 Nov 2021 21:57:51.550,317.347
516,21 Nov 2021 23:27:52.932,21 Nov 2021 23:34:23.032,390.100
517,22 Nov 2021 01:04:08.523,22 Nov 2021 01:10:40.166,391.642
518,22 Nov 2021 02:40:25.386,22 Nov 2021 02:46:44.379,378.994
519,22 Nov 2021 04:17:43.239,22 Nov 2021 04:20:47.915,184.676
520,22 Nov 2021 20:59:13.486,22 Nov 2021 21:00:21.766,68.280
521,22 Nov 2021 22:32:17.522,22 Nov 2021 22:38:29.173,371.651
522,23 Nov 2021 00:08:15.282,23 Nov 2021 00:14:47.032,391.750
523,23 Nov 2021 01:44:32.789,23 Nov 2021 01:51:03.977,391.188
524,23 Nov 2021 03:20:58.270,23 Nov 2021 03:26:36.663,338.393
525,23 Nov 2021 21:37:17.667,23 Nov 2021 21:42:18.903,301.236
526,23 Nov 2021 23:12:26.307,23 Nov 2021 23:18:55.322,389.015
527,24 Nov 2021 00:48:40.622,24 Nov 2021 00:55:12.205,391.584
528,24 Nov 2021 02:24:57.226,24 Nov 2021 02:31:19.611,382.385
529,24 Nov 2021 04:02:00.315,24 Nov 2021 04:05:43.811,223.496
530,24 Nov 2021 22:16:54.485,24 Nov 2021 22:23:00.335,365.850
531,24 Nov 2021 23:52:47.470,24 Nov 2021 23:59:19.244,391.774
532,25 Nov 2021 01:29:05.106,25 Nov 2021 01:35:36.641,391.535
533,25 Nov 2021 03:05:27.912,25 Nov 2021 03:11:16.574,348.661
534,25 Nov 2021 21:22:02.951,25 Nov 2021 21:26:44.934,281.983
535,25 Nov 2021 22:57:00.035,25 Nov 2021 23:03:27.555,387.521
536,26 Nov 2021 00:33:12.684,26 Nov 2021 00:39:44.232,391.548
537,26 Nov 2021 02:09:29.232,26 Nov 2021 02:15:54.305,385.073
538,26 Nov 2021 03:46:21.543,26 Nov 2021 03:50:35.027,253.484
539,26 Nov 2021 22:01:32.252,26 Nov 2021 22:07:31.120,358.868
540,26 Nov 2021 23:37:19.766,26 Nov 2021 23:43:51.501,391.735
541,27 Nov 2021 01:13:37.403,27 Nov 2021 01:20:09.117,391.714
542,27 Nov 2021 02:49:58.133,27 Nov 2021 02:55:55.445,357.312
543,27 Nov 2021 21:06:50.489,27 Nov 2021 21:11:09.224,258.735
544,27 Nov 2021 22:41:34.170,27 Nov 2021 22:47:59.707,385.537
545,28 Nov 2021 00:17:44.722,28 Nov 2021 00:24:16.266,391.544
546,28 Nov 2021 01:54:01.362,28 Nov 2021 02:00:28.527,387.164
547,28 Nov 2021 03:30:45.408,28 Nov 2021 03:35:23.091,277.683
548,28 Nov 2021 21:46:10.929,28 Nov 2021 21:52:01.446,350.518
549,28 Nov 2021 23:21:52.208,28 Nov 2021 23:28:23.791,391.583
550,29 Nov 2021 00:58:09.667,29 Nov 2021 01:04:41.440,391.773
551,29 Nov 2021 02:34:28.836,29 Nov 2021 02:40:33.384,364.548
552,29 Nov 2021 20:51:40.987,29 Nov 2021 20:55:31.069,230.083
553,29 Nov 2021 22:26:08.768,29 Nov 2021 22:32:31.743,382.975
554,30 Nov 2021 00:02:16.749,30 Nov 2021 00:08:48.323,391.574
555,30 Nov 2021 01:38:33.584,30 Nov 2021 01:45:02.334,388.749
556,30 Nov 2021 03:15:11.133,30 Nov 2021 03:20:08.785,297.652
557,30 Nov 2021 21:30:50.616,30 Nov 2021 21:36:31.214,340.597
558,30 Nov 2021 23:06:24.833,30 Nov 2021 23:12:56.106,391.273
559,1 Dec 2021 00:42:41.889,1 Dec 2021 00:49:13.645,391.757
560,1 Dec 2021 02:18:59.930,1 Dec 2021 02:25:10.505,370.575
561,1 Dec 2021 03:57:26.782,1 Dec 2021 03:57:53.847,27.065
562,1 Dec 2021 20:36:35.755,1 Dec 2021 20:39:49.167,193.412
563,1 Dec 2021 22:10:43.887,1 Dec 2021 22:17:03.622,379.735
564,1 Dec 2021 23:46:48.783,1 Dec 2021 23:53:20.411,391.628
565,2 Dec 2021 01:23:05.864,2 Dec 2021 01:29:35.774,389.910
566,2 Dec 2021 02:59:38.250,2 Dec 2021 03:04:52.590,314.340
567,2 Dec 2021 21:15:31.466,2 Dec 2021 21:21:00.290,328.824
568,2 Dec 2021 22:50:57.682,2 Dec 2021 22:57:28.430,390.748
569,3 Dec 2021 00:27:14.068,3 Dec 2021 00:33:45.769,391.702
570,3 Dec 2021 02:03:31.340,3 Dec 2021 02:09:46.888,375.548
571,3 Dec 2021 03:41:07.218,3 Dec 2021 03:43:27.362,140.144
572,3 Dec 2021 20:21:37.982,3 Dec 2021 20:24:00.333,142.351
573,3 Dec 2021 21:55:19.589,3 Dec 2021 22:01:35.295,375.707
574,3 Dec 2021 23:31:20.847,3 Dec 2021 23:37:52.543,391.696
575,4 Dec 2021 01:07:38.178,4 Dec 2021 01:14:08.903,390.724
576,4 Dec 2021 02:44:06.441,4 Dec 2021 02:49:34.821,328.380
577,4 Dec 2021 21:00:13.648,4 Dec 2021 21:05:28.519,314.871
578,4 Dec 2021 22:35:30.796,4 Dec 2021 22:42:00.741,389.944
579,5 Dec 2021 00:11:46.201,5 Dec 2021 00:18:17.831,391.630
580,5 Dec 2021 01:48:03.005,5 Dec 2021 01:54:22.613,379.609
581,5 Dec 2021 03:25:18.028,5 Dec 2021 03:28:29.965,191.936
582,5 Dec 2021 20:07:07.305,5 Dec 2021 20:07:44.950,37.644
583,5 Dec 2021 21:39:55.951,5 Dec 2021 21:46:06.715,370.763
584,5 Dec 2021 23:15:52.965,5 Dec 2021 23:22:24.720,391.755
585,6 Dec 2021 00:52:10.500,6 Dec 2021 00:58:41.758,391.257
586,6 Dec 2021 02:28:35.497,6 Dec 2021 02:34:15.712,340.216
587,6 Dec 2021 20:44:57.391,6 Dec 2021 20:49:55.673,298.282
588,6 Dec 2021 22:20:04.226,6 Dec 2021 22:26:33.022,388.796
589,6 Dec 2021 23:56:18.293,7 Dec 2021 00:02:49.869,391.576
590,7 Dec 2021 01:32:34.875,7 Dec 2021 01:38:57.751,382.876
591,7 Dec 2021 03:09:35.958,7 Dec 2021 03:13:24.916,228.959
592,7 Dec 2021 21:24:33.041,7 Dec 2021 21:30:37.817,364.776
593,7 Dec 2021 23:00:25.169,7 Dec 2021 23:06:56.942,391.773
594,8 Dec 2021 00:36:42.815,8 Dec 2021 00:43:14.390,391.575
595,8 Dec 2021 02:13:05.239,8 Dec 2021 02:18:55.439,350.200
596,8 Dec 2021 20:29:43.012,8 Dec 2021 20:34:21.452,278.439
597,8 Dec 2021 22:04:38.017,8 Dec 2021 22:11:05.245,387.227
598,8 Dec 2021 23:40:50.350,8 Dec 2021 23:47:21.895,391.545
599,9 Dec 2021 01:17:06.904,9 Dec 2021 01:23:32.362,385.458
600,9 Dec 2021 02:53:57.698,9 Dec 2021 02:58:15.539,257.841
601,9 Dec 2021 21:09:10.950,9 Dec 2021 21:15:08.536,357.586
602,9 Dec 2021 22:44:57.486,9 Dec 2021 22:51:29.205,391.719
603,10 Dec 2021 00:21:15.107,10 Dec 2021 00:27:46.838,391.731
604,10 Dec 2021 01:57:35.545,10 Dec 2021 02:03:34.144,358.598
605,10 Dec 2021 20:14:30.982,10 Dec 2021 20:18:45.393,254.411
606,10 Dec 2021 21:49:12.225,10 Dec 2021 21:55:37.381,385.156
607,10 Dec 2021 23:25:22.385,10 Dec 2021 23:31:53.932,391.547
608,11 Dec 2021 01:01:39.052,11 Dec 2021 01:08:06.512,387.460
609,11 Dec 2021 02:38:21.914,11 Dec 2021 02:43:03.165,281.251
610,11 Dec 2021 20:53:49.786,11 Dec 2021 20:59:38.775,348.989
611,11 Dec 2021 22:29:29.956,11 Dec 2021 22:36:01.500,391.544
612,12 Dec 2021 00:05:47.363,12 Dec 2021 00:12:19.139,391.776
613,12 Dec 2021 01:42:06.320,12 Dec 2021 01:48:11.945,365.626
614,12 Dec 2021 19:59:22.072,12 Dec 2021 20:03:06.734,224.662
615,12 Dec 2021 21:33:46.905,12 Dec 2021 21:40:09.390,382.485
616,12 Dec 2021 23:09:54.412,12 Dec 2021 23:16:25.994,391.582
617,13 Dec 2021 00:46:11.286,13 Dec 2021 00:52:40.255,388.970
618,13 Dec 2021 02:22:47.895,13 Dec 2021 02:27:48.522,300.626
619,13 Dec 2021 20:38:29.661,13 Dec 2021 20:44:08.439,338.778
620,13 Dec 2021 22:14:02.615,13 Dec 2021 22:20:33.819,391.204
621,13 Dec 2021 23:50:19.580,13 Dec 2021 23:56:51.327,391.747
622,14 Dec 2021 01:26:37.466,14 Dec 2021 01:32:48.938,371.471
623,14 Dec 2021 03:04:47.245,14 Dec 2021 03:05:50.385,63.140
624,14 Dec 2021 19:44:17.764,14 Dec 2021 19:47:23.993,186.230
625,14 Dec 2021 21:18:22.116,14 Dec 2021 21:24:41.240,379.124
626,14 Dec 2021 22:54:26.450,14 Dec 2021 23:00:58.089,391.639
627,15 Dec 2021 00:30:43.572,15 Dec 2021 00:37:13.640,390.068
628,15 Dec 2021 02:07:15.208,15 Dec 2021 02:12:32.045,316.837
629,15 Dec 2021 20:23:10.713,15 Dec 2021 20:28:37.389,326.675
630,15 Dec 2021 21:58:35.506,15 Dec 2021 22:05:06.141,390.635
631,15 Dec 2021 23:34:51.751,15 Dec 2021 23:41:23.440,391.689
632,16 Dec 2021 01:11:08.923,16 Dec 2021 01:17:25.207,376.283
633,16 Dec 2021 02:48:40.574,16 Dec 2021 02:51:10.920,150.347
634,16 Dec 2021 19:29:21.930,16 Dec 2021 19:31:33.316,131.386
635,16 Dec 2021 21:02:57.922,16 Dec 2021 21:09:12.876,374.954
636,16 Dec 2021 22:38:58.520,16 Dec 2021 22:45:30.230,391.709
637,17 Dec 2021 00:15:15.890,17 Dec 2021 00:21:46.721,390.831
638,17 Dec 2021 01:51:43.561,17 Dec 2021 01:57:14.039,330.478
639,17 Dec 2021 20:07:53.139,17 Dec 2021 20:13:05.456,312.316
640,17 Dec 2021 21:43:08.669,17 Dec 2021 21:49:38.448,389.779
641,17 Dec 2021 23:19:23.877,17 Dec 2021 23:25:55.500,391.622
642,18 Dec 2021 00:55:40.629,18 Dec 2021 01:02:00.830,380.201
643,18 Dec 2021 02:32:52.998,18 Dec 2021 02:36:11.822,198.824
644,18 Dec 2021 20:47:34.400,18 Dec 2021 20:53:44.248,369.848
645,18 Dec 2021 22:23:30.650,18 Dec 2021 22:30:02.413,391.762
646,18 Dec 2021 23:59:48.212,19 Dec 2021 00:06:19.535,391.323
647,19 Dec 2021 01:36:12.733,19 Dec 2021 01:41:54.728,341.995
648,19 Dec 2021 19:52:37.167,19 Dec 2021 19:57:32.407,295.240
649,19 Dec 2021 21:27:42.155,19 Dec 2021 21:34:10.726,388.571
650,19 Dec 2021 23:03:55.963,19 Dec 2021 23:10:27.532,391.569
651,20 Dec 2021 00:40:12.529,20 Dec 2021 00:46:35.877,383.349
652,20 Dec 2021 02:17:11.701,20 Dec 2021 02:21:05.914,234.213
653,20 Dec 2021 20:32:11.619,20 Dec 2021 20:38:15.293,363.674
654,20 Dec 2021 22:08:02.871,20 Dec 2021 22:14:34.642,391.771
655,20 Dec 2021 23:44:20.524,20 Dec 2021 23:50:52.135,391.611
656,21 Dec 2021 01:20:42.579,21 Dec 2021 01:26:34.277,351.699
657,21 Dec 2021 19:37:23.139,21 Dec 2021 19:41:57.917,274.779
658,21 Dec 2021 21:12:16.012,21 Dec 2021 21:18:42.936,386.925
659,21 Dec 2021 22:48:28.016,21 Dec 2021 22:54:59.559,391.543
660,22 Dec 2021 00:24:44.580,22 Dec 2021 00:31:10.409,385.829
661,22 Dec 2021 02:01:33.920,22 Dec 2021 02:05:55.969,262.049
662,22 Dec 2021 20:16:49.675,22 Dec 2021 20:22:45.938,356.263
663,22 Dec 2021 21:52:35.211,22 Dec 2021 21:59:06.911,391.699
664,22 Dec 2021 23:28:52.811,22 Dec 2021 23:35:24.556,391.745
665,23 Dec 2021 01:05:12.971,23 Dec 2021 01:11:12.825,359.854
666,23 Dec 2021 19:22:11.560,23 Dec 2021 19:26:21.492,249.932
667,23 Dec 2021 20:56:50.294,23 Dec 2021 21:03:15.052,384.759
668,23 Dec 2021 22:33:00.048,23 Dec 2021 22:39:31.599,391.551
669,24 Dec 2021 00:09:16.746,24 Dec 2021 00:15:44.487,387.740
670,24 Dec 2021 01:45:58.468,24 Dec 2021 01:50:43.180,284.712
671,24 Dec 2021 20:01:28.673,24 Dec 2021 20:07:16.088,347.416
672,24 Dec 2021 21:37:07.709,24 Dec 2021 21:43:39.210,391.500
673,24 Dec 2021 23:13:25.060,24 Dec 2021 23:19:56.836,391.775
674,25 Dec 2021 00:49:43.813,25 Dec 2021 00:55:50.482,366.668
675,25 Dec 2021 19:07:03.279,25 Dec 2021 19:10:42.290,219.012
676,25 Dec 2021 20:41:25.057,25 Dec 2021 20:47:47.040,381.983
677,25 Dec 2021 22:17:32.075,25 Dec 2021 22:24:03.666,391.591
678,25 Dec 2021 23:53:48.988,26 Dec 2021 00:00:18.167,389.179
679,26 Dec 2021 01:30:24.694,26 Dec 2021 01:35:28.203,303.509
680,26 Dec 2021 19:46:08.734,26 Dec 2021 19:51:45.643,336.909
681,26 Dec 2021 21:21:40.404,26 Dec 2021 21:28:11.531,391.128
682,26 Dec 2021 22:57:57.270,26 Dec 2021 23:04:29.011,391.741
683,27 Dec 2021 00:34:15.019,27 Dec 2021 00:40:27.352,372.333
684,27 Dec 2021 02:12:14.904,27 Dec 2021 02:13:39.714,84.811
685,27 Dec 2021 18:51:59.988,27 Dec 2021 18:54:58.623,178.635
686,27 Dec 2021 20:26:00.362,27 Dec 2021 20:32:18.854,378.492
687,27 Dec 2021 22:02:04.117,27 Dec 2021 22:08:35.767,391.650
688,27 Dec 2021 23:38:21.282,27 Dec 2021 23:44:51.498,390.216
689,28 Dec 2021 01:14:52.195,28 Dec 2021 01:20:11.456,319.261
690,28 Dec 2021 19:30:49.998,28 Dec 2021 19:36:14.459,324.461
691,28 Dec 2021 21:06:13.337,28 Dec 2021 21:12:43.853,390.516
692,28 Dec 2021 22:42:29.434,28 Dec 2021 22:49:01.112,391.679
693,29 Dec 2021 00:18:46.520,29 Dec 2021 00:25:03.509,376.989
694,29 Dec 2021 01:56:14.313,29 Dec 2021 01:58:54.079,159.766
695,29 Dec 2021 18:37:06.480,29 Dec 2021 18:39:05.705,119.226
696,29 Dec 2021 20:10:36.273,29 Dec 2021 20:16:50.449,374.176
697,29 Dec 2021 21:46:36.196,29 Dec 2021 21:53:07.915,391.720
698,29 Dec 2021 23:22:53.602,29 Dec 2021 23:29:24.532,390.930
699,30 Dec 2021 00:59:20.699,30 Dec 2021 01:04:53.221,332.523
700,30 Dec 2021 19:15:32.669,30 Dec 2021 19:20:42.362,309.693
701,30 Dec 2021 20:50:46.550,30 Dec 2021 20:57:16.159,389.609
702,30 Dec 2021 22:27:01.553,30 Dec 2021 22:33:33.165,391.612
703,31 Dec 2021 00:03:18.259,31 Dec 2021 00:09:39.031,380.773
704,31 Dec 2021 01:40:28.127,31 Dec 2021 01:43:53.503,205.376
705,31 Dec 2021 19:55:12.870,31 Dec 2021 20:01:21.774,368.904
706,31 Dec 2021 21:31:08.338,31 Dec 2021 21:37:40.106,391.768
707,31 Dec 2021 23:07:25.923,31 Dec 2021 23:13:57.306,391.383
708,1 Jan 2022 00:43:49.992,1 Jan 2022 00:49:33.712,343.720
709,1 Jan 2022 19:00:16.994,1 Jan 2022 19:05:09.098,292.104
710,1 Jan 2022 20:35:20.095,1 Jan 2022 20:41:48.423,388.328
711,1 Jan 2022 22:11:33.632,1 Jan 2022 22:18:05.194,391.562
712,1 Jan 2022 23:47:50.186,1 Jan 2022 23:54:13.989,383.803
713,2 Jan 2022 01:24:47.538,2 Jan 2022 01:28:46.799,239.261
714,2 Jan 2022 19:39:50.220,2 Jan 2022 19:45:52.758,362.539
715,2 Jan 2022 21:15:40.577,2 Jan 2022 21:22:12.342,391.766
716,2 Jan 2022 22:51:58.232,2 Jan 2022 22:58:29.874,391.642
717,3 Jan 2022 00:28:19.936,3 Jan 2022 00:34:13.087,353.151
718,3 Jan 2022 18:45:03.330,3 Jan 2022 18:49:34.333,271.003
719,3 Jan 2022 20:19:54.017,3 Jan 2022 20:26:20.621,386.604
720,3 Jan 2022 21:56:05.680,3 Jan 2022 22:02:37.222,391.542
721,3 Jan 2022 23:32:22.258,3 Jan 2022 23:38:48.443,386.185
722,4 Jan 2022 01:09:10.207,4 Jan 2022 01:13:36.323,266.116
723,4 Jan 2022 19:24:28.423,4 Jan 2022 19:30:23.328,354.904
724,4 Jan 2022 21:00:12.940,4 Jan 2022 21:06:44.616,391.676
725,4 Jan 2022 22:36:30.514,4 Jan 2022 22:43:02.269,391.756
726,5 Jan 2022 00:12:50.408,5 Jan 2022 00:18:51.478,361.070
727,5 Jan 2022 18:29:52.225,5 Jan 2022 18:33:57.519,245.294
728,5 Jan 2022 20:04:28.375,5 Jan 2022 20:10:52.719,384.344
729,5 Jan 2022 21:40:37.710,5 Jan 2022 21:47:09.266,391.555
730,5 Jan 2022 23:16:54.440,5 Jan 2022 23:23:22.450,388.010
731,6 Jan 2022 00:53:35.066,6 Jan 2022 00:58:23.135,288.069
732,6 Jan 2022 19:09:07.587,6 Jan 2022 19:14:53.391,345.803
733,6 Jan 2022 20:44:45.468,6 Jan 2022 20:51:16.921,391.453
734,6 Jan 2022 22:21:02.756,6 Jan 2022 22:27:34.529,391.773
735,6 Jan 2022 23:57:21.316,7 Jan 2022 00:03:29.000,367.683
736,7 Jan 2022 18:14:44.616,7 Jan 2022 18:18:17.730,213.114
737,7 Jan 2022 19:49:03.223,7 Jan 2022 19:55:24.681,381.458
738,7 Jan 2022 21:25:09.739,7 Jan 2022 21:31:41.338,391.600
739,7 Jan 2022 23:01:26.692,7 Jan 2022 23:07:56.070,389.377
740,8 Jan 2022 00:38:01.526,8 Jan 2022 00:43:07.838,306.312
741,8 Jan 2022 18:53:47.838,8 Jan 2022 18:59:22.833,334.995
742,8 Jan 2022 20:29:18.199,8 Jan 2022 20:35:49.243,391.044
743,8 Jan 2022 22:05:34.958,8 Jan 2022 22:12:06.692,391.734
744,8 Jan 2022 23:41:52.575,8 Jan 2022 23:48:05.746,373.171
745,9 Jan 2022 01:19:44.929,9 Jan 2022 01:21:26.662,101.733
746,9 Jan 2022 17:59:42.448,9 Jan 2022 18:02:33.029,170.581
747,9 Jan 2022 19:33:38.625,9 Jan 2022 19:39:56.460,377.835
748,9 Jan 2022 21:09:41.785,9 Jan 2022 21:16:13.446,391.662
749,9 Jan 2022 22:45:58.991,9 Jan 2022 22:52:29.347,390.356
750,10 Jan 2022 00:22:29.209,10 Jan 2022 00:27:50.832,321.622
751,10 Jan 2022 18:38:29.321,10 Jan 2022 18:43:51.509,322.188
752,10 Jan 2022 20:13:51.176,10 Jan 2022 20:20:21.563,390.387
753,10 Jan 2022 21:50:07.114,10 Jan 2022 21:56:38.782,391.667
754,10 Jan 2022 23:26:24.117,10 Jan 2022 23:32:41.789,377.673
755,11 Jan 2022 01:03:48.379,11 Jan 2022 01:06:36.898,168.519
756,11 Jan 2022 17:44:51.849,11 Jan 2022 17:46:37.293,105.444
757,11 Jan 2022 19:18:14.647,11 Jan 2022 19:24:28.019,373.373
758,11 Jan 2022 20:54:13.872,11 Jan 2022 21:00:45.601,391.728
759,11 Jan 2022 22:30:31.314,11 Jan 2022 22:37:02.336,391.022
760,12 Jan 2022 00:06:57.853,12 Jan 2022 00:12:32.373,334.519
761,12 Jan 2022 18:23:12.246,12 Jan 2022 18:28:19.238,306.992
762,12 Jan 2022 19:58:24.440,12 Jan 2022 20:04:53.864,389.425
763,12 Jan 2022 21:34:39.227,12 Jan 2022 21:41:10.829,391.602
764,12 Jan 2022 23:10:55.893,12 Jan 2022 23:17:17.218,381.326
765,13 Jan 2022 00:48:03.402,13 Jan 2022 00:51:35.024,211.622
766,13 Jan 2022 19:02:51.359,13 Jan 2022 19:08:59.287,367.928
767,13 Jan 2022 20:38:46.031,13 Jan 2022 20:45:17.801,391.770
768,13 Jan 2022 22:15:03.634,13 Jan 2022 22:21:35.073,391.439
769,13 Jan 2022 23:51:27.269,13 Jan 2022 23:57:12.667,345.398
770,14 Jan 2022 18:07:56.876,14 Jan 2022 18:12:45.751,288.875
771,14 Jan 2022 19:42:58.045,14 Jan 2022 19:49:26.120,388.075
772,14 Jan 2022 21:19:11.301,14 Jan 2022 21:25:42.857,391.557
773,14 Jan 2022 22:55:27.848,14 Jan 2022 23:01:52.087,384.240
774,15 Jan 2022 00:32:23.461,15 Jan 2022 00:36:27.588,244.127
775,15 Jan 2022 18:47:28.844,15 Jan 2022 18:53:30.208,361.364
776,15 Jan 2022 20:23:18.286,15 Jan 2022 20:29:50.044,391.758
777,15 Jan 2022 21:59:35.939,15 Jan 2022 22:06:07.609,391.670
778,15 Jan 2022 23:35:57.307,15 Jan 2022 23:41:51.871,354.564
779,16 Jan 2022 17:52:43.595,16 Jan 2022 17:57:10.693,267.098
780,16 Jan 2022 19:27:32.035,16 Jan 2022 19:33:58.304,386.270
781,16 Jan 2022 21:03:43.345,16 Jan 2022 21:10:14.887,391.542
782,16 Jan 2022 22:39:59.940,16 Jan 2022 22:46:26.464,386.524
783,17 Jan 2022 00:16:46.551,17 Jan 2022 00:21:16.601,270.050
784,17 Jan 2022 18:32:07.199,17 Jan 2022 18:38:00.703,353.504
785,17 Jan 2022 20:07:50.674,17 Jan 2022 20:14:22.324,391.650
786,17 Jan 2022 21:44:08.216,17 Jan 2022 21:50:39.979,391.764
787,17 Jan 2022 23:20:27.858,17 Jan 2022 23:26:30.113,362.255
788,18 Jan 2022 17:37:32.986,18 Jan 2022 17:41:33.463,240.477
789,18 Jan 2022 19:12:06.470,18 Jan 2022 19:18:30.382,383.913
790,18 Jan 2022 20:48:15.373,18 Jan 2022 20:54:46.934,391.561
791,18 Jan 2022 22:24:32.136,18 Jan 2022 22:31:00.403,388.267
792,19 Jan 2022 00:01:11.707,19 Jan 2022 00:06:03.028,291.321
793,19 Jan 2022 18:16:46.533,19 Jan 2022 18:22:30.672,344.139
794,19 Jan 2022 19:52:23.232,19 Jan 2022 19:58:54.632,391.399
795,19 Jan 2022 21:28:40.451,19 Jan 2022 21:35:12.220,391.769
796,19 Jan 2022 23:04:58.830,19 Jan 2022 23:11:07.499,368.670
797,20 Jan 2022 17:22:26.098,20 Jan 2022 17:25:53.042,206.944
798,20 Jan 2022 18:56:41.405,20 Jan 2022 19:03:02.317,380.912
799,20 Jan 2022 20:32:47.403,20 Jan 2022 20:39:19.012,391.609
800,20 Jan 2022 22:09:04.398,20 Jan 2022 22:15:33.963,389.565
801,20 Jan 2022 23:45:38.393,20 Jan 2022 23:50:47.430,309.037
802,21 Jan 2022 18:01:26.978,21 Jan 2022 18:06:59.995,333.018
803,21 Jan 2022 19:36:56.001,21 Jan 2022 19:43:26.955,390.954
804,21 Jan 2022 21:13:12.646,21 Jan 2022 21:19:44.367,391.721
805,21 Jan 2022 22:49:30.136,21 Jan 2022 22:55:44.122,373.986
806,22 Jan 2022 00:27:16.263,22 Jan 2022 00:29:12.286,116.022
807,22 Jan 2022 17:07:25.192,22 Jan 2022 17:10:07.170,161.978
808,22 Jan 2022 18:41:16.905,22 Jan 2022 18:47:34.066,377.161
809,22 Jan 2022 20:17:19.454,22 Jan 2022 20:23:51.127,391.673
810,22 Jan 2022 21:53:36.704,22 Jan 2022 22:00:07.189,390.485
811,22 Jan 2022 23:30:06.251,22 Jan 2022 23:35:30.162,323.912
812,23 Jan 2022 17:46:08.684,23 Jan 2022 17:51:28.533,319.849
813,23 Jan 2022 19:21:29.023,23 Jan 2022 19:27:59.273,390.250
814,23 Jan 2022 20:57:44.795,23 Jan 2022 21:04:16.448,391.653
815,23 Jan 2022 22:34:01.725,23 Jan 2022 22:40:20.059,378.334
816,24 Jan 2022 00:11:22.718,24 Jan 2022 00:14:19.427,176.708
817,24 Jan 2022 16:52:38.402,24 Jan 2022 16:54:07.708,89.305
818,24 Jan 2022 18:25:53.032,24 Jan 2022 18:32:05.578,372.546
819,24 Jan 2022 20:01:51.551,24 Jan 2022 20:08:23.290,391.738
820,24 Jan 2022 21:38:09.026,24 Jan 2022 21:44:40.133,391.108
821,24 Jan 2022 23:14:35.034,24 Jan 2022 23:20:11.485,336.452
822,25 Jan 2022 17:30:51.870,25 Jan 2022 17:35:56.078,304.208
823,25 Jan 2022 19:06:02.340,25 Jan 2022 19:12:31.569,389.229
824,25 Jan 2022 20:42:16.901,25 Jan 2022 20:48:48.493,391.593
825,25 Jan 2022 22:18:33.533,25 Jan 2022 22:24:55.390,381.857
826,25 Jan 2022 23:55:38.808,25 Jan 2022 23:59:16.401,217.592
827,26 Jan 2022 18:10:29.871,26 Jan 2022 18:16:36.793,366.922
828,26 Jan 2022 19:46:23.724,26 Jan 2022 19:52:55.497,391.773
829,26 Jan 2022 21:22:41.345,26 Jan 2022 21:29:12.834,391.488
830,26 Jan 2022 22:59:04.563,26 Jan 2022 23:04:51.587,347.024
831,27 Jan 2022 17:15:36.816,27 Jan 2022 17:20:22.368,285.551
832,27 Jan 2022 18:50:36.006,27 Jan 2022 18:57:03.814,387.809
833,27 Jan 2022 20:26:48.969,27 Jan 2022 20:33:20.520,391.552
834,27 Jan 2022 22:03:05.513,27 Jan 2022 22:09:30.172,384.659
835,27 Jan 2022 23:39:59.465,27 Jan 2022 23:44:08.278,248.813
836,28 Jan 2022 17:55:07.492,28 Jan 2022 18:01:07.649,360.157
837,28 Jan 2022 19:30:55.999,28 Jan 2022 19:37:27.747,391.748
838,28 Jan 2022 21:07:13.646,28 Jan 2022 21:13:45.340,391.693
839,28 Jan 2022 22:43:34.693,28 Jan 2022 22:49:30.624,355.931
840,29 Jan 2022 17:00:23.926,29 Jan 2022 17:04:46.993,263.067
841,29 Jan 2022 18:35:10.065,29 Jan 2022 18:41:35.981,385.917
842,29 Jan 2022 20:11:21.009,29 Jan 2022 20:17:52.552,391.542
843,29 Jan 2022 21:47:37.625,29 Jan 2022 21:54:04.473,386.848
844,29 Jan 2022 23:24:22.946,29 Jan 2022 23:28:56.812,273.866
845,30 Jan 2022 17:39:46.002,30 Jan 2022 17:45:38.065,352.063
846,30 Jan 2022 19:15:28.412,30 Jan 2022 19:22:00.032,391.619
847,30 Jan 2022 20:51:45.917,30 Jan 2022 20:58:17.686,391.769
848,30 Jan 2022 22:28:05.320,30 Jan 2022 22:34:08.721,363.402
849,31 Jan 2022 16:45:13.845,31 Jan 2022 16:49:09.325,235.480
850,31 Jan 2022 18:19:44.578,31 Jan 2022 18:26:08.042,383.463
851,31 Jan 2022 19:55:53.037,31 Jan 2022 20:02:24.603,391.567
852,31 Jan 2022 21:32:09.834,31 Jan 2022 21:38:38.346,388.512
853,31 Jan 2022 23:08:48.390,31 Jan 2022 23:13:42.875,294.485
854,1 Feb 2022 17:24:25.513,1 Feb 2022 17:30:07.936,342.423
855,1 Feb 2022 19:00:01.003,1 Feb 2022 19:06:32.344,391.341
856,1 Feb 2022 20:36:18.145,1 Feb 2022 20:42:49.909,391.764
857,1 Feb 2022 22:12:36.352,1 Feb 2022 22:18:45.973,369.621
858,2 Feb 2022 16:30:07.735,2 Feb 2022 16:33:28.212,200.477
859,2 Feb 2022 18:04:19.603,2 Feb 2022 18:10:39.948,380.345
860,2 Feb 2022 19:40:25.068,2 Feb 2022 19:46:56.688,391.619
861,2 Feb 2022 21:16:42.105,2 Feb 2022 21:23:11.845,389.740
862,2 Feb 2022 22:53:15.292,2 Feb 2022 22:58:26.978,311.686
863,3 Feb 2022 17:09:06.147,3 Feb 2022 17:14:37.144,330.997
864,3 Feb 2022 18:44:33.810,3 Feb 2022 18:51:04.667,390.857
865,3 Feb 2022 20:20:50.332,3 Feb 2022 20:27:22.043,391.711
866,3 Feb 2022 21:57:07.712,3 Feb 2022 22:03:22.476,374.764
867,3 Feb 2022 23:34:48.476,3 Feb 2022 23:36:57.018,128.541
868,4 Feb 2022 16:15:08.253,4 Feb 2022 16:17:41.002,152.749
869,4 Feb 2022 17:48:55.199,4 Feb 2022 17:55:11.662,376.462
870,4 Feb 2022 19:24:57.125,4 Feb 2022 19:31:28.810,391.685
871,4 Feb 2022 21:01:14.416,4 Feb 2022 21:07:45.023,390.607
872,4 Feb 2022 22:37:43.317,4 Feb 2022 22:43:09.459,326.142
873,5 Feb 2022 16:53:48.087,5 Feb 2022 16:59:05.529,317.442
874,5 Feb 2022 18:29:06.876,5 Feb 2022 18:35:36.982,390.106
875,5 Feb 2022 20:05:22.474,5 Feb 2022 20:11:54.116,391.642
876,5 Feb 2022 21:41:39.337,5 Feb 2022 21:47:58.311,378.973
877,5 Feb 2022 23:18:57.290,5 Feb 2022 23:22:01.711,184.422
878,6 Feb 2022 16:00:26.963,6 Feb 2022 16:01:36.133,69.169
879,6 Feb 2022 17:33:31.445,6 Feb 2022 17:39:43.130,371.685
880,6 Feb 2022 19:09:29.233,6 Feb 2022 19:16:00.982,391.749
881,6 Feb 2022 20:45:46.738,6 Feb 2022 20:52:17.924,391.186
882,6 Feb 2022 22:22:12.235,6 Feb 2022 22:27:50.570,338.335
883,7 Feb 2022 16:38:31.542,7 Feb 2022 16:43:32.890,301.347
884,7 Feb 2022 18:13:40.249,7 Feb 2022 18:20:09.272,389.023
885,7 Feb 2022 19:49:54.573,7 Feb 2022 19:56:26.157,391.584
886,7 Feb 2022 21:26:11.177,7 Feb 2022 21:32:33.546,382.369
887,7 Feb 2022 23:03:14.335,7 Feb 2022 23:06:57.642,223.307
888,8 Feb 2022 17:18:08.404,8 Feb 2022 17:24:14.295,365.891
889,8 Feb 2022 18:54:01.421,8 Feb 2022 19:00:33.195,391.774
890,8 Feb 2022 20:30:19.056,8 Feb 2022 20:36:50.589,391.534
891,8 Feb 2022 22:06:41.874,8 Feb 2022 22:12:30.484,348.610
892,9 Feb 2022 16:23:16.814,9 Feb 2022 16:27:58.930,282.116
893,9 Feb 2022 17:58:13.975,9 Feb 2022 18:04:41.507,387.532
894,9 Feb 2022 19:34:26.636,9 Feb 2022 19:40:58.184,391.548
895,9 Feb 2022 21:10:43.183,9 Feb 2022 21:17:08.243,385.060
896,9 Feb 2022 22:47:35.545,9 Feb 2022 22:51:48.879,253.333
897,10 Feb 2022 17:02:46.165,10 Feb 2022 17:08:45.082,358.917
898,10 Feb 2022 18:38:33.716,10 Feb 2022 18:45:05.451,391.735
899,10 Feb 2022 20:14:51.353,10 Feb 2022 20:21:23.066,391.714
900,10 Feb 2022 21:51:12.092,10 Feb 2022 21:57:09.360,357.268
901,11 Feb 2022 16:08:04.336,11 Feb 2022 16:12:23.232,258.896
902,11 Feb 2022 17:42:48.108,11 Feb 2022 17:49:13.659,385.552
903,11 Feb 2022 19:18:58.674,11 Feb 2022 19:25:30.218,391.544
904,11 Feb 2022 20:55:15.313,11 Feb 2022 21:01:42.467,387.154
905,11 Feb 2022 22:31:59.399,11 Feb 2022 22:36:36.958,277.559
906,12 Feb 2022 16:47:24.836,12 Feb 2022 16:53:15.411,350.576
907,12 Feb 2022 18:23:06.156,12 Feb 2022 18:29:37.741,391.585
908,12 Feb 2022 19:59:23.618,12 Feb 2022 20:05:55.390,391.772
909,12 Feb 2022 21:35:42.793,12 Feb 2022 21:41:47.308,364.515
910,13 Feb 2022 15:52:54.812,13 Feb 2022 15:56:45.096,230.284
911,13 Feb 2022 17:27:22.702,13 Feb 2022 17:33:45.695,382.994
912,13 Feb 2022 19:03:30.701,13 Feb 2022 19:10:02.274,391.574
913,13 Feb 2022 20:39:47.534,13 Feb 2022 20:46:16.276,388.742
914,13 Feb 2022 22:16:25.114,13 Feb 2022 22:21:22.664,297.550
915,14 Feb 2022 16:32:04.521,14 Feb 2022 16:37:45.183,340.662
916,14 Feb 2022 18:07:38.780,14 Feb 2022 18:14:10.055,391.275
917,14 Feb 2022 19:43:55.839,14 Feb 2022 19:50:27.596,391.757
918,14 Feb 2022 21:20:13.884,14 Feb 2022 21:26:24.429,370.545
919,14 Feb 2022 22:58:41.783,14 Feb 2022 22:59:06.686,24.903
920,15 Feb 2022 15:37:49.546,15 Feb 2022 15:41:03.225,193.679
921,15 Feb 2022 17:11:57.816,15 Feb 2022 17:18:17.576,379.759
922,15 Feb 2022 18:48:02.735,15 Feb 2022 18:54:34.364,391.629
923,15 Feb 2022 20:24:19.813,15 Feb 2022 20:30:49.718,389.905
924,15 Feb 2022 22:00:52.223,15 Feb 2022 22:06:06.479,314.256
925,16 Feb 2022 16:16:45.358,16 Feb 2022 16:22:14.264,328.907
926,16 Feb 2022 17:52:11.627,16 Feb 2022 17:58:42.380,390.752
927,16 Feb 2022 19:28:28.018,16 Feb 2022 19:34:59.720,391.702
928,16 Feb 2022 21:04:45.292,16 Feb 2022 21:11:00.816,375.524
929,16 Feb 2022 22:42:21.319,16 Feb 2022 22:44:41.105,139.786
930,17 Feb 2022 15:22:51.704,17 Feb 2022 15:25:14.463,142.759
931,17 Feb 2022 16:56:33.518,17 Feb 2022 17:02:49.251,375.734
932,17 Feb 2022 18:32:34.798,17 Feb 2022 18:39:06.496,391.698
933,17 Feb 2022 20:08:52.128,17 Feb 2022 20:15:22.849,390.721
934,17 Feb 2022 21:45:20.408,17 Feb 2022 21:50:48.719,328.311
935,18 Feb 2022 16:01:27.533,18 Feb 2022 16:06:42.501,314.968
936,18 Feb 2022 17:36:44.740,18 Feb 2022 17:43:14.691,389.951
937,18 Feb 2022 19:13:00.153,18 Feb 2022 19:19:31.782,391.630
938,18 Feb 2022 20:49:16.957,18 Feb 2022 20:55:36.547,379.590
939,18 Feb 2022 22:26:32.070,18 Feb 2022 22:29:43.773,191.703
940,19 Feb 2022 15:08:20.405,19 Feb 2022 15:08:59.693,39.287
941,19 Feb 2022 16:41:09.870,19 Feb 2022 16:47:20.674,370.804
942,19 Feb 2022 18:17:06.917,19 Feb 2022 18:23:38.671,391.755
943,19 Feb 2022 19:53:24.451,19 Feb 2022 19:59:55.706,391.255
944,19 Feb 2022 21:29:49.456,19 Feb 2022 21:35:29.619,340.163
945,20 Feb 2022 15:46:11.265,20 Feb 2022 15:51:09.664,298.400
946,20 Feb 2022 17:21:18.169,20 Feb 2022 17:27:46.975,388.806
947,20 Feb 2022 18:57:32.245,20 Feb 2022 19:04:03.821,391.576
948,20 Feb 2022 20:33:48.827,20 Feb 2022 20:40:11.684,382.857
949,20 Feb 2022 22:10:49.972,20 Feb 2022 22:14:38.759,228.787
950,21 Feb 2022 16:25:46.959,21 Feb 2022 16:31:51.779,364.819
951,21 Feb 2022 18:01:39.121,21 Feb 2022 18:08:10.894,391.773
952,21 Feb 2022 19:37:56.766,21 Feb 2022 19:44:28.340,391.574
953,21 Feb 2022 21:14:19.202,21 Feb 2022 21:20:09.353,350.151
954,22 Feb 2022 15:30:56.874,22 Feb 2022 15:35:35.453,278.579
955,22 Feb 2022 17:05:51.958,22 Feb 2022 17:12:19.198,387.240
956,22 Feb 2022 18:42:04.304,22 Feb 2022 18:48:35.848,391.544
957,22 Feb 2022 20:18:20.856,22 Feb 2022 20:24:46.302,385.447
958,22 Feb 2022 21:55:11.697,22 Feb 2022 21:59:29.398,257.700
959,23 Feb 2022 16:10:24.864,23 Feb 2022 16:16:22.501,357.637
960,23 Feb 2022 17:46:11.438,23 Feb 2022 17:52:43.157,391.719
961,23 Feb 2022 19:22:29.059,23 Feb 2022 19:29:00.790,391.731
962,23 Feb 2022 20:58:49.505,23 Feb 2022 21:04:48.067,358.562
963,24 Feb 2022 15:15:44.828,24 Feb 2022 15:19:59.408,254.581
964,24 Feb 2022 16:50:26.163,24 Feb 2022 16:56:51.335,385.172
965,24 Feb 2022 18:26:36.338,24 Feb 2022 18:33:07.885,391.547
966,24 Feb 2022 20:02:53.003,24 Feb 2022 20:09:20.455,387.451
967,24 Feb 2022 21:39:35.903,24 Feb 2022 21:44:17.038,281.135
968,25 Feb 2022 15:55:03.694,25 Feb 2022 16:00:52.743,349.049
969,25 Feb 2022 17:30:43.906,25 Feb 2022 17:37:15.451,391.546
970,25 Feb 2022 19:07:01.315,25 Feb 2022 19:13:33.091,391.776
971,25 Feb 2022 20:43:20.277,25 Feb 2022 20:49:25.871,365.594
972,26 Feb 2022 15:00:35.897,26 Feb 2022 15:04:20.767,224.870
973,26 Feb 2022 16:35:00.840,26 Feb 2022 16:41:23.349,382.510
974,26 Feb 2022 18:11:08.365,26 Feb 2022 18:17:39.946,391.581
975,26 Feb 2022 19:47:25.236,26 Feb 2022 19:53:54.200,388.963
976,26 Feb 2022 21:24:01.875,26 Feb 2022 21:29:02.405,300.530
977,27 Feb 2022 15:39:43.556,27 Feb 2022 15:45:22.411,338.855
