Facility-Facility1-To-Satellite-SSO470_Access.csv

"Access","Start Time (UTCG)","Stop Time (UTCG)","Duration (sec)"
1,4 Aug 2021 13:38:39.198,4 Aug 2021 13:44:17.162,337.964
2,4 Aug 2021 15:11:22.903,4 Aug 2021 15:17:38.629,375.726
3,5 Aug 2021 00:16:28.193,5 Aug 2021 00:21:26.412,298.219
4,5 Aug 2021 01:48:22.216,5 Aug 2021 01:55:02.170,399.954
5,5 Aug 2021 13:08:00.090,5 Aug 2021 13:10:29.602,149.512
6,5 Aug 2021 14:39:09.942,5 Aug 2021 14:46:07.193,417.251
7,5 Aug 2021 23:46:49.422,5 Aug 2021 23:47:43.915,54.492
8,6 Aug 2021 01:16:09.919,6 Aug 2021 01:23:11.833,421.915
9,6 Aug 2021 14:07:12.214,6 Aug 2021 14:14:08.101,415.887
10,6 Aug 2021 15:41:21.319,6 Aug 2021 15:45:09.589,228.270
11,7 Aug 2021 00:44:25.509,7 Aug 2021 00:51:06.086,400.577
12,7 Aug 2021 02:18:39.488,7 Aug 2021 02:23:16.755,277.267
13,7 Aug 2021 13:35:32.028,7 Aug 2021 13:41:38.869,366.841
14,7 Aug 2021 15:08:35.208,7 Aug 2021 15:14:27.694,352.485
15,8 Aug 2021 00:13:10.551,8 Aug 2021 00:18:43.309,332.758
16,8 Aug 2021 01:45:37.077,8 Aug 2021 01:51:59.659,382.583
17,8 Aug 2021 13:04:25.928,8 Aug 2021 13:08:22.547,236.619
18,8 Aug 2021 14:36:16.759,8 Aug 2021 14:43:05.675,408.917
19,8 Aug 2021 23:42:43.831,8 Aug 2021 23:45:44.794,180.963
20,9 Aug 2021 01:13:15.115,9 Aug 2021 01:20:15.000,419.884
21,9 Aug 2021 14:04:14.298,9 Aug 2021 14:11:15.249,420.950
22,9 Aug 2021 15:38:56.151,9 Aug 2021 15:41:30.919,154.769
23,10 Aug 2021 00:41:22.067,10 Aug 2021 00:48:13.964,411.898
24,10 Aug 2021 02:16:19.519,10 Aug 2021 02:19:54.549,215.030
25,10 Aug 2021 13:32:27.833,10 Aug 2021 13:38:56.304,388.471
26,10 Aug 2021 15:05:49.954,10 Aug 2021 15:11:13.077,323.123
27,11 Aug 2021 00:09:57.117,11 Aug 2021 00:15:57.254,360.138
28,11 Aug 2021 01:42:55.723,11 Aug 2021 01:48:54.643,358.920
29,11 Aug 2021 13:01:06.889,11 Aug 2021 13:05:59.004,292.115
30,11 Aug 2021 14:33:25.108,11 Aug 2021 14:40:01.380,396.272
31,11 Aug 2021 23:39:09.933,11 Aug 2021 23:43:15.233,245.301
32,12 Aug 2021 01:10:23.137,12 Aug 2021 01:17:16.591,413.454
33,12 Aug 2021 14:01:17.920,12 Aug 2021 14:08:19.609,421.688
34,13 Aug 2021 00:38:21.377,13 Aug 2021 00:45:20.325,418.948
35,13 Aug 2021 02:14:23.520,13 Aug 2021 02:16:09.751,106.230
36,13 Aug 2021 13:29:25.982,13 Aug 2021 13:36:10.118,404.136
37,13 Aug 2021 15:03:07.967,13 Aug 2021 15:07:53.944,285.976
38,14 Aug 2021 00:06:47.199,14 Aug 2021 00:13:08.919,381.720
39,14 Aug 2021 01:40:18.919,14 Aug 2021 01:45:46.380,327.461
40,14 Aug 2021 12:57:54.793,14 Aug 2021 13:03:27.166,332.373
41,14 Aug 2021 14:30:35.135,14 Aug 2021 14:36:54.173,379.038
42,14 Aug 2021 23:35:45.639,14 Aug 2021 23:40:37.331,291.692
43,15 Aug 2021 01:07:34.153,15 Aug 2021 01:14:16.439,402.286
44,15 Aug 2021 12:27:23.272,15 Aug 2021 12:29:31.316,128.044
45,15 Aug 2021 13:58:23.023,15 Aug 2021 14:05:21.246,418.223
46,16 Aug 2021 00:35:23.388,16 Aug 2021 00:42:25.228,421.840
47,16 Aug 2021 13:26:26.090,16 Aug 2021 13:33:20.710,414.621
48,16 Aug 2021 15:00:30.906,16 Aug 2021 15:04:28.635,237.729
49,17 Aug 2021 00:03:40.407,17 Aug 2021 00:10:18.701,398.294
50,17 Aug 2021 01:37:48.025,17 Aug 2021 01:42:33.533,285.508
51,17 Aug 2021 12:54:47.044,17 Aug 2021 13:00:49.667,362.623
52,17 Aug 2021 14:27:47.090,17 Aug 2021 14:33:43.797,356.708
53,17 Aug 2021 23:32:27.204,17 Aug 2021 23:37:54.819,327.615
54,18 Aug 2021 01:04:48.441,18 Aug 2021 01:11:14.292,385.852
55,18 Aug 2021 12:23:44.167,18 Aug 2021 12:27:29.432,225.265
56,18 Aug 2021 13:55:29.595,18 Aug 2021 14:02:20.178,410.582
57,18 Aug 2021 23:02:05.049,18 Aug 2021 23:04:52.383,167.334
58,19 Aug 2021 00:32:28.128,19 Aug 2021 00:39:28.643,420.515
59,19 Aug 2021 13:23:27.903,19 Aug 2021 13:30:28.330,420.428
60,19 Aug 2021 14:58:03.170,19 Aug 2021 15:00:52.741,169.571
61,20 Aug 2021 00:00:36.503,20 Aug 2021 00:07:26.834,410.331
62,20 Aug 2021 01:35:26.024,20 Aug 2021 01:39:13.135,227.111
63,20 Aug 2021 12:51:42.411,20 Aug 2021 12:58:07.757,385.346
64,20 Aug 2021 14:25:01.391,20 Aug 2021 14:30:29.830,328.438
65,20 Aug 2021 23:29:13.134,20 Aug 2021 23:35:09.188,356.053
66,21 Aug 2021 01:02:06.424,21 Aug 2021 01:08:09.725,363.300
67,21 Aug 2021 12:20:23.500,21 Aug 2021 12:25:07.735,284.235
68,21 Aug 2021 13:52:37.682,21 Aug 2021 13:59:16.348,398.666
69,21 Aug 2021 22:58:28.749,21 Aug 2021 23:02:25.023,236.274
70,22 Aug 2021 00:29:35.672,22 Aug 2021 00:36:30.504,414.832
71,22 Aug 2021 13:20:31.281,22 Aug 2021 13:27:33.140,421.859
72,22 Aug 2021 23:57:35.365,23 Aug 2021 00:04:33.438,418.073
73,23 Aug 2021 01:33:23.221,23 Aug 2021 01:35:34.910,131.689
74,23 Aug 2021 12:48:40.209,23 Aug 2021 12:55:22.132,401.923
75,23 Aug 2021 14:22:18.781,23 Aug 2021 14:27:11.523,292.742
76,23 Aug 2021 23:26:02.670,23 Aug 2021 23:32:21.195,378.525
77,24 Aug 2021 00:59:28.800,24 Aug 2021 01:05:02.073,333.273
78,24 Aug 2021 12:17:10.503,24 Aug 2021 12:22:37.023,326.520
79,24 Aug 2021 13:49:47.419,24 Aug 2021 13:56:09.632,382.213
80,24 Aug 2021 22:55:03.240,24 Aug 2021 22:59:48.127,284.887
81,25 Aug 2021 00:26:46.183,25 Aug 2021 00:33:30.654,404.471
82,25 Aug 2021 11:46:48.939,25 Aug 2021 11:48:30.508,101.569
83,25 Aug 2021 13:17:36.142,25 Aug 2021 13:24:35.221,419.078
84,25 Aug 2021 23:54:36.931,26 Aug 2021 00:01:38.582,421.651
85,26 Aug 2021 12:45:40.011,26 Aug 2021 12:52:33.236,413.225
86,26 Aug 2021 14:19:40.725,26 Aug 2021 14:23:47.412,246.686
87,26 Aug 2021 23:22:55.382,26 Aug 2021 23:29:31.272,395.890
88,27 Aug 2021 00:56:56.794,27 Aug 2021 01:01:50.116,293.322
89,27 Aug 2021 12:14:02.144,27 Aug 2021 12:20:00.352,358.208
90,27 Aug 2021 13:46:59.034,27 Aug 2021 13:52:59.803,360.769
91,27 Aug 2021 22:51:43.974,27 Aug 2021 22:57:06.240,322.266
92,28 Aug 2021 00:23:59.908,28 Aug 2021 00:30:28.859,388.950
93,28 Aug 2021 11:43:02.827,28 Aug 2021 11:46:35.858,213.031
94,28 Aug 2021 13:14:42.468,28 Aug 2021 13:21:34.603,412.135
95,28 Aug 2021 22:21:26.995,28 Aug 2021 22:23:59.286,152.291
96,28 Aug 2021 23:51:41.219,28 Aug 2021 23:58:42.245,421.026
97,29 Aug 2021 12:42:41.557,29 Aug 2021 12:49:41.331,419.774
98,29 Aug 2021 14:17:10.851,29 Aug 2021 14:20:13.867,183.016
99,29 Aug 2021 23:19:51.018,29 Aug 2021 23:26:39.662,408.644
100,30 Aug 2021 00:54:32.978,30 Aug 2021 00:58:31.311,238.334
101,30 Aug 2021 12:10:57.057,30 Aug 2021 12:17:19.108,382.051
102,30 Aug 2021 13:44:12.908,30 Aug 2021 13:49:46.462,333.554
103,30 Aug 2021 22:48:29.251,30 Aug 2021 22:54:21.059,351.808
104,31 Aug 2021 00:21:17.245,31 Aug 2021 00:27:24.731,367.486
105,31 Aug 2021 11:39:40.313,31 Aug 2021 11:44:16.233,275.920
106,31 Aug 2021 13:11:50.302,31 Aug 2021 13:18:31.235,400.933
107,31 Aug 2021 22:17:47.838,31 Aug 2021 22:21:34.574,226.736
108,31 Aug 2021 23:48:48.292,31 Aug 2021 23:55:44.370,416.078
109,1 Sep 2021 12:39:44.683,1 Sep 2021 12:46:46.599,421.916
110,1 Sep 2021 14:15:09.294,1 Sep 2021 14:16:10.744,61.449
111,1 Sep 2021 23:16:49.428,1 Sep 2021 23:23:46.513,417.085
112,2 Sep 2021 00:52:25.228,2 Sep 2021 00:54:57.808,152.580
113,2 Sep 2021 12:07:54.482,2 Sep 2021 12:14:34.059,399.577
114,2 Sep 2021 13:41:29.720,2 Sep 2021 13:46:28.943,299.223
115,2 Sep 2021 22:45:18.227,2 Sep 2021 22:51:33.421,375.193
116,3 Sep 2021 00:18:38.831,3 Sep 2021 00:24:17.646,338.815
117,3 Sep 2021 11:36:26.335,3 Sep 2021 11:41:46.721,320.386
118,3 Sep 2021 13:08:59.754,3 Sep 2021 13:15:25.004,385.250
119,3 Sep 2021 22:14:21.007,3 Sep 2021 22:18:58.791,277.785
120,3 Sep 2021 23:45:58.300,3 Sep 2021 23:52:44.815,406.515
121,4 Sep 2021 11:06:20.041,4 Sep 2021 11:07:24.224,64.183
122,4 Sep 2021 12:36:49.302,4 Sep 2021 12:43:49.127,419.825
123,4 Sep 2021 23:13:50.548,4 Sep 2021 23:20:51.896,421.349
124,5 Sep 2021 12:04:53.979,5 Sep 2021 12:11:45.681,411.701
125,5 Sep 2021 13:38:50.753,5 Sep 2021 13:43:05.950,255.197
126,5 Sep 2021 22:42:10.437,5 Sep 2021 22:48:43.793,393.356
127,6 Sep 2021 00:16:05.780,6 Sep 2021 00:21:06.522,300.742
128,6 Sep 2021 11:33:17.332,6 Sep 2021 11:39:10.911,353.578
129,6 Sep 2021 13:06:11.039,6 Sep 2021 13:12:15.712,364.673
130,6 Sep 2021 22:11:00.865,6 Sep 2021 22:16:17.574,316.710
131,6 Sep 2021 23:43:11.473,6 Sep 2021 23:49:43.360,391.888
132,7 Sep 2021 11:02:21.988,7 Sep 2021 11:05:41.745,199.757
133,7 Sep 2021 12:33:55.385,7 Sep 2021 12:40:48.952,413.567
134,7 Sep 2021 21:40:49.907,7 Sep 2021 21:43:05.257,135.350
135,7 Sep 2021 23:10:54.385,7 Sep 2021 23:17:55.808,421.422
136,8 Sep 2021 12:01:55.249,8 Sep 2021 12:08:54.259,419.009
137,8 Sep 2021 13:36:19.059,8 Sep 2021 13:39:34.431,195.372
138,8 Sep 2021 22:39:05.605,8 Sep 2021 22:45:52.449,406.845
139,9 Sep 2021 00:13:40.319,9 Sep 2021 00:17:49.135,248.816
140,9 Sep 2021 11:30:11.768,9 Sep 2021 11:36:30.356,378.588
141,9 Sep 2021 13:03:24.503,9 Sep 2021 13:09:02.990,338.487
142,9 Sep 2021 22:07:45.465,9 Sep 2021 22:13:32.866,347.401
143,9 Sep 2021 23:40:28.180,9 Sep 2021 23:46:39.653,371.473
144,10 Sep 2021 10:58:57.346,10 Sep 2021 11:03:24.473,267.127
145,10 Sep 2021 12:31:02.968,10 Sep 2021 12:37:46.041,403.073
146,10 Sep 2021 21:37:07.229,10 Sep 2021 21:40:43.857,216.628
147,10 Sep 2021 23:08:00.991,10 Sep 2021 23:14:58.190,417.198
148,11 Sep 2021 11:58:58.125,11 Sep 2021 12:05:59.983,421.857
149,11 Sep 2021 13:34:07.529,11 Sep 2021 13:35:41.489,93.961
150,11 Sep 2021 22:36:03.562,11 Sep 2021 22:42:59.549,415.988
151,12 Sep 2021 00:11:28.693,12 Sep 2021 00:14:19.281,170.588
152,12 Sep 2021 11:27:08.817,12 Sep 2021 11:33:45.897,397.080
153,12 Sep 2021 13:00:40.766,12 Sep 2021 13:05:46.224,305.458
154,12 Sep 2021 22:04:33.877,12 Sep 2021 22:10:45.595,371.718
155,12 Sep 2021 23:37:49.009,12 Sep 2021 23:43:33.115,344.107
156,13 Sep 2021 10:55:42.300,13 Sep 2021 11:00:56.251,313.951
157,13 Sep 2021 12:28:12.140,13 Sep 2021 12:34:40.300,388.160
158,13 Sep 2021 21:33:38.949,13 Sep 2021 21:38:09.317,270.368
159,13 Sep 2021 23:05:10.504,13 Sep 2021 23:11:58.927,408.424
160,14 Sep 2021 11:56:02.502,14 Sep 2021 12:03:02.957,420.455
161,14 Sep 2021 22:33:04.238,14 Sep 2021 22:40:05.171,420.932
162,15 Sep 2021 11:24:07.993,15 Sep 2021 11:30:58.042,410.049
163,15 Sep 2021 12:58:00.968,15 Sep 2021 13:02:24.268,263.300
164,15 Sep 2021 22:01:25.577,15 Sep 2021 22:07:56.268,390.691
165,15 Sep 2021 23:35:14.959,15 Sep 2021 23:40:22.765,307.806
166,16 Sep 2021 10:52:32.613,16 Sep 2021 10:58:21.340,348.727
167,16 Sep 2021 12:25:23.104,16 Sep 2021 12:31:31.527,368.423
168,16 Sep 2021 21:30:17.883,16 Sep 2021 21:35:28.818,310.935
169,16 Sep 2021 23:02:23.132,16 Sep 2021 23:08:57.808,394.676
170,17 Sep 2021 10:21:41.763,17 Sep 2021 10:24:46.985,185.223
171,17 Sep 2021 11:53:08.345,17 Sep 2021 12:00:03.230,414.885
172,17 Sep 2021 21:00:14.190,17 Sep 2021 21:02:09.885,115.696
173,17 Sep 2021 22:30:07.626,17 Sep 2021 22:37:09.327,421.701
174,18 Sep 2021 11:21:08.986,18 Sep 2021 11:28:07.105,418.118
175,18 Sep 2021 12:55:27.698,18 Sep 2021 12:58:54.527,206.829
176,18 Sep 2021 21:58:20.267,18 Sep 2021 22:05:05.195,404.928
177,18 Sep 2021 23:32:48.001,18 Sep 2021 23:37:06.654,258.654
178,19 Sep 2021 10:49:26.548,19 Sep 2021 10:55:41.497,374.949
179,19 Sep 2021 12:22:36.173,19 Sep 2021 12:28:19.401,343.227
180,19 Sep 2021 21:27:01.782,19 Sep 2021 21:32:44.601,342.819
181,19 Sep 2021 22:59:39.225,19 Sep 2021 23:05:54.499,375.274
182,20 Sep 2021 10:18:14.620,20 Sep 2021 10:22:32.437,257.818
183,20 Sep 2021 11:50:15.674,20 Sep 2021 11:57:00.775,405.101
184,20 Sep 2021 20:56:26.965,20 Sep 2021 20:59:52.825,205.860
185,20 Sep 2021 22:27:13.769,20 Sep 2021 22:34:11.969,418.201
186,21 Sep 2021 11:18:11.607,21 Sep 2021 11:25:13.291,421.683
187,21 Sep 2021 12:53:10.201,21 Sep 2021 12:55:07.762,117.561
188,21 Sep 2021 21:55:17.770,21 Sep 2021 22:02:12.544,414.774
189,21 Sep 2021 23:30:33.201,21 Sep 2021 23:33:39.751,186.549
190,22 Sep 2021 10:46:23.208,22 Sep 2021 10:52:57.643,394.435
191,22 Sep 2021 12:19:51.915,22 Sep 2021 12:25:03.366,311.451
192,22 Sep 2021 21:23:49.609,22 Sep 2021 21:29:57.711,368.103
193,22 Sep 2021 22:56:59.320,22 Sep 2021 23:02:48.481,349.161
194,23 Sep 2021 10:14:58.406,23 Sep 2021 10:20:05.606,307.201
195,23 Sep 2021 11:47:24.577,23 Sep 2021 11:53:55.506,390.929
196,23 Sep 2021 20:52:57.080,23 Sep 2021 20:57:19.687,262.607
197,23 Sep 2021 22:24:22.794,23 Sep 2021 22:31:12.990,410.196
198,24 Sep 2021 11:15:15.742,24 Sep 2021 11:22:16.714,420.973
199,24 Sep 2021 21:52:18.005,24 Sep 2021 21:59:18.407,420.402
200,25 Sep 2021 10:43:22.059,25 Sep 2021 10:50:10.320,408.261
201,25 Sep 2021 12:17:11.351,25 Sep 2021 12:21:42.383,271.032
202,25 Sep 2021 21:20:40.790,25 Sep 2021 21:27:08.700,387.911
203,25 Sep 2021 22:54:24.330,25 Sep 2021 22:59:38.857,314.526
204,26 Sep 2021 10:11:47.987,26 Sep 2021 10:17:31.642,343.655
205,26 Sep 2021 11:44:35.226,26 Sep 2021 11:50:47.255,372.029
206,26 Sep 2021 20:49:35.038,26 Sep 2021 20:54:39.960,304.922
207,26 Sep 2021 22:21:34.887,26 Sep 2021 22:28:12.195,397.308
208,27 Sep 2021 09:41:02.309,27 Sep 2021 09:43:51.412,169.103
209,27 Sep 2021 11:12:21.342,27 Sep 2021 11:19:17.433,416.090
210,27 Sep 2021 20:19:40.716,27 Sep 2021 20:21:12.307,91.591
211,27 Sep 2021 21:49:20.943,27 Sep 2021 21:56:22.808,421.865
212,28 Sep 2021 10:40:22.769,28 Sep 2021 10:47:19.876,417.107
213,28 Sep 2021 12:14:36.698,28 Sep 2021 12:18:14.235,217.537
214,28 Sep 2021 21:17:35.004,28 Sep 2021 21:24:17.897,402.892
215,28 Sep 2021 22:51:55.990,28 Sep 2021 22:56:23.907,267.916
216,29 Sep 2021 10:08:41.403,29 Sep 2021 10:14:52.534,371.131
217,29 Sep 2021 11:41:47.917,29 Sep 2021 11:47:35.711,347.793
218,29 Sep 2021 20:46:18.207,29 Sep 2021 20:51:56.270,338.063
219,29 Sep 2021 22:18:50.379,29 Sep 2021 22:25:09.276,378.897
220,30 Sep 2021 09:37:32.167,30 Sep 2021 09:41:40.092,247.924
221,30 Sep 2021 11:09:28.423,30 Sep 2021 11:16:15.430,407.007
222,30 Sep 2021 20:15:47.102,30 Sep 2021 20:19:01.432,194.330
223,30 Sep 2021 21:46:26.625,30 Sep 2021 21:53:25.701,419.076
224,1 Oct 2021 10:37:25.131,1 Oct 2021 10:44:26.525,421.395
225,1 Oct 2021 12:12:14.973,1 Oct 2021 12:14:31.903,136.930
226,1 Oct 2021 21:14:32.055,1 Oct 2021 21:21:25.498,413.443
227,1 Oct 2021 22:49:38.500,1 Oct 2021 22:52:59.463,200.964
228,2 Oct 2021 10:05:37.657,2 Oct 2021 10:12:09.295,391.638
229,2 Oct 2021 11:39:03.165,2 Oct 2021 11:44:20.369,317.204
230,2 Oct 2021 20:43:05.432,2 Oct 2021 20:49:09.766,364.334
231,2 Oct 2021 22:16:09.762,2 Oct 2021 22:22:03.754,353.991
232,3 Oct 2021 09:34:14.662,3 Oct 2021 09:39:14.771,300.109
233,3 Oct 2021 11:06:37.053,3 Oct 2021 11:13:10.636,393.583
234,3 Oct 2021 20:12:15.415,3 Oct 2021 20:16:29.887,254.472
235,3 Oct 2021 21:43:35.163,3 Oct 2021 21:50:27.002,411.839
236,4 Oct 2021 10:34:29.020,4 Oct 2021 10:41:30.400,421.380
237,4 Oct 2021 21:11:31.842,4 Oct 2021 21:18:31.604,419.762
238,4 Oct 2021 22:47:54.560,4 Oct 2021 22:49:02.853,68.293
239,5 Oct 2021 10:02:36.175,5 Oct 2021 10:09:22.516,406.341
240,5 Oct 2021 11:36:21.887,5 Oct 2021 11:41:00.308,278.421
241,5 Oct 2021 20:39:56.088,5 Oct 2021 20:46:21.080,384.992
242,5 Oct 2021 22:13:33.876,5 Oct 2021 22:18:54.808,320.932
243,6 Oct 2021 09:31:03.466,6 Oct 2021 09:36:41.806,338.341
244,6 Oct 2021 11:03:47.399,6 Oct 2021 11:10:02.891,375.492
245,6 Oct 2021 20:08:52.328,6 Oct 2021 20:13:50.998,298.670
246,6 Oct 2021 21:40:46.737,6 Oct 2021 21:47:26.519,399.783
247,7 Oct 2021 09:00:23.892,7 Oct 2021 09:02:54.767,150.875
248,7 Oct 2021 10:31:34.380,7 Oct 2021 10:38:31.564,417.184
249,7 Oct 2021 19:39:12.134,7 Oct 2021 19:40:09.878,57.744
250,7 Oct 2021 21:08:34.331,7 Oct 2021 21:15:36.246,421.915
251,8 Oct 2021 09:59:36.598,8 Oct 2021 10:06:32.569,415.971
252,8 Oct 2021 11:33:46.008,8 Oct 2021 11:37:33.601,227.594
253,8 Oct 2021 20:36:49.820,8 Oct 2021 20:43:30.556,400.736
254,8 Oct 2021 22:11:04.258,8 Oct 2021 22:15:40.919,276.662
255,9 Oct 2021 09:27:56.334,9 Oct 2021 09:34:03.461,367.127
256,9 Oct 2021 11:00:59.730,9 Oct 2021 11:06:51.917,352.186
257,9 Oct 2021 20:05:34.740,9 Oct 2021 20:11:07.857,333.117
258,9 Oct 2021 21:38:01.640,9 Oct 2021 21:44:23.983,382.344
259,10 Oct 2021 08:56:50.021,10 Oct 2021 09:00:47.401,237.380
260,10 Oct 2021 10:28:41.214,10 Oct 2021 10:35:30.010,408.796
261,10 Oct 2021 19:35:07.712,10 Oct 2021 19:38:09.602,181.890
262,10 Oct 2021 21:05:39.557,10 Oct 2021 21:12:39.395,419.838
263,11 Oct 2021 09:56:38.700,11 Oct 2021 10:03:39.683,420.983
264,11 Oct 2021 11:31:21.040,11 Oct 2021 11:33:54.716,153.676
265,11 Oct 2021 20:33:46.411,11 Oct 2021 20:40:38.415,412.005
266,11 Oct 2021 22:08:44.440,11 Oct 2021 22:12:18.577,214.136
267,12 Oct 2021 09:24:52.168,12 Oct 2021 09:31:20.850,388.683
268,12 Oct 2021 10:58:14.508,12 Oct 2021 11:03:37.253,322.745
269,12 Oct 2021 20:02:21.349,12 Oct 2021 20:08:21.770,360.421
270,12 Oct 2021 21:35:20.333,12 Oct 2021 21:41:18.934,358.601
271,13 Oct 2021 08:53:31.084,13 Oct 2021 08:58:23.736,292.651
272,13 Oct 2021 10:25:49.580,13 Oct 2021 10:32:25.684,396.104
273,13 Oct 2021 19:31:33.972,13 Oct 2021 19:35:39.899,245.926
274,13 Oct 2021 21:02:47.614,13 Oct 2021 21:09:40.966,413.352
275,14 Oct 2021 09:53:42.339,14 Oct 2021 10:00:44.010,421.672
276,14 Oct 2021 20:30:45.752,14 Oct 2021 20:37:44.758,419.006
277,14 Oct 2021 22:06:49.034,14 Oct 2021 22:08:33.201,104.167
278,15 Oct 2021 09:21:50.341,15 Oct 2021 09:28:34.626,404.285
279,15 Oct 2021 10:55:32.564,15 Oct 2021 11:00:18.059,285.495
280,15 Oct 2021 19:59:11.469,15 Oct 2021 20:05:33.411,381.942
281,15 Oct 2021 21:32:43.587,15 Oct 2021 21:38:10.626,327.039
282,16 Oct 2021 08:50:19.051,16 Oct 2021 08:55:51.824,332.773
283,16 Oct 2021 10:22:59.628,16 Oct 2021 10:29:18.439,378.811
284,16 Oct 2021 19:28:09.761,16 Oct 2021 19:33:01.926,292.165
285,16 Oct 2021 20:59:58.667,16 Oct 2021 21:06:40.792,402.125
286,17 Oct 2021 08:19:46.942,17 Oct 2021 08:21:56.609,129.666
287,17 Oct 2021 09:50:47.457,17 Oct 2021 09:57:45.616,418.159
288,17 Oct 2021 20:27:47.795,17 Oct 2021 20:34:49.644,421.849
289,18 Oct 2021 09:18:50.469,18 Oct 2021 09:25:45.182,414.713
290,18 Oct 2021 10:52:55.575,18 Oct 2021 10:56:52.665,237.090
291,18 Oct 2021 19:56:04.712,18 Oct 2021 20:02:43.176,398.464
292,18 Oct 2021 21:30:12.776,18 Oct 2021 21:34:57.713,284.936
293,19 Oct 2021 08:47:11.344,19 Oct 2021 08:53:14.266,362.922
294,19 Oct 2021 10:20:11.607,19 Oct 2021 10:26:08.027,356.420
295,19 Oct 2021 19:24:51.384,19 Oct 2021 19:30:19.371,327.987
296,19 Oct 2021 20:57:12.996,19 Oct 2021 21:03:38.621,385.625
297,20 Oct 2021 08:16:08.233,20 Oct 2021 08:19:54.315,226.082
298,20 Oct 2021 09:47:54.048,20 Oct 2021 09:54:44.518,410.470
299,20 Oct 2021 18:54:28.887,20 Oct 2021 18:57:17.234,168.348
300,20 Oct 2021 20:24:52.566,20 Oct 2021 20:31:53.042,420.476
301,21 Oct 2021 09:15:52.305,21 Oct 2021 09:22:52.768,420.463
302,21 Oct 2021 10:50:28.004,21 Oct 2021 10:53:16.593,168.589
303,21 Oct 2021 19:53:00.842,21 Oct 2021 19:59:51.289,410.446
304,21 Oct 2021 21:27:50.912,21 Oct 2021 21:31:37.195,226.283
305,22 Oct 2021 08:44:06.744,22 Oct 2021 08:50:32.312,385.568
306,22 Oct 2021 10:17:25.939,22 Oct 2021 10:22:54.014,328.075
307,22 Oct 2021 19:21:37.361,22 Oct 2021 19:27:33.710,356.348
308,22 Oct 2021 20:54:31.027,22 Oct 2021 21:00:34.023,362.996
309,23 Oct 2021 08:12:47.685,23 Oct 2021 08:17:32.485,284.800
310,23 Oct 2021 09:45:02.154,23 Oct 2021 09:51:40.654,398.501
311,23 Oct 2021 18:50:52.773,23 Oct 2021 18:54:49.702,236.929
312,23 Oct 2021 20:22:00.146,23 Oct 2021 20:28:54.884,414.738
313,24 Oct 2021 09:12:55.698,24 Oct 2021 09:19:57.549,421.851
314,24 Oct 2021 19:49:59.736,24 Oct 2021 19:56:57.874,418.138
315,24 Oct 2021 21:25:48.513,24 Oct 2021 21:27:58.581,130.068
316,25 Oct 2021 08:41:04.565,25 Oct 2021 08:47:46.647,402.083
317,25 Oct 2021 10:14:43.373,25 Oct 2021 10:19:35.650,292.277
318,25 Oct 2021 19:18:26.936,25 Oct 2021 19:24:45.691,378.755
319,25 Oct 2021 20:51:53.458,25 Oct 2021 20:57:26.325,332.868
320,26 Oct 2021 08:09:34.752,26 Oct 2021 08:15:01.691,326.939
321,26 Oct 2021 09:42:11.910,26 Oct 2021 09:48:33.905,381.994
322,26 Oct 2021 18:47:27.353,26 Oct 2021 18:52:12.730,285.377
323,26 Oct 2021 20:19:10.692,26 Oct 2021 20:25:55.013,404.322
324,27 Oct 2021 07:39:12.373,27 Oct 2021 07:40:56.040,103.667
325,27 Oct 2021 09:10:00.575,27 Oct 2021 09:16:59.601,419.026
326,27 Oct 2021 19:47:01.333,27 Oct 2021 19:54:03.001,421.668
327,28 Oct 2021 08:38:04.387,28 Oct 2021 08:44:57.714,413.327
328,28 Oct 2021 10:12:05.383,28 Oct 2021 10:16:11.457,246.073
329,28 Oct 2021 19:15:19.683,28 Oct 2021 19:21:55.746,396.063
330,28 Oct 2021 20:49:21.527,28 Oct 2021 20:54:14.311,292.784
331,29 Oct 2021 08:06:26.437,29 Oct 2021 08:12:24.961,358.524
332,29 Oct 2021 09:39:23.547,29 Oct 2021 09:45:24.037,360.489
333,29 Oct 2021 18:44:08.146,29 Oct 2021 18:49:30.797,322.651
334,29 Oct 2021 20:16:24.455,29 Oct 2021 20:22:53.190,388.735
335,30 Oct 2021 07:35:26.858,30 Oct 2021 07:39:00.778,213.920
336,30 Oct 2021 09:07:06.917,30 Oct 2021 09:13:58.948,412.030
337,30 Oct 2021 18:13:50.780,30 Oct 2021 18:16:24.187,153.407
338,30 Oct 2021 19:44:05.652,30 Oct 2021 19:51:06.646,420.994
339,31 Oct 2021 08:35:05.952,31 Oct 2021 08:42:05.776,419.824
340,31 Oct 2021 10:09:35.646,31 Oct 2021 10:12:37.759,182.113
341,31 Oct 2021 19:12:15.351,31 Oct 2021 19:19:04.118,408.767
342,31 Oct 2021 20:46:57.833,31 Oct 2021 20:50:55.396,237.563
343,1 Nov 2021 08:03:21.383,1 Nov 2021 08:09:43.670,382.287
344,1 Nov 2021 09:36:37.451,1 Nov 2021 09:42:10.653,333.202
345,1 Nov 2021 18:40:53.470,1 Nov 2021 18:46:45.583,352.113
346,1 Nov 2021 20:13:41.838,1 Nov 2021 20:19:49.035,367.197
347,2 Nov 2021 07:32:04.482,2 Nov 2021 07:36:40.999,276.517
348,2 Nov 2021 09:04:14.770,2 Nov 2021 09:10:55.548,400.778
349,2 Nov 2021 18:10:11.842,2 Nov 2021 18:13:59.270,227.428
350,2 Nov 2021 19:41:12.759,2 Nov 2021 19:48:08.753,415.994
351,3 Nov 2021 08:32:09.096,3 Nov 2021 08:39:11.012,421.915
352,3 Nov 2021 10:07:35.115,3 Nov 2021 10:08:33.596,58.481
353,3 Nov 2021 19:09:13.792,3 Nov 2021 19:16:10.952,417.160
354,3 Nov 2021 20:44:50.395,3 Nov 2021 20:47:21.605,151.210
355,4 Nov 2021 08:00:18.834,4 Nov 2021 08:06:58.580,399.746
356,4 Nov 2021 09:33:54.303,4 Nov 2021 09:38:53.080,298.777
357,4 Nov 2021 18:37:42.487,4 Nov 2021 18:43:57.918,375.430
358,4 Nov 2021 20:11:03.478,4 Nov 2021 20:16:41.911,338.433
359,5 Nov 2021 07:28:50.575,5 Nov 2021 07:34:11.402,320.827
360,5 Nov 2021 09:01:24.242,5 Nov 2021 09:07:49.285,385.043
361,5 Nov 2021 18:06:45.108,5 Nov 2021 18:11:23.402,278.294
362,5 Nov 2021 19:38:22.803,5 Nov 2021 19:45:09.178,406.375
363,6 Nov 2021 06:58:42.856,6 Nov 2021 06:59:50.379,67.523
364,6 Nov 2021 08:29:13.732,6 Nov 2021 08:36:13.508,419.776
365,6 Nov 2021 19:06:14.945,6 Nov 2021 19:13:16.318,421.374
366,7 Nov 2021 07:57:18.352,7 Nov 2021 08:04:10.165,411.813
367,7 Nov 2021 09:31:15.399,7 Nov 2021 09:35:30.010,254.611
368,7 Nov 2021 18:34:34.733,7 Nov 2021 18:41:08.271,393.539
369,7 Nov 2021 20:08:30.494,7 Nov 2021 20:13:30.731,300.237
370,8 Nov 2021 07:25:41.617,8 Nov 2021 07:31:35.529,353.912
371,8 Nov 2021 08:58:35.550,8 Nov 2021 09:04:39.949,364.399
372,8 Nov 2021 18:03:25.030,8 Nov 2021 18:08:42.136,317.106
373,8 Nov 2021 19:35:36.012,8 Nov 2021 19:42:07.699,391.686
374,9 Nov 2021 06:54:45.976,9 Nov 2021 06:58:06.708,200.732
375,9 Nov 2021 08:26:19.832,9 Nov 2021 08:33:13.302,413.470
376,9 Nov 2021 17:33:13.613,9 Nov 2021 17:35:30.225,136.611
377,9 Nov 2021 19:03:18.813,9 Nov 2021 19:10:20.211,421.399
378,10 Nov 2021 07:54:19.640,10 Nov 2021 08:01:18.704,419.064
379,10 Nov 2021 09:28:43.824,10 Nov 2021 09:31:58.351,194.527
380,10 Nov 2021 18:31:29.932,10 Nov 2021 18:38:16.907,406.975
381,10 Nov 2021 20:06:05.148,10 Nov 2021 20:10:13.249,248.101
382,11 Nov 2021 07:22:36.086,11 Nov 2021 07:28:54.924,378.838
383,11 Nov 2021 08:55:49.041,11 Nov 2021 09:01:27.186,338.145
384,11 Nov 2021 18:00:09.677,11 Nov 2021 18:05:57.392,347.716
385,11 Nov 2021 19:32:52.762,11 Nov 2021 19:39:03.961,371.199
386,12 Nov 2021 06:51:21.495,12 Nov 2021 06:55:49.258,267.763
387,12 Nov 2021 08:23:27.431,12 Nov 2021 08:30:10.357,402.925
388,12 Nov 2021 17:29:31.210,12 Nov 2021 17:33:08.568,217.357
389,12 Nov 2021 19:00:25.451,12 Nov 2021 19:07:22.574,417.124
390,13 Nov 2021 07:51:22.533,13 Nov 2021 07:58:24.399,421.865
391,13 Nov 2021 09:26:32.817,13 Nov 2021 09:28:04.875,92.059
392,13 Nov 2021 18:28:27.921,13 Nov 2021 18:35:23.990,416.069
393,13 Nov 2021 20:03:53.765,13 Nov 2021 20:06:43.163,169.398
394,14 Nov 2021 07:19:33.162,14 Nov 2021 07:26:10.423,397.261
395,14 Nov 2021 08:53:05.342,14 Nov 2021 08:58:10.368,305.026
396,14 Nov 2021 17:56:58.129,14 Nov 2021 18:03:10.096,371.967
397,14 Nov 2021 19:30:13.641,14 Nov 2021 19:35:57.386,343.745
398,15 Nov 2021 06:48:06.528,15 Nov 2021 06:53:20.944,314.415
399,15 Nov 2021 08:20:36.623,15 Nov 2021 08:27:04.582,387.960
400,15 Nov 2021 17:26:03.037,15 Nov 2021 17:30:33.937,270.899
401,15 Nov 2021 18:57:34.998,15 Nov 2021 19:04:23.292,408.294
402,16 Nov 2021 07:48:26.928,16 Nov 2021 07:55:27.342,420.414
403,16 Nov 2021 18:25:28.629,16 Nov 2021 18:32:29.594,420.965
404,17 Nov 2021 07:16:32.362,17 Nov 2021 07:23:22.532,410.170
405,17 Nov 2021 08:50:25.601,17 Nov 2021 08:54:48.339,262.738
406,17 Nov 2021 17:53:49.866,17 Nov 2021 18:00:20.748,390.882
407,17 Nov 2021 19:27:39.662,17 Nov 2021 19:32:46.984,307.322
408,18 Nov 2021 06:44:56.891,18 Nov 2021 06:50:45.968,349.077
409,18 Nov 2021 08:17:47.611,18 Nov 2021 08:23:55.774,368.163
410,18 Nov 2021 17:22:42.039,18 Nov 2021 17:27:53.386,311.347
411,18 Nov 2021 18:54:47.665,18 Nov 2021 19:01:22.151,394.486
412,19 Nov 2021 06:14:05.703,19 Nov 2021 06:17:11.999,186.297
413,19 Nov 2021 07:45:32.789,19 Nov 2021 07:52:27.585,414.796
414,19 Nov 2021 16:52:37.784,19 Nov 2021 16:54:34.969,117.185
415,19 Nov 2021 18:22:32.048,19 Nov 2021 18:29:33.734,421.686
416,20 Nov 2021 07:13:33.375,20 Nov 2021 07:20:31.560,418.185
417,20 Nov 2021 08:47:52.437,20 Nov 2021 08:51:18.480,206.043
418,20 Nov 2021 17:50:44.590,20 Nov 2021 17:57:29.656,405.066
419,20 Nov 2021 19:25:12.804,20 Nov 2021 19:29:30.790,257.986
420,21 Nov 2021 06:41:50.861,21 Nov 2021 06:48:06.073,375.212
421,21 Nov 2021 08:15:00.707,21 Nov 2021 08:20:43.604,342.897
422,21 Nov 2021 17:19:25.988,21 Nov 2021 17:25:09.132,343.144
423,21 Nov 2021 18:52:03.799,21 Nov 2021 18:58:18.814,375.014
424,22 Nov 2021 06:10:38.749,22 Nov 2021 06:14:57.244,258.495
425,22 Nov 2021 07:42:40.135,22 Nov 2021 07:49:25.096,404.961
426,22 Nov 2021 16:48:50.924,22 Nov 2021 16:52:17.557,206.633
427,22 Nov 2021 18:19:38.222,22 Nov 2021 18:26:36.358,418.136
428,23 Nov 2021 07:10:36.012,23 Nov 2021 07:17:37.712,421.700
429,23 Nov 2021 08:45:35.293,23 Nov 2021 08:47:31.345,116.052
430,23 Nov 2021 17:47:42.123,23 Nov 2021 17:54:36.985,414.862
431,23 Nov 2021 19:22:58.207,23 Nov 2021 19:26:03.698,185.492
432,24 Nov 2021 06:38:47.547,24 Nov 2021 06:45:22.178,394.630
433,24 Nov 2021 08:12:16.484,24 Nov 2021 08:17:27.518,311.034
434,24 Nov 2021 17:16:13.855,24 Nov 2021 17:22:22.214,368.359
435,24 Nov 2021 18:49:23.945,24 Nov 2021 18:55:12.760,348.814
436,25 Nov 2021 06:07:22.620,25 Nov 2021 06:12:30.310,307.690
437,25 Nov 2021 07:39:49.056,25 Nov 2021 07:46:19.793,390.737
438,25 Nov 2021 16:45:21.155,25 Nov 2021 16:49:44.314,263.159
439,25 Nov 2021 18:16:47.280,25 Nov 2021 18:23:37.357,410.077
440,26 Nov 2021 07:07:40.163,26 Nov 2021 07:14:41.103,420.940
441,26 Nov 2021 17:44:42.389,26 Nov 2021 17:51:42.832,420.443
442,27 Nov 2021 06:35:46.422,27 Nov 2021 06:42:34.814,408.392
443,27 Nov 2021 08:09:35.971,27 Nov 2021 08:14:06.468,270.497
444,27 Nov 2021 17:13:05.071,27 Nov 2021 17:19:33.180,388.109
445,27 Nov 2021 18:46:49.018,27 Nov 2021 18:52:03.085,314.067
446,28 Nov 2021 06:04:12.255,28 Nov 2021 06:09:56.276,344.021
447,28 Nov 2021 07:36:59.726,28 Nov 2021 07:43:11.505,371.779
448,28 Nov 2021 16:41:59.181,28 Nov 2021 16:47:04.533,305.352
449,28 Nov 2021 18:13:59.411,28 Nov 2021 18:20:36.536,397.125
450,29 Nov 2021 05:33:26.187,29 Nov 2021 05:36:16.487,170.301
451,29 Nov 2021 07:04:45.781,29 Nov 2021 07:11:41.790,416.009
452,29 Nov 2021 16:12:04.103,29 Nov 2021 16:13:37.591,93.488
453,29 Nov 2021 17:41:45.358,29 Nov 2021 17:48:47.215,421.857
454,30 Nov 2021 06:32:47.152,30 Nov 2021 06:39:44.337,417.185
455,30 Nov 2021 08:07:01.410,30 Nov 2021 08:10:38.214,216.804
456,30 Nov 2021 17:09:59.320,30 Nov 2021 17:16:42.359,403.039
457,30 Nov 2021 18:44:20.772,30 Nov 2021 18:48:48.057,267.286
458,1 Dec 2021 06:01:05.709,1 Dec 2021 06:07:17.116,371.407
459,1 Dec 2021 07:34:12.444,1 Dec 2021 07:39:59.921,347.477
460,1 Dec 2021 16:38:42.404,1 Dec 2021 16:44:20.805,338.401
461,1 Dec 2021 18:11:14.945,1 Dec 2021 18:17:33.595,378.650
462,2 Dec 2021 05:29:56.274,2 Dec 2021 05:34:04.920,248.646
463,2 Dec 2021 07:01:52.880,2 Dec 2021 07:08:39.755,406.876
464,2 Dec 2021 16:08:11.030,2 Dec 2021 16:11:26.187,195.158
465,2 Dec 2021 17:38:51.073,2 Dec 2021 17:45:50.092,419.018
466,3 Dec 2021 06:29:49.532,3 Dec 2021 06:36:50.951,421.419
467,3 Dec 2021 08:04:39.950,3 Dec 2021 08:06:55.604,135.654
468,3 Dec 2021 17:06:56.401,3 Dec 2021 17:13:49.942,413.541
469,3 Dec 2021 18:42:03.457,3 Dec 2021 18:45:23.457,200.000
470,4 Dec 2021 05:58:01.992,4 Dec 2021 06:04:33.834,391.842
471,4 Dec 2021 07:31:27.727,4 Dec 2021 07:36:44.531,316.804
472,4 Dec 2021 16:35:29.671,4 Dec 2021 16:41:34.277,364.605
473,4 Dec 2021 18:08:34.376,4 Dec 2021 18:14:28.039,353.662
474,5 Dec 2021 05:26:38.864,5 Dec 2021 05:31:39.488,300.624
475,5 Dec 2021 06:59:01.533,5 Dec 2021 07:05:34.927,393.395
476,5 Dec 2021 16:04:39.475,5 Dec 2021 16:08:54.525,255.049
477,5 Dec 2021 17:35:59.643,5 Dec 2021 17:42:51.373,411.729
478,6 Dec 2021 06:26:53.438,6 Dec 2021 06:33:54.793,421.355
479,6 Dec 2021 17:03:56.220,6 Dec 2021 17:10:56.030,419.811
480,6 Dec 2021 18:40:20.670,6 Dec 2021 18:41:25.703,65.034
481,7 Dec 2021 05:55:00.532,7 Dec 2021 06:01:47.014,406.482
482,7 Dec 2021 07:28:46.497,7 Dec 2021 07:33:24.404,277.908
483,7 Dec 2021 16:32:20.363,7 Dec 2021 16:38:45.562,385.199
484,7 Dec 2021 18:05:58.549,7 Dec 2021 18:11:19.045,320.496
485,8 Dec 2021 05:23:27.724,8 Dec 2021 05:29:06.447,338.723
486,8 Dec 2021 06:56:11.894,8 Dec 2021 07:02:27.145,375.251
487,8 Dec 2021 16:01:16.459,8 Dec 2021 16:06:15.575,299.116
488,8 Dec 2021 17:33:11.252,8 Dec 2021 17:39:50.867,399.615
489,9 Dec 2021 04:52:47.678,9 Dec 2021 04:55:19.929,152.250
490,9 Dec 2021 06:23:58.814,9 Dec 2021 06:30:55.920,417.106
491,9 Dec 2021 15:31:34.976,9 Dec 2021 15:32:35.701,60.725
492,9 Dec 2021 17:00:58.739,9 Dec 2021 17:08:00.654,421.916
493,10 Dec 2021 05:52:00.978,10 Dec 2021 05:58:57.031,416.053
494,10 Dec 2021 07:26:10.697,10 Dec 2021 07:29:57.600,226.903
495,10 Dec 2021 16:29:14.128,10 Dec 2021 16:35:55.018,400.890
496,10 Dec 2021 18:03:29.017,10 Dec 2021 18:08:05.084,276.068
497,11 Dec 2021 05:20:20.633,11 Dec 2021 05:26:28.048,367.416
498,11 Dec 2021 06:53:24.250,11 Dec 2021 06:59:16.134,351.884
499,11 Dec 2021 15:57:58.927,11 Dec 2021 16:03:32.394,333.468
500,11 Dec 2021 17:30:26.195,11 Dec 2021 17:36:48.304,382.109
501,12 Dec 2021 04:49:14.105,12 Dec 2021 04:53:12.252,238.147
502,12 Dec 2021 06:21:05.665,12 Dec 2021 06:27:54.339,408.674
503,12 Dec 2021 15:27:31.601,12 Dec 2021 15:30:34.392,182.790
504,12 Dec 2021 16:58:03.997,12 Dec 2021 17:05:03.785,419.788
505,13 Dec 2021 05:49:03.092,13 Dec 2021 05:56:04.112,421.020
506,13 Dec 2021 07:23:45.936,13 Dec 2021 07:26:18.496,152.560
507,13 Dec 2021 16:26:10.751,13 Dec 2021 16:33:02.860,412.109
508,13 Dec 2021 18:01:09.353,13 Dec 2021 18:04:42.605,213.252
509,14 Dec 2021 05:17:16.497,14 Dec 2021 05:23:45.392,388.896
510,14 Dec 2021 06:50:39.060,14 Dec 2021 06:56:01.422,322.361
511,14 Dec 2021 15:54:45.580,14 Dec 2021 16:00:46.279,360.699
512,14 Dec 2021 17:27:44.937,14 Dec 2021 17:33:43.223,358.286
513,15 Dec 2021 04:45:55.277,15 Dec 2021 04:50:48.465,293.188
514,15 Dec 2021 06:18:14.051,15 Dec 2021 06:24:49.983,395.932
515,15 Dec 2021 15:23:58.015,15 Dec 2021 15:28:04.550,246.536
516,15 Dec 2021 16:55:12.088,15 Dec 2021 17:02:05.339,413.250
517,16 Dec 2021 05:46:06.753,16 Dec 2021 05:53:08.408,421.655
518,16 Dec 2021 16:23:10.124,16 Dec 2021 16:30:09.186,419.062
519,16 Dec 2021 17:59:14.549,16 Dec 2021 18:00:56.644,102.096
520,17 Dec 2021 05:14:14.694,17 Dec 2021 05:20:59.130,404.435
521,17 Dec 2021 06:47:57.163,17 Dec 2021 06:52:42.167,285.003
522,17 Dec 2021 15:51:35.738,17 Dec 2021 15:57:57.897,382.159
523,17 Dec 2021 17:25:08.249,17 Dec 2021 17:30:34.872,326.623
524,18 Dec 2021 04:42:43.302,18 Dec 2021 04:48:16.477,333.176
525,18 Dec 2021 06:15:24.119,18 Dec 2021 06:21:42.700,378.581
526,18 Dec 2021 15:20:33.884,18 Dec 2021 15:25:26.510,292.626
527,18 Dec 2021 16:52:23.176,18 Dec 2021 16:59:05.143,401.967
528,19 Dec 2021 04:12:10.604,19 Dec 2021 04:14:21.899,131.295
529,19 Dec 2021 05:43:11.888,19 Dec 2021 05:50:09.982,418.093
530,19 Dec 2021 16:20:12.197,19 Dec 2021 16:27:14.054,421.857
531,20 Dec 2021 05:11:14.843,20 Dec 2021 05:18:09.649,414.806
532,20 Dec 2021 06:45:20.248,20 Dec 2021 06:49:16.682,236.434
533,20 Dec 2021 15:48:29.014,20 Dec 2021 15:55:07.640,398.626
534,20 Dec 2021 17:22:37.517,20 Dec 2021 17:27:21.893,284.375
535,21 Dec 2021 04:39:35.635,21 Dec 2021 04:45:38.861,363.226
536,21 Dec 2021 06:12:36.121,21 Dec 2021 06:18:32.247,356.126
537,21 Dec 2021 15:17:15.562,21 Dec 2021 15:22:43.912,328.350
538,21 Dec 2021 16:49:37.543,21 Dec 2021 16:56:02.945,385.402
539,22 Dec 2021 04:08:32.287,22 Dec 2021 04:12:19.195,226.908
540,22 Dec 2021 05:40:18.495,22 Dec 2021 05:47:08.850,410.355
541,22 Dec 2021 14:46:52.732,22 Dec 2021 14:49:42.060,169.327
542,22 Dec 2021 16:17:17.000,22 Dec 2021 16:24:17.434,420.433
543,23 Dec 2021 05:08:16.695,23 Dec 2021 05:15:17.200,420.505
544,23 Dec 2021 06:42:52.843,23 Dec 2021 06:45:40.428,167.585
545,23 Dec 2021 15:45:25.176,23 Dec 2021 15:52:15.732,410.556
546,23 Dec 2021 17:20:15.788,23 Dec 2021 17:24:01.254,225.466
547,24 Dec 2021 04:36:31.067,24 Dec 2021 04:42:56.860,385.793
548,24 Dec 2021 06:09:50.486,24 Dec 2021 06:15:18.189,327.703
549,24 Dec 2021 15:14:01.583,24 Dec 2021 15:19:58.219,356.635
550,24 Dec 2021 16:46:55.619,24 Dec 2021 16:52:58.315,362.696
551,25 Dec 2021 04:05:11.860,25 Dec 2021 04:09:57.227,285.366
552,25 Dec 2021 05:37:26.618,25 Dec 2021 05:44:04.957,398.339
553,25 Dec 2021 14:43:16.794,25 Dec 2021 14:47:14.368,237.573
554,25 Dec 2021 16:14:24.611,25 Dec 2021 16:21:19.257,414.646
555,26 Dec 2021 05:05:20.107,26 Dec 2021 05:12:21.949,421.842
556,26 Dec 2021 15:42:24.101,26 Dec 2021 15:49:22.308,418.207
557,26 Dec 2021 17:18:13.802,26 Dec 2021 17:20:22.243,128.441
558,27 Dec 2021 04:33:28.913,27 Dec 2021 04:40:11.155,402.242
559,27 Dec 2021 06:07:07.959,27 Dec 2021 06:11:59.769,291.810
560,27 Dec 2021 15:10:51.196,27 Dec 2021 15:17:10.179,378.983
561,27 Dec 2021 16:44:18.108,27 Dec 2021 16:49:50.578,332.471
562,28 Dec 2021 04:01:58.994,28 Dec 2021 04:07:26.352,327.358
563,28 Dec 2021 05:34:36.395,28 Dec 2021 05:40:58.171,381.776
564,28 Dec 2021 14:39:51.463,28 Dec 2021 14:44:37.324,285.861
565,28 Dec 2021 16:11:35.193,28 Dec 2021 16:18:19.366,404.173
566,29 Dec 2021 03:31:35.822,29 Dec 2021 03:33:21.545,105.723
567,29 Dec 2021 05:02:25.002,29 Dec 2021 05:09:23.970,418.969
568,29 Dec 2021 15:39:25.729,29 Dec 2021 15:46:27.414,421.685
569,30 Dec 2021 04:30:28.757,30 Dec 2021 04:37:22.181,413.424
570,30 Dec 2021 06:04:30.038,30 Dec 2021 06:08:35.496,245.458
571,30 Dec 2021 15:07:43.979,30 Dec 2021 15:14:20.214,396.235
572,30 Dec 2021 16:41:46.253,30 Dec 2021 16:46:38.503,292.249
573,31 Dec 2021 03:58:50.722,31 Dec 2021 04:04:49.564,358.841
574,31 Dec 2021 05:31:48.057,31 Dec 2021 05:37:48.265,360.208
575,31 Dec 2021 14:36:32.315,31 Dec 2021 14:41:55.344,323.029
576,31 Dec 2021 16:08:48.996,31 Dec 2021 16:15:17.518,388.522
577,1 Jan 2022 03:27:50.881,1 Jan 2022 03:31:25.690,214.809
578,1 Jan 2022 04:59:31.361,1 Jan 2022 05:06:23.286,411.925
579,1 Jan 2022 14:06:14.570,1 Jan 2022 14:08:49.069,154.498
580,1 Jan 2022 15:36:30.080,1 Jan 2022 15:43:31.041,420.961
581,2 Jan 2022 04:27:30.340,2 Jan 2022 04:34:30.213,419.874
582,2 Jan 2022 06:02:00.443,2 Jan 2022 06:05:01.639,181.196
583,2 Jan 2022 15:04:39.678,2 Jan 2022 15:11:28.566,408.888
584,2 Jan 2022 16:39:22.679,2 Jan 2022 16:43:19.484,236.805
585,3 Jan 2022 03:55:45.700,3 Jan 2022 04:02:08.224,382.524
586,3 Jan 2022 05:29:01.989,3 Jan 2022 05:34:34.835,332.847
587,3 Jan 2022 14:33:17.684,3 Jan 2022 14:39:10.098,352.414
588,3 Jan 2022 16:06:06.421,3 Jan 2022 16:12:13.332,366.911
589,4 Jan 2022 03:24:28.642,4 Jan 2022 03:29:05.757,277.115
590,4 Jan 2022 04:56:39.230,4 Jan 2022 05:03:19.852,400.622
591,4 Jan 2022 14:02:35.844,4 Jan 2022 14:06:23.951,228.107
592,4 Jan 2022 15:33:37.218,4 Jan 2022 15:40:33.128,415.910
593,5 Jan 2022 04:24:33.501,5 Jan 2022 04:31:35.415,421.915
594,5 Jan 2022 06:00:01.015,5 Jan 2022 06:00:56.353,55.338
595,5 Jan 2022 15:01:38.151,5 Jan 2022 15:08:35.386,417.235
596,5 Jan 2022 16:37:15.550,5 Jan 2022 16:39:45.392,149.843
597,6 Jan 2022 03:52:43.177,6 Jan 2022 03:59:23.092,399.915
598,6 Jan 2022 05:26:18.876,6 Jan 2022 05:31:17.212,298.336
599,6 Jan 2022 14:30:06.740,6 Jan 2022 14:36:22.407,375.668
600,6 Jan 2022 16:03:28.116,6 Jan 2022 16:09:06.167,338.051
601,7 Jan 2022 03:21:14.807,7 Jan 2022 03:26:36.071,321.264
602,7 Jan 2022 04:53:48.721,7 Jan 2022 05:00:13.556,384.835
603,7 Jan 2022 13:59:09.203,7 Jan 2022 14:03:48.004,278.801
604,7 Jan 2022 15:30:47.296,7 Jan 2022 15:37:33.532,406.236
605,8 Jan 2022 02:51:05.755,8 Jan 2022 02:52:16.435,70.680
606,8 Jan 2022 04:21:38.154,8 Jan 2022 04:28:37.881,419.727
607,8 Jan 2022 14:58:39.334,8 Jan 2022 15:05:40.732,421.398
608,9 Jan 2022 03:49:42.718,9 Jan 2022 03:56:34.640,411.923
609,9 Jan 2022 05:23:40.035,9 Jan 2022 05:27:54.064,254.029
610,9 Jan 2022 14:26:59.021,9 Jan 2022 14:33:32.739,393.719
611,9 Jan 2022 16:00:55.209,9 Jan 2022 16:05:54.930,299.721
612,10 Jan 2022 03:18:05.897,10 Jan 2022 03:24:00.138,354.241
613,10 Jan 2022 04:51:00.052,10 Jan 2022 04:57:04.183,364.131
614,10 Jan 2022 13:55:49.188,10 Jan 2022 14:01:06.693,317.505
615,10 Jan 2022 15:28:00.545,10 Jan 2022 15:34:32.032,391.486
616,11 Jan 2022 02:47:09.965,11 Jan 2022 02:50:31.657,201.692
617,11 Jan 2022 04:18:44.271,11 Jan 2022 04:25:37.645,413.374
618,11 Jan 2022 13:25:37.321,11 Jan 2022 13:27:55.187,137.866
619,11 Jan 2022 14:55:43.234,11 Jan 2022 15:02:44.608,421.374
620,12 Jan 2022 03:46:44.026,12 Jan 2022 03:53:43.147,419.121
621,12 Jan 2022 05:21:08.581,12 Jan 2022 05:24:22.275,193.694
622,12 Jan 2022 14:23:54.254,12 Jan 2022 14:30:41.359,407.105
623,12 Jan 2022 15:58:29.971,12 Jan 2022 16:02:37.354,247.383
624,13 Jan 2022 03:15:00.400,13 Jan 2022 03:21:19.485,379.085
625,13 Jan 2022 04:48:13.572,13 Jan 2022 04:53:51.378,337.806
626,13 Jan 2022 13:52:33.883,13 Jan 2022 13:58:21.913,348.030
627,13 Jan 2022 15:25:17.339,13 Jan 2022 15:31:28.263,370.924
628,14 Jan 2022 02:43:45.641,14 Jan 2022 02:48:14.034,268.393
629,14 Jan 2022 04:15:51.889,14 Jan 2022 04:22:34.667,402.778
630,14 Jan 2022 13:21:55.188,14 Jan 2022 13:25:33.272,218.084
631,14 Jan 2022 14:52:49.905,14 Jan 2022 14:59:46.957,417.052
632,15 Jan 2022 03:43:46.936,15 Jan 2022 03:50:48.809,421.873
633,15 Jan 2022 05:18:58.115,15 Jan 2022 05:20:28.240,90.125
634,15 Jan 2022 14:20:52.274,15 Jan 2022 14:27:48.422,416.148
635,15 Jan 2022 15:56:18.836,15 Jan 2022 15:59:07.035,168.199
636,16 Jan 2022 03:11:57.502,16 Jan 2022 03:18:34.945,397.443
637,16 Jan 2022 04:45:29.907,16 Jan 2022 04:50:34.509,304.602
638,16 Jan 2022 13:49:22.375,16 Jan 2022 13:55:34.590,372.215
639,16 Jan 2022 15:22:38.270,16 Jan 2022 15:28:21.651,343.380
640,17 Jan 2022 02:40:30.751,17 Jan 2022 02:45:45.626,314.875
641,17 Jan 2022 04:13:01.099,17 Jan 2022 04:19:28.854,387.755
642,17 Jan 2022 13:18:27.120,17 Jan 2022 13:22:58.548,271.429
643,17 Jan 2022 14:49:59.486,17 Jan 2022 14:56:47.649,408.164
644,18 Jan 2022 03:40:51.347,18 Jan 2022 03:47:51.720,420.373
645,18 Jan 2022 14:17:53.012,18 Jan 2022 14:24:54.010,420.998
646,19 Jan 2022 03:08:56.723,19 Jan 2022 03:15:47.013,410.289
647,19 Jan 2022 04:42:50.223,19 Jan 2022 04:47:12.407,262.184
648,19 Jan 2022 13:46:14.148,19 Jan 2022 13:52:45.220,391.072
649,19 Jan 2022 15:20:04.360,19 Jan 2022 15:25:11.194,306.834
650,20 Jan 2022 02:37:21.162,20 Jan 2022 02:43:10.584,349.422
651,20 Jan 2022 04:10:12.107,20 Jan 2022 04:16:20.013,367.906
652,20 Jan 2022 13:15:06.186,20 Jan 2022 13:20:17.947,311.761
653,20 Jan 2022 14:47:12.191,20 Jan 2022 14:53:46.482,394.291
654,21 Jan 2022 02:06:29.646,21 Jan 2022 02:09:36.994,187.348
655,21 Jan 2022 03:37:57.224,21 Jan 2022 03:44:51.931,414.707
656,21 Jan 2022 12:45:01.372,21 Jan 2022 12:47:00.043,118.671
657,21 Jan 2022 14:14:56.463,21 Jan 2022 14:21:58.132,421.669
658,22 Jan 2022 03:05:57.756,22 Jan 2022 03:12:56.007,418.251
659,22 Jan 2022 04:40:17.161,22 Jan 2022 04:43:42.431,205.270
660,22 Jan 2022 13:43:08.904,22 Jan 2022 13:49:54.110,405.205
661,22 Jan 2022 15:17:37.604,22 Jan 2022 15:21:54.912,257.308
662,23 Jan 2022 02:34:15.170,23 Jan 2022 02:40:30.639,375.470
663,23 Jan 2022 04:07:25.231,23 Jan 2022 04:13:07.804,342.573
664,23 Jan 2022 13:11:50.185,23 Jan 2022 13:17:33.659,343.474
665,23 Jan 2022 14:44:28.369,23 Jan 2022 14:50:43.119,374.750
666,24 Jan 2022 02:03:02.880,24 Jan 2022 02:07:22.036,259.156
667,24 Jan 2022 03:35:04.588,24 Jan 2022 03:41:49.411,404.824
668,24 Jan 2022 12:41:14.871,24 Jan 2022 12:44:42.288,207.417
669,24 Jan 2022 14:12:02.671,24 Jan 2022 14:19:00.739,418.069
670,25 Jan 2022 03:03:00.412,25 Jan 2022 03:10:02.127,421.715
671,25 Jan 2022 04:38:00.370,25 Jan 2022 04:39:54.931,114.561
672,25 Jan 2022 13:40:06.474,25 Jan 2022 13:47:01.422,414.949
673,25 Jan 2022 15:15:23.217,25 Jan 2022 15:18:27.627,184.410
674,26 Jan 2022 02:31:11.884,26 Jan 2022 02:37:46.702,394.818
675,26 Jan 2022 04:04:41.043,26 Jan 2022 04:09:51.668,310.625
676,26 Jan 2022 13:08:38.095,26 Jan 2022 13:14:46.714,368.619
677,26 Jan 2022 14:41:48.565,26 Jan 2022 14:47:37.029,348.465
678,27 Jan 2022 01:59:46.836,27 Jan 2022 02:04:55.004,308.168
679,27 Jan 2022 03:32:13.529,27 Jan 2022 03:38:44.076,390.547
680,27 Jan 2022 12:37:45.223,27 Jan 2022 12:42:08.940,263.718
681,27 Jan 2022 14:09:11.763,27 Jan 2022 14:16:01.718,409.955
682,28 Jan 2022 03:00:04.580,28 Jan 2022 03:07:05.487,420.907
683,28 Jan 2022 13:37:06.768,28 Jan 2022 13:44:07.251,420.483
684,29 Jan 2022 02:28:10.781,29 Jan 2022 02:34:59.301,408.520
685,29 Jan 2022 04:02:00.582,29 Jan 2022 04:06:30.552,269.969
686,29 Jan 2022 13:05:29.348,29 Jan 2022 13:11:57.657,388.309
687,29 Jan 2022 14:39:13.703,29 Jan 2022 14:44:27.305,313.602
688,30 Jan 2022 01:56:36.522,30 Jan 2022 02:02:20.903,344.381
689,30 Jan 2022 03:29:24.219,30 Jan 2022 03:35:35.752,371.533
690,30 Jan 2022 12:34:23.322,30 Jan 2022 12:39:29.102,305.780
691,30 Jan 2022 14:06:23.930,30 Jan 2022 14:13:00.874,396.943
692,31 Jan 2022 01:25:50.074,31 Jan 2022 01:28:41.544,171.470
693,31 Jan 2022 02:57:10.214,31 Jan 2022 03:04:06.142,415.928
694,31 Jan 2022 12:04:27.494,31 Jan 2022 12:06:02.863,95.369
695,31 Jan 2022 13:34:09.767,31 Jan 2022 13:41:11.616,421.849
696,1 Feb 2022 02:25:11.530,1 Feb 2022 02:32:08.788,417.258
697,1 Feb 2022 03:59:26.111,1 Feb 2022 04:03:02.191,216.080
698,1 Feb 2022 13:02:23.631,1 Feb 2022 13:09:06.815,403.184
699,1 Feb 2022 14:36:45.551,1 Feb 2022 14:41:12.196,266.646
700,2 Feb 2022 01:53:30.013,2 Feb 2022 01:59:41.689,371.677
701,2 Feb 2022 03:26:36.962,2 Feb 2022 03:32:24.127,347.165
702,2 Feb 2022 12:31:06.593,2 Feb 2022 12:36:45.336,338.744
703,2 Feb 2022 14:03:39.506,2 Feb 2022 14:09:57.904,378.398
704,3 Feb 2022 01:22:20.388,3 Feb 2022 01:26:29.733,249.345
705,3 Feb 2022 02:54:17.329,3 Feb 2022 03:01:04.079,406.750
706,3 Feb 2022 12:00:34.945,3 Feb 2022 12:03:50.948,196.003
707,3 Feb 2022 13:31:15.515,3 Feb 2022 13:38:14.478,418.963
708,4 Feb 2022 02:22:13.929,4 Feb 2022 02:29:15.371,421.442
709,4 Feb 2022 03:57:04.905,4 Feb 2022 03:59:19.311,134.405
710,4 Feb 2022 12:59:20.742,4 Feb 2022 13:06:14.384,413.642
711,4 Feb 2022 14:34:28.417,4 Feb 2022 14:37:47.430,199.014
712,5 Feb 2022 01:50:26.325,5 Feb 2022 01:56:58.362,392.037
713,5 Feb 2022 03:23:52.277,5 Feb 2022 03:29:08.690,316.413
714,5 Feb 2022 12:27:53.903,5 Feb 2022 12:33:58.777,364.873
715,5 Feb 2022 14:00:58.989,5 Feb 2022 14:06:52.313,353.325
716,6 Feb 2022 01:19:03.071,6 Feb 2022 01:24:04.194,301.122
717,6 Feb 2022 02:51:26.001,6 Feb 2022 02:57:59.216,393.215
718,6 Feb 2022 11:57:03.525,6 Feb 2022 12:01:19.167,255.642
719,6 Feb 2022 13:28:24.121,6 Feb 2022 13:35:15.737,411.616
720,7 Feb 2022 02:19:17.853,7 Feb 2022 02:26:19.182,421.330
721,7 Feb 2022 12:56:20.594,7 Feb 2022 13:03:20.453,419.860
722,7 Feb 2022 14:32:46.909,7 Feb 2022 14:33:48.422,61.512
723,8 Feb 2022 01:47:24.890,8 Feb 2022 01:54:11.508,406.618
724,8 Feb 2022 03:21:11.096,8 Feb 2022 03:25:48.503,277.407
725,8 Feb 2022 12:24:44.634,8 Feb 2022 12:31:10.045,385.412
726,8 Feb 2022 13:58:23.225,8 Feb 2022 14:03:43.274,320.049
727,9 Feb 2022 01:15:51.986,9 Feb 2022 01:21:31.083,339.097
728,9 Feb 2022 02:48:36.384,9 Feb 2022 02:54:51.400,375.016
729,9 Feb 2022 11:53:40.587,9 Feb 2022 11:58:40.156,299.569
730,9 Feb 2022 13:25:35.767,9 Feb 2022 13:32:15.209,399.442
731,10 Feb 2022 00:45:11.490,10 Feb 2022 00:47:45.067,153.577
732,10 Feb 2022 02:16:23.248,10 Feb 2022 02:23:20.279,417.031
733,10 Feb 2022 11:23:57.851,10 Feb 2022 11:25:01.485,63.634
734,10 Feb 2022 12:53:23.145,10 Feb 2022 13:00:25.060,421.916
735,11 Feb 2022 01:44:25.355,11 Feb 2022 01:51:21.490,416.135
736,11 Feb 2022 03:18:35.377,11 Feb 2022 03:22:21.603,226.226
737,11 Feb 2022 12:21:38.433,11 Feb 2022 12:28:19.480,401.047
738,11 Feb 2022 13:55:53.780,11 Feb 2022 14:00:29.241,275.461
739,12 Feb 2022 01:12:44.933,12 Feb 2022 01:18:52.631,367.698
740,12 Feb 2022 02:45:48.765,12 Feb 2022 02:51:40.349,351.584
741,12 Feb 2022 11:50:23.112,12 Feb 2022 11:55:56.934,333.822
742,12 Feb 2022 13:22:50.751,12 Feb 2022 13:29:12.620,381.869
743,13 Feb 2022 00:41:38.196,13 Feb 2022 00:45:37.089,238.893
744,13 Feb 2022 02:13:30.113,13 Feb 2022 02:20:18.666,408.553
745,13 Feb 2022 11:19:55.480,13 Feb 2022 11:22:59.187,183.706
746,13 Feb 2022 12:50:28.436,13 Feb 2022 12:57:28.173,419.737
747,14 Feb 2022 01:41:27.487,14 Feb 2022 01:48:28.539,421.052
748,14 Feb 2022 03:16:10.816,14 Feb 2022 03:18:42.282,151.466
749,14 Feb 2022 12:18:35.088,14 Feb 2022 12:25:27.303,412.215
750,14 Feb 2022 13:53:34.273,14 Feb 2022 13:57:06.619,212.346
751,15 Feb 2022 01:09:40.826,15 Feb 2022 01:16:09.931,389.105
752,15 Feb 2022 02:43:03.606,15 Feb 2022 02:48:25.591,321.985
753,15 Feb 2022 11:47:09.806,15 Feb 2022 11:53:10.788,360.982
754,15 Feb 2022 13:20:09.541,15 Feb 2022 13:26:07.505,357.964
755,16 Feb 2022 00:38:19.469,16 Feb 2022 00:43:13.185,293.716
756,16 Feb 2022 02:10:38.516,16 Feb 2022 02:17:14.275,395.759
757,16 Feb 2022 11:16:22.048,16 Feb 2022 11:20:29.207,247.159
758,16 Feb 2022 12:47:36.560,16 Feb 2022 12:54:29.702,413.141
759,17 Feb 2022 01:38:31.165,17 Feb 2022 01:45:32.802,421.638
760,17 Feb 2022 12:15:34.493,17 Feb 2022 12:22:33.612,419.119
761,17 Feb 2022 13:51:40.110,17 Feb 2022 13:53:20.035,99.926
762,18 Feb 2022 01:06:39.048,18 Feb 2022 01:13:23.629,404.581
763,18 Feb 2022 02:40:21.752,18 Feb 2022 02:45:06.282,284.529
764,18 Feb 2022 11:44:00.002,18 Feb 2022 11:50:22.384,382.381
765,18 Feb 2022 13:17:32.914,18 Feb 2022 13:22:59.109,326.195
766,19 Feb 2022 00:35:07.558,19 Feb 2022 00:40:41.123,333.566
767,19 Feb 2022 02:07:48.605,19 Feb 2022 02:14:06.961,378.356
768,19 Feb 2022 11:12:58.000,19 Feb 2022 11:17:51.101,293.101
769,19 Feb 2022 12:44:47.685,19 Feb 2022 12:51:29.489,401.804
770,20 Feb 2022 00:04:34.300,20 Feb 2022 00:06:47.158,132.858
771,20 Feb 2022 01:35:36.317,20 Feb 2022 01:42:34.346,418.029
772,20 Feb 2022 12:12:36.599,20 Feb 2022 12:19:38.464,421.865
773,21 Feb 2022 01:03:39.219,21 Feb 2022 01:10:34.115,414.896
774,21 Feb 2022 02:37:44.910,21 Feb 2022 02:41:40.709,235.798
775,21 Feb 2022 11:40:53.315,21 Feb 2022 11:47:32.107,398.792
776,21 Feb 2022 13:15:02.267,21 Feb 2022 13:19:46.063,283.796
777,22 Feb 2022 00:31:59.933,22 Feb 2022 00:38:03.453,363.520
778,22 Feb 2022 02:05:00.632,22 Feb 2022 02:10:56.472,355.840
779,22 Feb 2022 11:09:39.737,22 Feb 2022 11:15:08.460,328.723
780,22 Feb 2022 12:42:02.094,22 Feb 2022 12:48:27.267,385.173
781,23 Feb 2022 00:00:56.357,23 Feb 2022 00:04:44.065,227.708
782,23 Feb 2022 01:32:42.942,23 Feb 2022 01:39:33.185,410.243
783,23 Feb 2022 10:39:16.568,23 Feb 2022 10:42:06.903,170.335
784,23 Feb 2022 12:09:41.433,23 Feb 2022 12:16:41.826,420.392
785,24 Feb 2022 01:00:41.089,24 Feb 2022 01:07:41.634,420.545
786,24 Feb 2022 02:35:17.672,24 Feb 2022 02:38:04.276,166.604
787,24 Feb 2022 11:37:49.510,24 Feb 2022 11:44:40.180,410.671
788,24 Feb 2022 13:12:40.676,24 Feb 2022 13:16:25.301,224.625
789,25 Feb 2022 00:28:55.394,25 Feb 2022 00:35:21.407,386.012
790,25 Feb 2022 02:02:15.027,25 Feb 2022 02:07:42.369,327.342
791,25 Feb 2022 11:06:25.804,25 Feb 2022 11:12:22.735,356.931
792,25 Feb 2022 12:39:20.217,25 Feb 2022 12:45:22.605,362.388
793,25 Feb 2022 23:57:36.045,26 Feb 2022 00:02:21.965,285.920
794,26 Feb 2022 01:29:51.082,26 Feb 2022 01:36:29.256,398.173
795,26 Feb 2022 10:35:40.812,26 Feb 2022 10:39:39.042,238.230
796,26 Feb 2022 12:06:49.079,26 Feb 2022 12:13:43.630,414.551
797,27 Feb 2022 00:57:44.518,27 Feb 2022 01:04:46.350,421.833
798,27 Feb 2022 11:34:48.466,27 Feb 2022 11:41:46.738,418.272
799,27 Feb 2022 13:10:39.118,27 Feb 2022 13:12:45.876,126.758
800,28 Feb 2022 00:25:53.264,28 Feb 2022 00:32:35.661,402.397
801,28 Feb 2022 01:59:32.541,28 Feb 2022 02:04:23.892,291.351
802,28 Feb 2022 11:03:15.456,28 Feb 2022 11:09:34.670,379.214
803,28 Feb 2022 12:36:42.762,28 Feb 2022 12:42:14.824,332.062
804,28 Feb 2022 23:54:23.242,28 Feb 2022 23:59:51.009,327.767
805,1 Mar 2022 01:27:00.878,1 Mar 2022 01:33:22.439,381.561
806,1 Mar 2022 10:32:15.568,1 Mar 2022 10:37:01.921,286.353
807,1 Mar 2022 12:03:59.697,1 Mar 2022 12:10:43.716,404.019
808,1 Mar 2022 23:23:59.315,1 Mar 2022 23:25:47.009,107.694
809,2 Mar 2022 00:54:49.429,2 Mar 2022 01:01:48.340,418.912
810,2 Mar 2022 11:31:50.126,2 Mar 2022 11:38:51.826,421.700
811,3 Mar 2022 00:22:53.130,3 Mar 2022 00:29:46.652,413.522
812,3 Mar 2022 01:56:54.684,3 Mar 2022 02:00:59.540,244.856
813,3 Mar 2022 11:00:08.273,3 Mar 2022 11:06:44.684,396.411
814,3 Mar 2022 12:34:10.987,3 Mar 2022 12:39:02.685,291.699
815,3 Mar 2022 23:51:15.015,3 Mar 2022 23:57:14.163,359.149
816,4 Mar 2022 01:24:12.563,4 Mar 2022 01:30:12.496,359.933
817,4 Mar 2022 10:28:56.481,4 Mar 2022 10:34:19.900,323.419
818,4 Mar 2022 12:01:13.540,4 Mar 2022 12:07:41.844,388.304
819,4 Mar 2022 23:20:14.923,4 Mar 2022 23:23:50.592,215.670
820,5 Mar 2022 00:51:55.805,5 Mar 2022 00:58:47.626,411.821
821,5 Mar 2022 09:58:38.346,5 Mar 2022 10:01:13.969,155.623
822,5 Mar 2022 11:28:54.510,5 Mar 2022 11:35:55.436,420.927
823,6 Mar 2022 00:19:54.732,6 Mar 2022 00:26:54.653,419.921
824,6 Mar 2022 01:54:25.228,6 Mar 2022 01:57:25.531,180.304
825,6 Mar 2022 10:57:04.008,6 Mar 2022 11:03:53.019,409.011
826,6 Mar 2022 12:31:47.540,6 Mar 2022 12:35:43.558,236.018
827,6 Mar 2022 23:48:10.025,6 Mar 2022 23:54:32.779,382.754
828,7 Mar 2022 01:21:26.525,7 Mar 2022 01:26:59.025,332.500
829,7 Mar 2022 10:25:41.899,7 Mar 2022 10:31:34.622,352.723
830,7 Mar 2022 11:58:31.013,7 Mar 2022 12:04:37.628,366.615
831,7 Mar 2022 23:16:52.816,7 Mar 2022 23:21:30.513,277.697
832,8 Mar 2022 00:49:03.693,8 Mar 2022 00:55:44.162,400.469
833,8 Mar 2022 09:54:59.841,8 Mar 2022 09:58:48.647,228.806
834,8 Mar 2022 11:26:01.682,8 Mar 2022 11:32:57.506,415.823
835,9 Mar 2022 00:16:57.911,9 Mar 2022 00:23:59.825,421.913
836,9 Mar 2022 01:52:26.974,9 Mar 2022 01:53:19.060,52.086
837,9 Mar 2022 10:54:02.515,9 Mar 2022 11:00:59.821,417.307
838,9 Mar 2022 12:29:40.730,9 Mar 2022 12:32:09.162,148.432
839,9 Mar 2022 23:45:07.527,9 Mar 2022 23:51:47.608,400.080
840,10 Mar 2022 01:18:43.453,10 Mar 2022 01:23:41.348,297.895
841,10 Mar 2022 10:22:30.995,10 Mar 2022 10:28:46.905,375.909
842,10 Mar 2022 11:55:52.763,10 Mar 2022 12:01:30.424,337.661
843,10 Mar 2022 23:13:39.049,10 Mar 2022 23:19:00.744,321.695
844,11 Mar 2022 00:46:13.204,11 Mar 2022 00:52:37.833,384.628
845,11 Mar 2022 09:51:33.299,11 Mar 2022 09:56:12.616,279.316
846,11 Mar 2022 11:23:11.796,11 Mar 2022 11:29:57.889,406.092
847,11 Mar 2022 22:43:28.742,11 Mar 2022 22:44:42.410,73.667
848,12 Mar 2022 00:14:02.581,12 Mar 2022 00:21:02.259,419.678
849,12 Mar 2022 10:51:03.727,12 Mar 2022 10:58:05.149,421.421
850,12 Mar 2022 23:42:07.089,12 Mar 2022 23:48:59.120,412.031
851,13 Mar 2022 01:16:04.672,13 Mar 2022 01:20:18.125,253.452
852,13 Mar 2022 10:19:23.312,13 Mar 2022 10:25:57.214,393.902
853,13 Mar 2022 11:53:19.929,13 Mar 2022 11:58:19.129,299.199
854,13 Mar 2022 23:10:30.183,13 Mar 2022 23:16:24.749,354.565
855,14 Mar 2022 00:43:24.556,14 Mar 2022 00:49:28.420,363.864
856,14 Mar 2022 09:48:13.347,14 Mar 2022 09:53:31.254,317.908
857,14 Mar 2022 11:20:25.084,14 Mar 2022 11:26:56.364,391.280
858,14 Mar 2022 22:39:33.969,14 Mar 2022 22:42:56.601,202.633
859,15 Mar 2022 00:11:08.714,15 Mar 2022 00:18:01.987,413.273
860,15 Mar 2022 09:18:01.023,15 Mar 2022 09:20:20.158,139.135
861,15 Mar 2022 10:48:07.660,15 Mar 2022 10:55:09.008,421.348
862,15 Mar 2022 23:39:08.416,15 Mar 2022 23:46:07.592,419.176
863,16 Mar 2022 01:13:33.335,16 Mar 2022 01:16:46.204,192.868
864,16 Mar 2022 10:16:18.578,16 Mar 2022 10:23:05.815,407.237
865,16 Mar 2022 11:50:54.803,16 Mar 2022 11:55:01.453,246.650
866,16 Mar 2022 23:07:24.720,16 Mar 2022 23:13:44.047,379.327
867,17 Mar 2022 00:40:38.104,17 Mar 2022 00:46:15.575,337.471
868,17 Mar 2022 09:44:58.091,17 Mar 2022 09:50:46.442,348.350
869,17 Mar 2022 11:17:41.923,17 Mar 2022 11:23:52.566,370.643
870,17 Mar 2022 22:36:09.800,17 Mar 2022 22:40:38.808,269.009
871,18 Mar 2022 00:08:16.350,18 Mar 2022 00:14:58.983,402.633
872,18 Mar 2022 09:14:19.163,18 Mar 2022 09:17:57.989,218.826
873,18 Mar 2022 10:45:14.364,18 Mar 2022 10:52:11.337,416.972
874,18 Mar 2022 23:36:11.345,18 Mar 2022 23:43:13.224,421.879
875,19 Mar 2022 01:11:23.414,19 Mar 2022 01:12:51.609,88.196
876,19 Mar 2022 10:13:16.631,19 Mar 2022 10:20:12.863,416.232
877,19 Mar 2022 11:48:43.931,19 Mar 2022 11:51:30.893,166.962
878,19 Mar 2022 23:04:21.849,19 Mar 2022 23:10:59.468,397.618
879,20 Mar 2022 00:37:54.478,20 Mar 2022 00:42:58.657,304.178
880,20 Mar 2022 09:41:46.624,20 Mar 2022 09:47:59.093,372.469
881,20 Mar 2022 11:15:02.909,20 Mar 2022 11:20:45.915,343.007
882,20 Mar 2022 22:32:54.986,20 Mar 2022 22:38:10.310,315.325
883,21 Mar 2022 00:05:25.579,21 Mar 2022 00:11:53.142,387.563
884,21 Mar 2022 09:10:51.204,21 Mar 2022 09:15:23.173,271.970
885,21 Mar 2022 10:42:23.982,21 Mar 2022 10:49:12.011,408.030
886,21 Mar 2022 23:33:15.773,21 Mar 2022 23:40:16.107,420.335
887,22 Mar 2022 10:10:17.403,22 Mar 2022 10:17:18.433,421.030
888,22 Mar 2022 23:01:21.093,22 Mar 2022 23:08:11.500,410.407
889,23 Mar 2022 00:35:14.850,23 Mar 2022 00:39:36.485,261.635
890,23 Mar 2022 09:38:38.435,23 Mar 2022 09:45:09.701,391.265
891,23 Mar 2022 11:12:29.069,23 Mar 2022 11:17:35.406,306.337
892,23 Mar 2022 22:29:45.445,23 Mar 2022 22:35:35.207,349.761
893,24 Mar 2022 00:02:36.610,24 Mar 2022 00:08:44.260,367.650
894,24 Mar 2022 09:07:30.339,24 Mar 2022 09:12:42.513,312.174
895,24 Mar 2022 10:39:36.725,24 Mar 2022 10:46:10.821,394.096
896,24 Mar 2022 21:58:53.604,24 Mar 2022 22:02:01.988,188.384
897,24 Mar 2022 23:30:21.664,24 Mar 2022 23:37:16.285,414.621
898,25 Mar 2022 08:37:24.969,25 Mar 2022 08:39:25.124,120.155
899,25 Mar 2022 10:07:20.885,25 Mar 2022 10:14:22.537,421.652
900,25 Mar 2022 22:58:22.145,25 Mar 2022 23:05:20.460,418.315
901,26 Mar 2022 00:32:41.893,26 Mar 2022 00:36:06.389,204.496
902,26 Mar 2022 09:35:33.225,26 Mar 2022 09:42:18.570,405.345
903,26 Mar 2022 11:10:02.415,26 Mar 2022 11:14:19.037,256.622
904,26 Mar 2022 22:26:39.486,26 Mar 2022 22:32:55.211,375.726
905,26 Mar 2022 23:59:49.760,27 Mar 2022 00:05:32.012,342.252
906,27 Mar 2022 09:04:14.388,27 Mar 2022 09:09:58.192,343.805
907,27 Mar 2022 10:36:52.945,27 Mar 2022 10:43:07.428,374.483
908,27 Mar 2022 21:55:27.020,27 Mar 2022 21:59:46.833,259.813
909,27 Mar 2022 23:27:29.047,27 Mar 2022 23:34:13.732,404.686
910,28 Mar 2022 08:33:38.823,28 Mar 2022 08:37:07.026,208.203
911,28 Mar 2022 10:04:27.125,28 Mar 2022 10:11:25.125,418.000
912,28 Mar 2022 22:55:24.818,28 Mar 2022 23:02:26.548,421.729
913,29 Mar 2022 00:30:25.460,29 Mar 2022 00:32:18.514,113.055
914,29 Mar 2022 09:32:30.826,29 Mar 2022 09:39:25.864,415.038
915,29 Mar 2022 11:07:48.241,29 Mar 2022 11:10:51.548,183.306
916,29 Mar 2022 22:23:36.227,29 Mar 2022 22:30:11.229,395.002
917,29 Mar 2022 23:57:05.607,30 Mar 2022 00:02:15.824,310.217
918,30 Mar 2022 09:01:02.339,30 Mar 2022 09:07:11.220,368.881
919,30 Mar 2022 10:34:13.196,30 Mar 2022 10:40:01.302,348.106
920,30 Mar 2022 21:52:11.060,30 Mar 2022 21:57:19.702,308.642
921,30 Mar 2022 23:24:38.006,30 Mar 2022 23:31:08.364,390.358
922,31 Mar 2022 08:30:09.293,31 Mar 2022 08:34:33.575,264.282
923,31 Mar 2022 10:01:36.253,31 Mar 2022 10:08:26.084,409.831
924,31 Mar 2022 22:52:29.003,31 Mar 2022 22:59:29.876,420.873
925,1 Apr 2022 09:29:31.153,1 Apr 2022 09:36:31.677,420.524
926,1 Apr 2022 22:20:35.148,1 Apr 2022 22:27:23.795,408.646
927,1 Apr 2022 23:54:25.199,1 Apr 2022 23:58:54.643,269.445
928,2 Apr 2022 08:57:53.630,2 Apr 2022 09:04:22.141,388.511
929,2 Apr 2022 10:31:38.399,2 Apr 2022 10:36:51.526,313.127
930,2 Apr 2022 21:49:00.798,2 Apr 2022 21:54:45.535,344.737
931,2 Apr 2022 23:21:48.718,2 Apr 2022 23:28:00.006,371.288
932,3 Apr 2022 08:26:47.464,3 Apr 2022 08:31:53.682,306.218
933,3 Apr 2022 09:58:48.459,3 Apr 2022 10:05:25.218,396.759
934,3 Apr 2022 21:18:13.975,3 Apr 2022 21:21:06.603,172.627
935,3 Apr 2022 22:49:34.655,3 Apr 2022 22:56:30.502,415.847
936,4 Apr 2022 07:56:50.900,4 Apr 2022 07:58:28.134,97.234
937,4 Apr 2022 09:26:34.186,4 Apr 2022 09:33:36.026,421.840
938,4 Apr 2022 22:17:35.918,4 Apr 2022 22:24:33.249,417.331
939,4 Apr 2022 23:51:50.821,4 Apr 2022 23:55:26.176,215.354
940,5 Apr 2022 08:54:47.949,5 Apr 2022 09:01:31.281,403.332
941,5 Apr 2022 10:29:10.342,5 Apr 2022 10:33:36.341,265.999
942,5 Apr 2022 21:45:54.325,5 Apr 2022 21:52:06.269,371.944
943,5 Apr 2022 23:19:01.489,5 Apr 2022 23:24:48.341,346.852
944,6 Apr 2022 08:23:30.790,6 Apr 2022 08:29:09.877,339.086
945,6 Apr 2022 09:56:04.077,6 Apr 2022 10:02:22.221,378.144
946,6 Apr 2022 21:14:44.506,6 Apr 2022 21:18:54.557,250.050
947,6 Apr 2022 22:46:41.787,6 Apr 2022 22:53:28.407,406.620
948,7 Apr 2022 07:52:58.871,7 Apr 2022 07:56:15.714,196.843
949,7 Apr 2022 09:23:39.966,7 Apr 2022 09:30:38.870,418.903
950,7 Apr 2022 22:14:38.333,7 Apr 2022 22:21:39.798,421.465
951,7 Apr 2022 23:49:29.885,7 Apr 2022 23:51:43.012,133.127
952,8 Apr 2022 08:51:45.092,8 Apr 2022 08:58:38.831,413.739
953,8 Apr 2022 10:26:53.387,8 Apr 2022 10:30:11.411,198.023
954,8 Apr 2022 21:42:50.665,8 Apr 2022 21:49:22.900,392.236
955,8 Apr 2022 23:16:16.838,8 Apr 2022 23:21:32.854,316.016
956,9 Apr 2022 08:20:18.144,9 Apr 2022 08:26:23.288,365.144
957,9 Apr 2022 09:53:23.608,9 Apr 2022 09:59:16.596,352.987
958,9 Apr 2022 21:11:27.283,9 Apr 2022 21:16:28.908,301.625
959,9 Apr 2022 22:43:50.477,9 Apr 2022 22:50:23.510,393.033
960,10 Apr 2022 07:49:27.585,10 Apr 2022 07:53:43.813,256.228
961,10 Apr 2022 09:20:48.605,10 Apr 2022 09:27:40.107,411.502
962,10 Apr 2022 22:11:42.274,10 Apr 2022 22:18:43.577,421.304
963,11 Apr 2022 08:48:44.975,11 Apr 2022 08:55:44.882,419.908
964,11 Apr 2022 10:25:13.256,11 Apr 2022 10:26:11.040,57.784
965,11 Apr 2022 21:39:49.252,11 Apr 2022 21:46:36.007,406.755
966,11 Apr 2022 23:13:35.704,11 Apr 2022 23:18:12.605,276.900
967,12 Apr 2022 08:17:08.911,12 Apr 2022 08:23:34.534,385.623
968,12 Apr 2022 09:50:47.907,12 Apr 2022 09:56:07.508,319.601
969,12 Apr 2022 21:08:16.254,12 Apr 2022 21:13:55.726,339.472
970,12 Apr 2022 22:41:00.881,12 Apr 2022 22:47:15.659,374.778
971,13 Apr 2022 07:46:04.724,13 Apr 2022 07:51:04.741,300.018
972,13 Apr 2022 09:18:00.289,13 Apr 2022 09:24:39.558,399.269
973,13 Apr 2022 20:37:35.309,13 Apr 2022 20:40:10.210,154.901
974,13 Apr 2022 22:08:47.683,13 Apr 2022 22:15:44.648,416.964
975,14 Apr 2022 07:16:20.797,14 Apr 2022 07:17:27.216,66.419
976,14 Apr 2022 08:45:47.558,14 Apr 2022 08:52:49.472,421.915
977,14 Apr 2022 21:36:49.739,14 Apr 2022 21:43:45.956,416.217
978,14 Apr 2022 23:11:00.068,14 Apr 2022 23:14:45.609,225.541
