Facility-Facility1-To-Satellite-SSO650_Access.csv

"Access","Start Time (UTCG)","Stop Time (UTCG)","Duration (sec)"
1,5 Aug 2021 13:46:09.730,5 Aug 2021 13:54:21.245,491.516
2,5 Aug 2021 15:22:42.701,5 Aug 2021 15:30:43.364,480.663
3,5 Aug 2021 23:16:02.620,5 Aug 2021 23:17:43.888,101.268
4,6 Aug 2021 00:48:03.990,6 Aug 2021 00:56:53.247,529.256
5,6 Aug 2021 02:26:07.964,6 Aug 2021 02:32:32.156,384.192
6,6 Aug 2021 14:09:19.136,6 Aug 2021 14:18:12.166,533.030
7,6 Aug 2021 15:46:33.886,6 Aug 2021 15:53:09.593,395.707
8,6 Aug 2021 23:37:02.499,6 Aug 2021 23:42:43.948,341.449
9,7 Aug 2021 01:11:20.443,7 Aug 2021 01:20:19.570,539.127
10,7 Aug 2021 02:52:01.636,7 Aug 2021 02:54:06.219,124.583
11,7 Aug 2021 12:57:33.812,7 Aug 2021 13:02:43.325,309.513
12,7 Aug 2021 14:32:40.911,7 Aug 2021 14:41:38.440,537.529
13,7 Aug 2021 16:10:53.211,7 Aug 2021 16:14:55.512,242.301
14,7 Aug 2021 23:59:14.643,8 Aug 2021 00:06:43.936,449.293
15,8 Aug 2021 01:35:00.126,8 Aug 2021 01:43:34.842,514.715
16,8 Aug 2021 13:20:03.629,8 Aug 2021 13:27:33.531,449.902
17,8 Aug 2021 14:56:12.971,8 Aug 2021 15:04:42.331,509.360
18,9 Aug 2021 00:21:56.026,9 Aug 2021 00:30:26.816,510.790
19,9 Aug 2021 01:59:07.798,9 Aug 2021 02:06:34.595,446.797
20,9 Aug 2021 13:43:04.028,9 Aug 2021 13:51:40.147,516.119
21,9 Aug 2021 15:19:56.273,9 Aug 2021 15:27:22.898,446.624
22,9 Aug 2021 23:11:39.498,9 Aug 2021 23:15:48.916,249.418
23,10 Aug 2021 00:45:00.640,10 Aug 2021 00:53:58.541,537.901
24,10 Aug 2021 02:24:00.121,10 Aug 2021 02:29:02.732,302.612
25,10 Aug 2021 12:32:24.511,10 Aug 2021 12:34:47.875,143.364
26,10 Aug 2021 14:06:19.703,10 Aug 2021 14:15:19.025,539.323
27,10 Aug 2021 15:43:57.058,10 Aug 2021 15:49:33.844,336.786
28,10 Aug 2021 23:33:27.400,10 Aug 2021 23:40:06.660,399.260
29,11 Aug 2021 01:08:27.659,11 Aug 2021 01:17:19.968,532.309
30,11 Aug 2021 12:54:05.450,11 Aug 2021 13:00:34.218,388.767
31,11 Aug 2021 14:29:46.363,11 Aug 2021 14:38:34.754,528.391
32,11 Aug 2021 16:09:04.888,11 Aug 2021 16:10:25.557,80.668
33,11 Aug 2021 23:55:54.579,12 Aug 2021 00:03:57.294,482.714
34,12 Aug 2021 01:32:19.475,12 Aug 2021 01:40:28.890,489.416
35,12 Aug 2021 13:16:53.128,12 Aug 2021 13:25:00.394,487.266
36,12 Aug 2021 14:53:23.349,12 Aug 2021 15:01:28.071,484.721
37,12 Aug 2021 22:47:10.727,12 Aug 2021 22:48:03.119,52.392
38,13 Aug 2021 00:18:47.143,13 Aug 2021 00:27:34.637,527.493
39,13 Aug 2021 01:56:44.282,13 Aug 2021 02:03:17.512,393.231
40,13 Aug 2021 13:40:01.556,13 Aug 2021 13:48:53.103,531.547
41,13 Aug 2021 15:17:13.440,13 Aug 2021 15:23:56.182,402.742
42,13 Aug 2021 23:07:50.482,13 Aug 2021 23:13:22.510,332.029
43,14 Aug 2021 00:42:02.150,14 Aug 2021 00:51:01.627,539.477
44,14 Aug 2021 02:22:24.418,14 Aug 2021 02:25:04.202,159.784
45,14 Aug 2021 12:28:21.454,14 Aug 2021 12:33:16.922,295.468
46,14 Aug 2021 14:03:22.629,14 Aug 2021 14:12:20.870,538.241
47,14 Aug 2021 15:41:29.681,14 Aug 2021 15:45:45.985,256.304
48,14 Aug 2021 23:30:00.209,14 Aug 2021 23:37:24.121,443.912
49,15 Aug 2021 01:05:40.227,15 Aug 2021 01:14:17.697,517.470
50,15 Aug 2021 12:50:47.822,15 Aug 2021 12:58:11.444,443.622
51,15 Aug 2021 14:26:54.024,15 Aug 2021 14:35:26.216,512.192
52,15 Aug 2021 23:52:39.957,16 Aug 2021 00:01:07.850,507.893
53,16 Aug 2021 01:29:45.800,16 Aug 2021 01:37:18.731,452.931
54,16 Aug 2021 13:13:46.917,16 Aug 2021 13:22:20.190,513.273
55,16 Aug 2021 14:50:36.493,16 Aug 2021 14:58:08.406,451.913
56,16 Aug 2021 22:42:30.225,16 Aug 2021 22:46:25.158,234.934
57,17 Aug 2021 00:15:43.126,17 Aug 2021 00:24:40.241,537.115
58,17 Aug 2021 01:54:33.964,17 Aug 2021 01:59:50.149,316.186
59,17 Aug 2021 12:03:25.475,17 Aug 2021 12:05:07.649,102.175
60,17 Aug 2021 13:37:01.785,17 Aug 2021 13:46:00.678,538.893
61,17 Aug 2021 15:14:35.703,17 Aug 2021 15:20:21.715,346.011
62,17 Aug 2021 23:04:14.067,17 Aug 2021 23:10:46.163,392.096
63,18 Aug 2021 00:39:08.646,18 Aug 2021 00:48:02.369,533.723
64,18 Aug 2021 12:24:50.909,18 Aug 2021 12:31:10.406,379.497
65,18 Aug 2021 14:00:27.771,18 Aug 2021 14:09:17.859,530.088
66,18 Aug 2021 15:39:29.741,18 Aug 2021 15:41:28.018,118.277
67,18 Aug 2021 23:26:39.340,18 Aug 2021 23:34:37.914,478.575
68,19 Aug 2021 01:02:58.694,19 Aug 2021 01:11:12.249,493.555
69,19 Aug 2021 12:47:36.608,19 Aug 2021 12:55:39.407,482.799
70,19 Aug 2021 14:24:04.052,19 Aug 2021 14:32:12.675,488.622
71,19 Aug 2021 23:49:30.390,19 Aug 2021 23:58:15.986,525.596
72,20 Aug 2021 01:27:20.846,20 Aug 2021 01:34:02.679,401.833
73,20 Aug 2021 13:10:44.037,20 Aug 2021 13:19:33.932,529.895
74,20 Aug 2021 14:47:53.090,20 Aug 2021 14:54:42.628,409.537
75,20 Aug 2021 22:38:38.696,20 Aug 2021 22:44:00.889,322.194
76,21 Aug 2021 00:12:43.948,21 Aug 2021 00:21:43.636,539.688
77,21 Aug 2021 01:52:50.725,21 Aug 2021 01:55:58.727,188.003
78,21 Aug 2021 11:59:09.584,21 Aug 2021 12:03:49.958,280.374
79,21 Aug 2021 13:34:04.389,21 Aug 2021 13:43:03.209,538.821
80,21 Aug 2021 15:12:06.558,21 Aug 2021 15:16:35.993,269.435
81,21 Aug 2021 23:00:45.896,21 Aug 2021 23:08:04.235,438.339
82,22 Aug 2021 00:36:20.440,22 Aug 2021 00:45:00.494,520.053
83,22 Aug 2021 12:21:32.135,22 Aug 2021 12:28:49.177,437.041
84,22 Aug 2021 13:57:35.121,22 Aug 2021 14:06:10.003,514.882
85,22 Aug 2021 23:23:23.987,22 Aug 2021 23:31:48.833,504.847
86,23 Aug 2021 01:00:23.963,23 Aug 2021 01:08:02.750,458.787
87,23 Aug 2021 12:44:29.873,23 Aug 2021 12:53:00.110,510.238
88,23 Aug 2021 14:21:16.774,23 Aug 2021 14:28:53.795,457.021
89,23 Aug 2021 22:13:21.538,23 Aug 2021 22:17:00.862,219.324
90,23 Aug 2021 23:46:25.699,23 Aug 2021 23:55:21.892,536.193
91,24 Aug 2021 01:25:08.263,24 Aug 2021 01:30:37.163,328.900
92,24 Aug 2021 11:34:51.391,24 Aug 2021 11:35:02.408,11.017
93,24 Aug 2021 13:07:43.909,24 Aug 2021 13:16:42.231,538.323
94,24 Aug 2021 14:45:14.504,24 Aug 2021 14:51:09.383,354.879
95,24 Aug 2021 22:35:00.890,24 Aug 2021 22:41:25.562,384.672
96,25 Aug 2021 00:09:49.734,25 Aug 2021 00:18:44.717,534.982
97,25 Aug 2021 11:55:36.584,25 Aug 2021 12:01:46.319,369.735
98,25 Aug 2021 13:31:09.226,25 Aug 2021 13:40:00.869,531.643
99,25 Aug 2021 15:09:59.350,25 Aug 2021 15:12:25.671,146.321
100,25 Aug 2021 22:57:24.204,25 Aug 2021 23:05:18.482,474.278
101,26 Aug 2021 00:33:38.043,26 Aug 2021 00:41:55.525,497.483
102,26 Aug 2021 12:18:20.177,26 Aug 2021 12:26:18.283,478.106
103,26 Aug 2021 13:54:44.806,26 Aug 2021 14:02:57.176,492.370
104,26 Aug 2021 23:20:13.732,26 Aug 2021 23:28:57.295,523.563
105,27 Aug 2021 00:57:57.640,27 Aug 2021 01:04:47.670,410.030
106,27 Aug 2021 12:41:26.564,27 Aug 2021 12:50:14.660,528.096
107,27 Aug 2021 14:18:32.833,27 Aug 2021 14:25:28.932,416.099
108,27 Aug 2021 22:09:27.160,27 Aug 2021 22:14:39.076,311.916
109,27 Aug 2021 23:43:25.844,27 Aug 2021 23:52:25.602,539.758
110,28 Aug 2021 01:23:19.160,28 Aug 2021 01:26:51.184,212.024
111,28 Aug 2021 11:29:58.304,28 Aug 2021 11:34:22.352,264.048
112,28 Aug 2021 13:04:46.199,28 Aug 2021 13:13:45.456,539.258
113,28 Aug 2021 14:42:43.789,28 Aug 2021 14:47:25.604,281.815
114,28 Aug 2021 22:31:31.709,28 Aug 2021 22:38:44.278,432.569
115,29 Aug 2021 00:07:00.770,29 Aug 2021 00:15:43.233,522.463
116,29 Aug 2021 11:52:16.581,29 Aug 2021 11:59:26.728,430.147
117,29 Aug 2021 13:28:16.264,29 Aug 2021 13:36:53.695,517.430
118,29 Aug 2021 22:54:08.117,29 Aug 2021 23:02:29.769,501.652
119,30 Aug 2021 00:31:02.290,30 Aug 2021 00:38:46.664,464.374
120,30 Aug 2021 12:15:12.892,30 Aug 2021 12:23:39.919,507.027
121,30 Aug 2021 13:51:57.124,30 Aug 2021 13:59:39.069,461.945
122,30 Aug 2021 21:44:13.571,30 Aug 2021 21:47:35.904,202.333
123,30 Aug 2021 23:17:08.363,30 Aug 2021 23:26:03.507,535.144
124,31 Aug 2021 00:55:42.969,31 Aug 2021 01:01:23.837,340.868
125,31 Aug 2021 12:38:26.075,31 Aug 2021 12:47:23.690,537.615
126,31 Aug 2021 14:15:53.453,31 Aug 2021 14:21:56.850,363.397
127,31 Aug 2021 22:05:47.883,31 Aug 2021 22:12:04.851,376.967
128,31 Aug 2021 23:40:30.930,31 Aug 2021 23:49:27.018,536.088
129,1 Sep 2021 11:26:22.493,1 Sep 2021 11:32:21.941,359.448
130,1 Sep 2021 13:01:50.725,1 Sep 2021 13:10:43.791,533.066
131,1 Sep 2021 14:40:31.320,1 Sep 2021 14:43:20.910,169.590
132,1 Sep 2021 22:28:09.179,1 Sep 2021 22:35:58.993,469.814
133,2 Sep 2021 00:04:17.519,2 Sep 2021 00:12:38.734,501.215
134,2 Sep 2021 11:49:03.832,2 Sep 2021 11:56:57.013,473.181
135,2 Sep 2021 13:25:25.608,2 Sep 2021 13:33:41.573,495.965
136,2 Sep 2021 22:50:57.172,2 Sep 2021 22:59:38.556,521.384
137,3 Sep 2021 00:28:34.654,3 Sep 2021 00:35:32.499,417.844
138,3 Sep 2021 12:12:09.148,3 Sep 2021 12:20:55.278,526.130
139,3 Sep 2021 13:49:12.662,3 Sep 2021 13:56:15.095,422.434
140,3 Sep 2021 21:40:15.897,3 Sep 2021 21:45:17.039,301.142
141,3 Sep 2021 23:14:07.834,3 Sep 2021 23:23:07.522,539.688
142,4 Sep 2021 00:53:49.059,4 Sep 2021 00:57:42.233,233.174
143,4 Sep 2021 11:00:47.731,4 Sep 2021 11:04:53.974,246.243
144,4 Sep 2021 12:35:28.040,4 Sep 2021 12:44:27.607,539.566
145,4 Sep 2021 14:13:21.320,4 Sep 2021 14:18:14.858,293.538
146,4 Sep 2021 22:02:17.645,4 Sep 2021 22:09:24.244,426.598
147,4 Sep 2021 23:37:41.206,4 Sep 2021 23:46:25.909,524.703
148,5 Sep 2021 11:23:01.157,5 Sep 2021 11:30:04.085,422.928
149,5 Sep 2021 12:58:57.452,5 Sep 2021 13:07:37.287,519.836
150,5 Sep 2021 22:24:52.345,5 Sep 2021 22:33:10.658,498.314
151,6 Sep 2021 00:01:40.771,6 Sep 2021 00:09:30.479,469.708
152,6 Sep 2021 11:45:55.978,6 Sep 2021 11:54:19.606,503.628
153,6 Sep 2021 13:22:37.534,6 Sep 2021 13:30:24.230,466.696
154,6 Sep 2021 21:15:06.504,6 Sep 2021 21:18:10.091,183.587
155,6 Sep 2021 22:47:51.129,6 Sep 2021 22:56:45.075,533.946
156,7 Sep 2021 00:26:18.044,7 Sep 2021 00:32:10.196,352.152
157,7 Sep 2021 12:09:08.293,7 Sep 2021 12:18:05.052,536.759
158,7 Sep 2021 13:46:32.534,7 Sep 2021 13:52:44.132,371.597
159,7 Sep 2021 21:36:35.042,7 Sep 2021 21:42:44.020,368.978
160,7 Sep 2021 23:11:12.216,7 Sep 2021 23:20:09.268,537.052
161,8 Sep 2021 10:57:08.664,8 Sep 2021 11:02:57.241,348.577
162,8 Sep 2021 12:32:32.265,8 Sep 2021 12:41:26.617,534.352
163,8 Sep 2021 14:11:04.764,8 Sep 2021 14:14:14.622,189.858
164,8 Sep 2021 21:58:54.263,8 Sep 2021 22:06:39.447,465.184
165,8 Sep 2021 23:34:57.122,8 Sep 2021 23:43:21.869,504.746
166,9 Sep 2021 11:19:47.582,9 Sep 2021 11:27:35.598,468.016
167,9 Sep 2021 12:56:06.463,9 Sep 2021 13:04:25.871,499.408
168,9 Sep 2021 22:21:40.699,9 Sep 2021 22:30:19.773,519.074
169,9 Sep 2021 23:59:11.879,10 Sep 2021 00:06:17.171,425.292
170,10 Sep 2021 11:42:51.790,10 Sep 2021 11:51:35.788,523.998
171,10 Sep 2021 13:19:52.577,10 Sep 2021 13:27:01.123,428.546
172,10 Sep 2021 21:11:04.931,10 Sep 2021 21:15:54.758,289.827
173,10 Sep 2021 22:44:49.916,10 Sep 2021 22:53:49.400,539.484
174,11 Sep 2021 00:24:20.071,11 Sep 2021 00:28:32.232,252.162
175,11 Sep 2021 10:31:38.043,11 Sep 2021 10:35:24.659,226.616
176,11 Sep 2021 12:06:09.937,11 Sep 2021 12:15:09.663,539.726
177,11 Sep 2021 13:43:59.119,11 Sep 2021 13:49:03.795,304.676
178,11 Sep 2021 21:33:03.718,11 Sep 2021 21:40:04.134,420.416
179,11 Sep 2021 23:08:21.751,11 Sep 2021 23:17:08.533,526.782
180,12 Sep 2021 10:53:45.882,12 Sep 2021 11:00:41.246,415.364
181,12 Sep 2021 12:29:38.690,12 Sep 2021 12:38:20.791,522.101
182,12 Sep 2021 21:55:36.674,12 Sep 2021 22:03:51.498,494.824
183,12 Sep 2021 23:32:19.404,12 Sep 2021 23:40:14.198,474.795
184,13 Sep 2021 11:16:39.135,13 Sep 2021 11:24:59.167,500.032
185,13 Sep 2021 12:53:18.005,13 Sep 2021 13:01:09.277,471.271
186,13 Sep 2021 20:46:00.647,13 Sep 2021 20:48:43.125,162.478
187,13 Sep 2021 22:18:33.980,13 Sep 2021 22:27:26.603,532.623
188,13 Sep 2021 23:56:53.454,14 Sep 2021 00:02:56.279,362.825
189,14 Sep 2021 11:39:50.563,14 Sep 2021 11:48:46.310,535.747
190,14 Sep 2021 13:17:11.743,14 Sep 2021 13:23:31.232,379.489
191,14 Sep 2021 21:07:22.377,14 Sep 2021 21:13:23.064,360.688
192,14 Sep 2021 22:41:53.611,14 Sep 2021 22:50:51.471,537.860
193,15 Sep 2021 10:27:55.120,15 Sep 2021 10:33:32.200,337.080
194,15 Sep 2021 12:03:13.848,15 Sep 2021 12:12:09.344,535.496
195,15 Sep 2021 13:41:39.251,15 Sep 2021 13:45:07.241,207.990
196,15 Sep 2021 21:29:39.460,15 Sep 2021 21:37:19.835,460.375
197,15 Sep 2021 23:05:36.843,15 Sep 2021 23:14:04.929,508.086
198,16 Sep 2021 10:50:31.427,16 Sep 2021 10:58:14.030,462.603
199,16 Sep 2021 12:26:47.366,16 Sep 2021 12:35:10.066,502.699
200,16 Sep 2021 21:52:24.326,16 Sep 2021 22:01:00.950,516.623
201,16 Sep 2021 23:29:49.300,16 Sep 2021 23:37:01.706,432.406
202,17 Sep 2021 11:13:34.484,17 Sep 2021 11:22:16.189,521.705
203,17 Sep 2021 12:50:32.567,17 Sep 2021 12:57:47.020,434.453
204,17 Sep 2021 20:41:54.294,17 Sep 2021 20:46:32.195,277.901
205,17 Sep 2021 22:15:32.096,17 Sep 2021 22:24:31.231,539.135
206,17 Sep 2021 23:54:51.962,17 Sep 2021 23:59:21.417,269.455
207,18 Sep 2021 10:02:29.500,18 Sep 2021 10:05:54.133,204.632
208,18 Sep 2021 11:36:51.871,18 Sep 2021 11:45:51.622,539.751
209,18 Sep 2021 13:14:37.154,18 Sep 2021 13:19:52.441,315.288
210,18 Sep 2021 21:03:49.924,18 Sep 2021 21:10:43.934,414.010
211,18 Sep 2021 22:39:02.403,18 Sep 2021 22:47:51.098,528.696
212,19 Sep 2021 10:24:30.763,19 Sep 2021 10:31:18.189,407.427
213,19 Sep 2021 12:00:19.963,19 Sep 2021 12:09:04.196,524.233
214,19 Sep 2021 21:26:21.108,19 Sep 2021 21:34:32.287,491.179
215,19 Sep 2021 23:02:58.180,19 Sep 2021 23:10:57.824,479.645
216,20 Sep 2021 10:47:22.366,20 Sep 2021 10:55:38.603,496.237
217,20 Sep 2021 12:23:58.536,20 Sep 2021 12:31:54.218,475.682
218,20 Sep 2021 20:16:56.527,20 Sep 2021 20:19:14.469,137.942
219,20 Sep 2021 21:49:16.929,20 Sep 2021 21:58:08.085,531.156
220,20 Sep 2021 23:27:29.174,20 Sep 2021 23:33:42.109,372.935
221,21 Sep 2021 11:10:32.874,21 Sep 2021 11:19:27.468,534.594
222,21 Sep 2021 12:47:51.067,21 Sep 2021 12:54:18.170,387.103
223,21 Sep 2021 20:38:09.905,21 Sep 2021 20:44:01.967,352.063
224,21 Sep 2021 22:12:35.096,21 Sep 2021 22:21:33.623,538.528
225,21 Sep 2021 23:53:50.609,21 Sep 2021 23:54:49.484,58.874
226,22 Sep 2021 09:58:41.900,22 Sep 2021 10:04:06.782,324.882
227,22 Sep 2021 11:33:55.474,22 Sep 2021 11:42:51.984,536.510
228,22 Sep 2021 13:12:14.522,22 Sep 2021 13:15:59.028,224.506
229,22 Sep 2021 21:00:24.773,22 Sep 2021 21:08:00.167,455.394
230,22 Sep 2021 22:36:16.689,22 Sep 2021 22:44:47.930,511.241
231,23 Sep 2021 10:21:15.378,23 Sep 2021 10:28:52.305,456.927
232,23 Sep 2021 11:57:28.319,23 Sep 2021 12:05:54.163,505.844
233,23 Sep 2021 21:23:08.050,23 Sep 2021 21:31:42.081,514.031
234,23 Sep 2021 23:00:26.912,23 Sep 2021 23:07:46.106,439.194
235,24 Sep 2021 10:44:17.241,24 Sep 2021 10:52:56.478,519.238
236,24 Sep 2021 12:21:12.633,24 Sep 2021 12:28:32.794,440.160
237,24 Sep 2021 20:12:44.025,24 Sep 2021 20:17:09.321,265.296
238,24 Sep 2021 21:46:14.373,24 Sep 2021 21:55:13.024,538.651
239,24 Sep 2021 23:25:24.574,24 Sep 2021 23:30:09.935,285.361
240,25 Sep 2021 09:33:22.538,25 Sep 2021 09:36:21.970,179.433
241,25 Sep 2021 11:07:33.847,25 Sep 2021 11:16:33.487,539.640
242,25 Sep 2021 12:45:15.404,25 Sep 2021 12:50:40.821,325.417
243,25 Sep 2021 20:34:36.272,25 Sep 2021 20:41:23.648,407.376
244,25 Sep 2021 22:09:43.163,25 Sep 2021 22:18:33.611,530.448
245,26 Sep 2021 09:55:15.814,26 Sep 2021 10:01:54.910,399.096
246,26 Sep 2021 11:31:01.281,26 Sep 2021 11:39:47.507,526.226
247,26 Sep 2021 20:57:05.642,26 Sep 2021 21:05:13.025,487.383
248,26 Sep 2021 22:33:37.101,26 Sep 2021 22:41:41.362,484.261
249,27 Sep 2021 10:18:05.669,27 Sep 2021 10:26:17.911,492.242
250,27 Sep 2021 11:54:39.121,27 Sep 2021 12:02:39.051,479.930
251,27 Sep 2021 19:47:55.313,27 Sep 2021 19:49:42.963,107.650
252,27 Sep 2021 21:19:59.977,27 Sep 2021 21:28:49.530,529.553
253,27 Sep 2021 22:58:05.178,27 Sep 2021 23:04:27.712,382.534
254,28 Sep 2021 10:41:15.244,28 Sep 2021 10:50:08.524,533.280
255,28 Sep 2021 12:18:30.506,28 Sep 2021 12:25:04.943,394.437
256,28 Sep 2021 20:08:57.635,28 Sep 2021 20:14:40.717,343.082
257,28 Sep 2021 21:43:16.688,28 Sep 2021 21:52:15.732,539.044
258,28 Sep 2021 23:24:01.833,28 Sep 2021 23:25:58.957,117.124
259,29 Sep 2021 09:29:29.042,29 Sep 2021 09:34:40.939,311.898
260,29 Sep 2021 11:04:37.142,29 Sep 2021 11:13:34.530,537.388
261,29 Sep 2021 12:42:50.413,29 Sep 2021 12:46:50.140,239.727
262,29 Sep 2021 20:31:10.199,29 Sep 2021 20:38:40.430,450.231
263,29 Sep 2021 22:06:56.653,29 Sep 2021 22:15:30.862,514.209
264,30 Sep 2021 09:51:59.432,30 Sep 2021 09:59:30.414,450.982
265,30 Sep 2021 11:28:09.320,30 Sep 2021 11:36:38.161,508.841
266,30 Sep 2021 20:53:51.869,30 Sep 2021 21:02:23.164,511.295
267,30 Sep 2021 22:31:04.704,30 Sep 2021 22:38:30.379,445.675
268,1 Oct 2021 10:15:00.056,1 Oct 2021 10:23:36.658,516.603
269,1 Oct 2021 11:51:52.771,1 Oct 2021 11:59:18.442,445.671
270,1 Oct 2021 19:43:34.177,1 Oct 2021 19:47:46.072,251.895
271,1 Oct 2021 21:16:56.747,1 Oct 2021 21:25:54.768,538.021
272,1 Oct 2021 22:55:57.799,1 Oct 2021 23:00:57.894,300.095
273,2 Oct 2021 09:04:17.959,2 Oct 2021 09:06:47.355,149.396
274,2 Oct 2021 10:38:15.871,2 Oct 2021 10:47:15.253,539.383
275,2 Oct 2021 12:15:53.844,2 Oct 2021 12:21:28.960,335.116
276,2 Oct 2021 20:05:22.764,2 Oct 2021 20:12:03.267,400.502
277,2 Oct 2021 21:40:24.032,2 Oct 2021 21:49:16.068,532.036
278,3 Oct 2021 09:26:01.038,3 Oct 2021 09:32:31.394,390.355
279,3 Oct 2021 11:01:42.643,3 Oct 2021 11:10:30.725,528.082
280,3 Oct 2021 12:41:05.115,3 Oct 2021 12:42:17.090,71.975
281,3 Oct 2021 20:27:50.277,3 Oct 2021 20:35:53.708,483.432
282,3 Oct 2021 22:04:16.160,3 Oct 2021 22:12:24.816,488.657
283,4 Oct 2021 09:48:49.053,4 Oct 2021 09:56:57.085,488.031
284,4 Oct 2021 11:25:19.760,4 Oct 2021 11:33:23.776,484.016
285,4 Oct 2021 19:19:00.836,4 Oct 2021 19:20:04.771,63.935
286,4 Oct 2021 20:50:43.108,4 Oct 2021 20:59:30.930,527.821
287,4 Oct 2021 22:28:41.450,4 Oct 2021 22:35:13.105,391.655
288,5 Oct 2021 10:11:57.655,5 Oct 2021 10:20:49.474,531.819
289,5 Oct 2021 11:49:10.043,5 Oct 2021 11:55:51.563,401.520
290,5 Oct 2021 19:39:45.578,5 Oct 2021 19:45:19.313,333.735
291,5 Oct 2021 21:13:58.368,5 Oct 2021 21:22:57.797,539.429
292,5 Oct 2021 22:54:23.692,5 Oct 2021 22:56:57.853,154.161
293,6 Oct 2021 09:00:16.601,6 Oct 2021 09:05:14.624,298.023
294,6 Oct 2021 10:35:18.853,6 Oct 2021 10:44:16.977,538.124
295,6 Oct 2021 12:13:26.801,6 Oct 2021 12:17:40.698,253.897
296,6 Oct 2021 20:01:55.744,6 Oct 2021 20:09:20.628,444.884
297,6 Oct 2021 21:37:36.733,6 Oct 2021 21:46:13.726,516.992
298,7 Oct 2021 09:22:43.605,7 Oct 2021 09:30:08.357,444.752
299,7 Oct 2021 10:58:50.365,7 Oct 2021 11:07:22.067,511.702
300,7 Oct 2021 20:24:35.784,7 Oct 2021 20:33:04.204,508.420
301,7 Oct 2021 22:01:42.676,7 Oct 2021 22:09:14.535,451.860
302,8 Oct 2021 09:45:42.934,8 Oct 2021 09:54:16.720,513.786
303,8 Oct 2021 11:22:32.979,8 Oct 2021 11:30:03.972,450.993
304,8 Oct 2021 19:14:24.809,8 Oct 2021 19:18:22.401,237.592
305,8 Oct 2021 20:47:39.207,8 Oct 2021 20:56:36.476,537.269
306,8 Oct 2021 22:26:31.556,8 Oct 2021 22:31:45.391,313.835
307,9 Oct 2021 08:35:17.711,9 Oct 2021 08:37:08.352,110.641
308,9 Oct 2021 10:08:57.946,9 Oct 2021 10:17:56.924,538.978
309,9 Oct 2021 11:46:32.460,9 Oct 2021 11:52:16.874,344.414
310,9 Oct 2021 19:36:09.403,9 Oct 2021 19:42:42.794,393.391
311,9 Oct 2021 21:11:04.996,9 Oct 2021 21:19:58.477,533.481
312,10 Oct 2021 08:56:46.461,10 Oct 2021 09:03:07.631,381.170
313,10 Oct 2021 10:32:24.049,10 Oct 2021 10:41:13.847,529.797
314,10 Oct 2021 12:11:28.478,10 Oct 2021 12:13:21.053,112.575
315,10 Oct 2021 19:58:35.019,10 Oct 2021 20:06:34.342,479.323
316,10 Oct 2021 21:34:55.356,10 Oct 2021 21:43:08.189,492.833
317,11 Oct 2021 09:19:32.518,11 Oct 2021 09:27:36.123,483.605
318,11 Oct 2021 10:56:00.455,11 Oct 2021 11:04:08.399,487.944
319,11 Oct 2021 20:21:26.344,11 Oct 2021 20:30:12.285,525.941
320,11 Oct 2021 21:59:17.969,11 Oct 2021 22:05:58.303,400.334
321,12 Oct 2021 09:42:40.127,12 Oct 2021 09:51:30.323,530.196
322,12 Oct 2021 11:19:49.676,12 Oct 2021 11:26:38.032,408.356
323,12 Oct 2021 19:10:33.752,12 Oct 2021 19:15:57.724,323.972
324,12 Oct 2021 20:44:40.154,12 Oct 2021 20:53:39.815,539.661
325,12 Oct 2021 22:24:49.508,12 Oct 2021 22:27:52.852,183.344
326,13 Oct 2021 08:31:04.638,13 Oct 2021 08:35:47.766,283.128
327,13 Oct 2021 10:06:00.606,13 Oct 2021 10:14:59.334,538.728
328,13 Oct 2021 11:44:03.616,13 Oct 2021 11:48:30.784,267.168
329,13 Oct 2021 19:32:41.410,13 Oct 2021 19:40:00.753,439.343
330,13 Oct 2021 21:08:16.927,13 Oct 2021 21:16:56.534,519.607
331,14 Oct 2021 08:53:27.895,14 Oct 2021 09:00:46.123,438.228
332,14 Oct 2021 10:29:31.455,14 Oct 2021 10:38:05.868,514.413
333,14 Oct 2021 19:55:19.796,14 Oct 2021 20:03:45.193,505.397
334,14 Oct 2021 21:32:20.809,14 Oct 2021 21:39:58.577,457.768
335,15 Oct 2021 09:16:25.877,15 Oct 2021 09:24:56.665,510.787
336,15 Oct 2021 10:53:13.250,15 Oct 2021 11:00:49.381,456.131
337,15 Oct 2021 18:45:16.012,15 Oct 2021 18:48:58.206,222.194
338,15 Oct 2021 20:18:21.766,15 Oct 2021 20:27:18.134,536.368
339,15 Oct 2021 21:57:05.776,15 Oct 2021 22:02:32.476,326.700
340,16 Oct 2021 08:06:31.232,16 Oct 2021 08:07:15.516,44.285
341,16 Oct 2021 09:39:40.061,16 Oct 2021 09:48:38.495,538.434
342,16 Oct 2021 11:17:11.235,16 Oct 2021 11:23:04.573,353.337
343,16 Oct 2021 19:06:56.199,16 Oct 2021 19:13:22.211,386.012
344,16 Oct 2021 20:41:46.071,16 Oct 2021 20:50:40.837,534.766
345,17 Oct 2021 08:27:32.096,17 Oct 2021 08:33:43.595,371.499
346,17 Oct 2021 10:03:05.497,17 Oct 2021 10:11:56.874,531.377
347,17 Oct 2021 11:41:57.511,17 Oct 2021 11:44:19.292,141.781
348,17 Oct 2021 19:29:19.864,17 Oct 2021 19:37:14.918,475.054
349,17 Oct 2021 21:05:34.681,17 Oct 2021 21:13:51.481,496.800
350,18 Oct 2021 08:50:16.069,18 Oct 2021 08:58:15.024,478.955
351,18 Oct 2021 10:26:41.200,18 Oct 2021 10:34:52.918,491.718
352,18 Oct 2021 19:52:09.669,18 Oct 2021 20:00:53.599,523.930
353,18 Oct 2021 21:29:54.727,18 Oct 2021 21:36:43.326,408.599
354,19 Oct 2021 09:13:22.643,19 Oct 2021 09:22:11.071,528.427
355,19 Oct 2021 10:50:29.402,19 Oct 2021 10:57:24.357,414.954
356,19 Oct 2021 18:41:22.170,19 Oct 2021 18:46:35.948,313.777
357,19 Oct 2021 20:15:22.033,19 Oct 2021 20:24:21.789,539.756
358,19 Oct 2021 21:55:17.625,19 Oct 2021 21:58:45.618,207.993
359,20 Oct 2021 08:01:53.246,20 Oct 2021 08:06:20.282,267.036
360,20 Oct 2021 09:36:42.408,20 Oct 2021 09:45:41.597,539.190
361,20 Oct 2021 11:14:40.786,20 Oct 2021 11:19:20.461,279.675
362,20 Oct 2021 19:03:27.201,20 Oct 2021 19:10:40.809,433.608
363,20 Oct 2021 20:38:57.236,20 Oct 2021 20:47:39.283,522.047
364,21 Oct 2021 08:24:12.317,21 Oct 2021 08:31:23.707,431.391
365,21 Oct 2021 10:00:12.590,21 Oct 2021 10:08:49.579,516.989
366,21 Oct 2021 19:26:03.909,21 Oct 2021 19:34:26.137,502.228
367,21 Oct 2021 21:02:59.108,21 Oct 2021 21:10:42.509,463.401
368,22 Oct 2021 08:47:08.885,22 Oct 2021 08:55:36.493,507.609
369,22 Oct 2021 10:23:53.589,22 Oct 2021 10:31:34.674,461.085
370,22 Oct 2021 18:16:07.907,22 Oct 2021 18:19:33.375,205.468
371,22 Oct 2021 19:49:04.415,22 Oct 2021 19:57:59.757,535.341
372,22 Oct 2021 21:27:40.413,22 Oct 2021 21:33:19.205,338.792
373,23 Oct 2021 09:10:22.224,23 Oct 2021 09:19:19.971,537.747
374,23 Oct 2021 10:47:50.160,23 Oct 2021 10:53:52.069,361.909
375,23 Oct 2021 18:37:43.159,23 Oct 2021 18:44:01.519,378.360
376,23 Oct 2021 20:12:27.242,23 Oct 2021 20:21:23.146,535.904
377,24 Oct 2021 07:58:17.961,24 Oct 2021 08:04:19.271,361.310
378,24 Oct 2021 09:33:46.988,24 Oct 2021 09:42:39.813,532.825
379,24 Oct 2021 11:12:29.149,24 Oct 2021 11:15:14.872,165.723
380,24 Oct 2021 19:00:04.821,24 Oct 2021 19:07:55.438,470.617
381,24 Oct 2021 20:36:14.135,24 Oct 2021 20:44:34.703,500.568
382,25 Oct 2021 08:20:59.710,25 Oct 2021 08:28:53.781,474.070
383,25 Oct 2021 09:57:21.993,25 Oct 2021 10:05:37.334,495.341
384,25 Oct 2021 19:22:53.084,25 Oct 2021 19:31:34.869,521.785
385,25 Oct 2021 21:00:31.701,25 Oct 2021 21:07:28.186,416.486
386,26 Oct 2021 08:44:05.220,26 Oct 2021 08:52:51.708,526.488
387,26 Oct 2021 10:21:09.218,26 Oct 2021 10:28:10.545,421.328
388,26 Oct 2021 18:12:10.859,26 Oct 2021 18:17:13.950,303.091
389,26 Oct 2021 19:46:04.006,26 Oct 2021 19:55:03.717,539.711
390,26 Oct 2021 21:25:47.293,26 Oct 2021 21:29:36.892,229.599
391,27 Oct 2021 07:32:42.534,27 Oct 2021 07:36:52.054,249.520
392,27 Oct 2021 09:07:24.247,27 Oct 2021 09:16:23.764,539.518
393,27 Oct 2021 10:45:18.269,27 Oct 2021 10:50:09.774,291.506
394,27 Oct 2021 18:34:13.115,27 Oct 2021 18:41:20.788,427.673
395,27 Oct 2021 20:09:37.652,27 Oct 2021 20:18:21.971,524.319
396,28 Oct 2021 07:54:56.867,28 Oct 2021 08:02:01.100,424.233
397,28 Oct 2021 09:30:53.770,28 Oct 2021 09:39:33.189,519.419
398,28 Oct 2021 18:56:48.120,28 Oct 2021 19:05:07.036,498.916
399,28 Oct 2021 20:33:37.561,28 Oct 2021 20:41:26.342,468.781
400,29 Oct 2021 08:17:51.957,29 Oct 2021 08:26:16.204,504.247
401,29 Oct 2021 09:54:33.989,29 Oct 2021 10:02:19.856,465.867
402,29 Oct 2021 17:47:00.668,29 Oct 2021 17:50:07.727,187.059
403,29 Oct 2021 19:19:47.160,29 Oct 2021 19:28:41.330,534.170
404,29 Oct 2021 20:58:15.424,29 Oct 2021 21:04:05.619,350.195
405,30 Oct 2021 08:41:04.432,30 Oct 2021 08:50:01.350,536.918
406,30 Oct 2021 10:18:29.219,30 Oct 2021 10:24:39.382,370.162
407,30 Oct 2021 18:08:30.287,30 Oct 2021 18:14:40.712,370.425
408,30 Oct 2021 19:43:08.516,30 Oct 2021 19:52:05.404,536.888
409,31 Oct 2021 07:29:04.082,31 Oct 2021 07:34:54.630,350.548
410,31 Oct 2021 09:04:28.520,31 Oct 2021 09:13:22.651,534.130
411,31 Oct 2021 10:43:02.372,31 Oct 2021 10:46:08.814,186.442
412,31 Oct 2021 18:30:49.885,31 Oct 2021 18:38:35.902,466.017
413,31 Oct 2021 20:06:53.715,31 Oct 2021 20:15:17.850,504.134
414,1 Nov 2021 07:51:43.441,1 Nov 2021 07:59:32.391,468.950
415,1 Nov 2021 09:28:02.839,1 Nov 2021 09:36:21.646,498.807
416,1 Nov 2021 18:53:36.602,1 Nov 2021 19:02:16.092,519.490
417,1 Nov 2021 20:31:08.888,1 Nov 2021 20:38:12.886,423.998
418,2 Nov 2021 08:14:47.849,2 Nov 2021 08:23:32.237,524.388
419,2 Nov 2021 09:51:49.118,2 Nov 2021 09:58:56.595,427.477
420,2 Nov 2021 17:42:59.838,2 Nov 2021 17:47:51.713,291.875
421,2 Nov 2021 19:16:46.075,2 Nov 2021 19:25:45.602,539.526
422,2 Nov 2021 20:56:18.126,2 Nov 2021 21:00:27.058,248.932
423,3 Nov 2021 07:03:32.673,3 Nov 2021 07:07:22.921,230.248
424,3 Nov 2021 08:38:06.130,3 Nov 2021 08:47:05.837,539.707
425,3 Nov 2021 10:15:56.022,3 Nov 2021 10:20:58.765,302.742
426,3 Nov 2021 18:04:59.163,3 Nov 2021 18:12:00.691,421.528
427,3 Nov 2021 19:40:18.178,3 Nov 2021 19:49:04.602,526.424
428,4 Nov 2021 07:25:41.565,4 Nov 2021 07:32:38.297,416.732
429,4 Nov 2021 09:01:34.995,4 Nov 2021 09:10:16.709,521.714
430,4 Nov 2021 18:27:32.431,4 Nov 2021 18:35:47.884,495.453
431,4 Nov 2021 20:04:16.168,4 Nov 2021 20:12:10.078,473.910
432,5 Nov 2021 07:48:35.102,5 Nov 2021 07:56:55.787,500.685
433,5 Nov 2021 09:25:14.450,5 Nov 2021 09:33:04.923,470.474
434,5 Nov 2021 17:17:54.568,5 Nov 2021 17:20:40.994,166.426
435,5 Nov 2021 18:50:29.999,5 Nov 2021 18:59:22.868,532.869
436,5 Nov 2021 20:28:50.776,5 Nov 2021 20:34:51.752,360.976
437,6 Nov 2021 08:11:46.685,6 Nov 2021 08:20:42.626,535.941
438,6 Nov 2021 09:49:08.407,6 Nov 2021 09:55:26.517,378.110
439,6 Nov 2021 17:39:17.594,6 Nov 2021 17:45:19.770,362.176
440,6 Nov 2021 19:13:49.889,6 Nov 2021 19:22:47.615,537.727
441,7 Nov 2021 06:59:50.484,7 Nov 2021 07:05:29.657,339.173
442,7 Nov 2021 08:35:10.101,7 Nov 2021 08:44:05.401,535.301
443,7 Nov 2021 10:13:36.699,7 Nov 2021 10:17:01.601,204.902
444,7 Nov 2021 18:01:35.062,7 Nov 2021 18:09:16.303,461.241
445,7 Nov 2021 19:37:33.414,7 Nov 2021 19:46:00.923,507.509
446,8 Nov 2021 07:22:27.269,8 Nov 2021 07:30:10.848,463.579
447,8 Nov 2021 08:58:43.735,8 Nov 2021 09:07:05.860,502.126
448,8 Nov 2021 18:24:20.208,8 Nov 2021 18:32:57.276,517.068
449,8 Nov 2021 20:01:46.274,8 Nov 2021 20:08:57.444,431.170
450,9 Nov 2021 07:45:30.533,9 Nov 2021 07:54:12.658,522.125
451,9 Nov 2021 09:22:29.095,9 Nov 2021 09:29:42.514,433.420
452,9 Nov 2021 17:13:49.142,9 Nov 2021 17:18:29.200,280.058
453,9 Nov 2021 18:47:28.234,9 Nov 2021 18:56:27.441,539.207
454,9 Nov 2021 20:26:49.870,9 Nov 2021 20:31:16.375,266.504
455,10 Nov 2021 06:34:23.899,10 Nov 2021 06:37:52.636,208.736
456,10 Nov 2021 08:08:48.056,10 Nov 2021 08:17:47.813,539.757
457,10 Nov 2021 09:46:34.018,10 Nov 2021 09:51:47.458,313.439
458,10 Nov 2021 17:35:45.345,10 Nov 2021 17:42:40.505,415.160
459,10 Nov 2021 19:10:58.810,10 Nov 2021 19:19:47.174,528.364
460,11 Nov 2021 06:56:26.415,11 Nov 2021 07:03:15.277,408.861
461,11 Nov 2021 08:32:16.262,11 Nov 2021 08:41:00.129,523.867
462,11 Nov 2021 17:58:16.846,11 Nov 2021 18:06:28.681,491.835
463,11 Nov 2021 19:34:54.916,11 Nov 2021 19:42:53.719,478.804
464,12 Nov 2021 07:19:18.318,12 Nov 2021 07:27:35.243,496.925
465,12 Nov 2021 08:55:54.969,12 Nov 2021 09:03:49.880,474.911
466,12 Nov 2021 16:48:50.085,12 Nov 2021 16:51:12.688,142.602
467,12 Nov 2021 18:21:12.933,12 Nov 2021 18:30:04.355,531.422
468,12 Nov 2021 19:59:26.440,12 Nov 2021 20:05:37.625,371.184
469,13 Nov 2021 07:42:28.993,13 Nov 2021 07:51:23.799,534.806
470,13 Nov 2021 09:19:47.710,13 Nov 2021 09:26:13.479,385.769
471,13 Nov 2021 17:10:05.087,13 Nov 2021 17:15:58.701,353.614
472,13 Nov 2021 18:44:31.360,13 Nov 2021 18:53:29.775,538.416
473,13 Nov 2021 20:25:56.321,13 Nov 2021 20:26:36.716,40.396
474,14 Nov 2021 06:30:37.202,14 Nov 2021 06:36:04.303,327.101
475,14 Nov 2021 08:05:51.713,14 Nov 2021 08:14:48.056,536.343
476,14 Nov 2021 09:44:11.842,14 Nov 2021 09:47:53.517,221.675
477,14 Nov 2021 17:32:20.353,14 Nov 2021 17:39:56.643,456.290
478,14 Nov 2021 19:08:13.238,14 Nov 2021 19:16:43.931,510.693
479,15 Nov 2021 06:53:11.200,15 Nov 2021 07:00:49.153,457.953
480,15 Nov 2021 08:29:24.677,15 Nov 2021 08:37:49.975,505.298
481,15 Nov 2021 17:55:03.915,15 Nov 2021 18:03:38.414,514.499
482,15 Nov 2021 19:32:23.851,15 Nov 2021 19:39:41.867,438.016
483,16 Nov 2021 07:16:13.278,16 Nov 2021 07:24:52.966,519.688
484,16 Nov 2021 08:53:09.147,16 Nov 2021 09:00:28.309,439.162
485,16 Nov 2021 16:44:38.803,16 Nov 2021 16:49:06.382,267.579
486,16 Nov 2021 18:18:10.497,16 Nov 2021 18:27:09.238,538.740
487,16 Nov 2021 19:57:22.366,16 Nov 2021 20:02:05.000,282.634
488,17 Nov 2021 06:05:16.612,17 Nov 2021 06:08:20.803,184.191
489,17 Nov 2021 07:39:30.028,17 Nov 2021 07:48:29.694,539.666
490,17 Nov 2021 09:17:12.231,17 Nov 2021 09:22:35.885,323.654
491,17 Nov 2021 17:06:31.668,17 Nov 2021 17:13:20.236,408.568
492,17 Nov 2021 18:41:39.551,17 Nov 2021 18:50:29.698,530.147
493,18 Nov 2021 06:27:11.432,18 Nov 2021 06:33:52.039,400.607
494,18 Nov 2021 08:02:57.574,18 Nov 2021 08:11:43.454,525.880
495,18 Nov 2021 17:29:01.362,18 Nov 2021 17:37:09.427,488.066
496,18 Nov 2021 19:05:33.812,18 Nov 2021 19:13:37.272,483.460
497,19 Nov 2021 06:50:01.607,19 Nov 2021 06:58:14.574,492.967
498,19 Nov 2021 08:26:35.545,19 Nov 2021 08:34:34.732,479.187
499,19 Nov 2021 16:19:48.214,19 Nov 2021 16:21:41.826,113.612
500,19 Nov 2021 17:51:55.961,19 Nov 2021 18:00:45.807,529.846
501,19 Nov 2021 19:30:02.395,19 Nov 2021 19:36:23.267,380.872
502,20 Nov 2021 07:13:11.346,20 Nov 2021 07:22:04.875,533.529
503,20 Nov 2021 08:50:27.127,20 Nov 2021 08:57:00.283,393.156
504,20 Nov 2021 16:40:52.782,20 Nov 2021 16:46:37.478,344.696
505,20 Nov 2021 18:15:12.925,20 Nov 2021 18:24:11.892,538.968
506,20 Nov 2021 19:56:02.272,20 Nov 2021 19:57:51.449,109.178
507,21 Nov 2021 06:01:24.275,21 Nov 2021 06:06:38.538,314.264
508,21 Nov 2021 07:36:33.373,21 Nov 2021 07:45:30.612,537.239
509,21 Nov 2021 09:14:47.634,21 Nov 2021 09:18:44.740,237.106
510,21 Nov 2021 17:03:05.760,21 Nov 2021 17:10:36.917,451.157
511,21 Nov 2021 18:38:53.180,21 Nov 2021 18:47:26.877,513.697
512,22 Nov 2021 06:23:55.236,22 Nov 2021 06:31:27.292,452.056
513,22 Nov 2021 08:00:05.668,22 Nov 2021 08:08:33.992,508.325
514,22 Nov 2021 17:25:47.716,22 Nov 2021 17:34:19.502,511.786
515,22 Nov 2021 19:03:01.611,22 Nov 2021 19:10:26.162,444.550
516,23 Nov 2021 06:46:56.081,23 Nov 2021 06:55:33.166,517.084
517,23 Nov 2021 08:23:49.272,23 Nov 2021 08:31:13.979,444.706
518,23 Nov 2021 16:15:28.878,23 Nov 2021 16:19:43.206,254.328
519,23 Nov 2021 17:48:52.850,23 Nov 2021 17:57:50.991,538.141
520,23 Nov 2021 19:27:55.486,23 Nov 2021 19:32:53.057,297.571
521,24 Nov 2021 05:36:11.514,24 Nov 2021 05:38:46.718,155.204
522,24 Nov 2021 07:10:12.038,24 Nov 2021 07:19:11.477,539.439
523,24 Nov 2021 08:47:50.639,24 Nov 2021 08:53:24.063,333.424
524,24 Nov 2021 16:37:18.133,24 Nov 2021 16:43:59.868,401.735
525,24 Nov 2021 18:12:20.396,24 Nov 2021 18:21:12.166,531.770
526,25 Nov 2021 05:57:56.628,25 Nov 2021 06:04:28.569,391.940
527,25 Nov 2021 07:33:38.928,25 Nov 2021 07:42:26.691,527.763
528,25 Nov 2021 09:13:05.992,25 Nov 2021 09:14:07.974,61.982
529,25 Nov 2021 16:59:45.978,25 Nov 2021 17:07:50.119,484.142
530,25 Nov 2021 18:36:12.845,25 Nov 2021 18:44:20.740,487.895
531,26 Nov 2021 06:20:44.975,26 Nov 2021 06:28:53.771,488.795
532,26 Nov 2021 07:57:16.173,26 Nov 2021 08:05:19.477,483.303
533,26 Nov 2021 15:50:51.882,26 Nov 2021 15:52:05.477,73.595
534,26 Nov 2021 17:22:39.080,26 Nov 2021 17:31:27.213,528.134
535,26 Nov 2021 19:00:38.619,26 Nov 2021 19:07:08.695,390.076
536,27 Nov 2021 06:43:53.756,27 Nov 2021 06:52:45.841,532.085
537,27 Nov 2021 08:21:06.645,27 Nov 2021 08:27:46.928,400.283
538,27 Nov 2021 16:11:40.685,27 Nov 2021 16:17:16.099,335.414
539,27 Nov 2021 17:45:54.596,27 Nov 2021 17:54:53.964,539.368
540,27 Nov 2021 19:26:23.064,27 Nov 2021 19:28:51.401,148.338
541,28 Nov 2021 05:32:11.754,28 Nov 2021 05:37:12.311,300.557
542,28 Nov 2021 07:07:15.078,28 Nov 2021 07:16:13.082,538.004
543,28 Nov 2021 08:45:23.940,28 Nov 2021 08:49:35.391,251.451
544,28 Nov 2021 16:33:51.282,28 Nov 2021 16:41:17.125,445.843
545,28 Nov 2021 18:09:33.239,28 Nov 2021 18:18:09.751,516.512
546,29 Nov 2021 05:54:39.384,29 Nov 2021 06:02:05.264,445.880
547,29 Nov 2021 07:30:46.705,29 Nov 2021 07:39:17.907,511.202
548,29 Nov 2021 16:56:31.612,29 Nov 2021 17:05:00.551,508.939
549,29 Nov 2021 18:33:39.551,29 Nov 2021 18:41:10.337,450.786
550,30 Nov 2021 06:17:38.947,30 Nov 2021 06:26:13.248,514.301
551,30 Nov 2021 07:54:29.467,30 Nov 2021 08:01:59.529,450.061
552,30 Nov 2021 15:46:19.420,30 Nov 2021 15:50:19.612,240.192
553,30 Nov 2021 17:19:35.296,30 Nov 2021 17:28:32.705,537.409
554,30 Nov 2021 18:58:29.153,30 Nov 2021 19:03:40.626,311.473
555,1 Dec 2021 05:07:10.241,1 Dec 2021 05:09:08.752,118.510
556,1 Dec 2021 06:40:54.099,1 Dec 2021 06:49:53.164,539.064
557,1 Dec 2021 08:18:29.224,1 Dec 2021 08:24:12.010,342.786
558,1 Dec 2021 16:08:04.750,1 Dec 2021 16:14:39.409,394.659
559,1 Dec 2021 17:43:01.345,1 Dec 2021 17:51:54.582,533.237
560,2 Dec 2021 05:28:42.012,2 Dec 2021 05:35:04.848,382.836
561,2 Dec 2021 07:04:20.326,2 Dec 2021 07:13:09.828,529.502
562,2 Dec 2021 08:43:27.388,2 Dec 2021 08:45:13.908,106.520
563,2 Dec 2021 16:30:30.701,2 Dec 2021 16:38:30.762,480.061
564,2 Dec 2021 18:06:52.017,2 Dec 2021 18:15:04.128,492.111
565,3 Dec 2021 05:51:28.426,3 Dec 2021 05:59:32.833,484.407
566,3 Dec 2021 07:27:56.858,3 Dec 2021 07:36:04.116,487.258
567,3 Dec 2021 16:53:22.289,3 Dec 2021 17:02:08.577,526.288
568,3 Dec 2021 18:31:15.096,3 Dec 2021 18:37:53.924,398.829
569,4 Dec 2021 06:14:36.209,4 Dec 2021 06:23:26.712,530.502
570,4 Dec 2021 07:51:46.264,4 Dec 2021 07:58:33.421,407.157
571,4 Dec 2021 15:42:28.817,4 Dec 2021 15:47:54.547,325.730
572,4 Dec 2021 17:16:36.355,4 Dec 2021 17:25:35.990,539.634
573,4 Dec 2021 18:56:48.351,4 Dec 2021 18:59:46.920,178.569
574,5 Dec 2021 05:02:59.700,5 Dec 2021 05:07:45.555,285.856
575,5 Dec 2021 06:37:56.820,5 Dec 2021 06:46:55.451,538.631
576,5 Dec 2021 08:16:00.683,5 Dec 2021 08:20:25.555,264.873
577,5 Dec 2021 16:04:36.927,5 Dec 2021 16:11:57.262,440.336
578,5 Dec 2021 17:40:13.412,5 Dec 2021 17:48:52.570,519.158
579,6 Dec 2021 05:25:23.651,6 Dec 2021 05:32:43.061,439.409
580,6 Dec 2021 07:01:27.787,6 Dec 2021 07:10:01.728,513.941
581,6 Dec 2021 16:27:15.607,6 Dec 2021 16:35:41.546,505.939
582,6 Dec 2021 18:04:17.655,6 Dec 2021 18:11:54.399,456.744
583,7 Dec 2021 05:48:21.874,7 Dec 2021 05:56:53.215,511.340
584,7 Dec 2021 07:25:09.725,7 Dec 2021 07:32:44.957,455.232
585,7 Dec 2021 15:17:10.514,7 Dec 2021 15:20:55.512,224.998
586,7 Dec 2021 16:50:17.836,7 Dec 2021 16:59:14.368,536.532
587,7 Dec 2021 18:29:03.293,7 Dec 2021 18:34:27.781,324.487
588,8 Dec 2021 04:38:19.015,8 Dec 2021 04:39:20.670,61.655
589,8 Dec 2021 06:11:36.205,8 Dec 2021 06:20:34.751,538.546
590,8 Dec 2021 07:49:07.971,8 Dec 2021 07:54:59.747,351.775
591,8 Dec 2021 15:38:51.513,8 Dec 2021 15:45:18.849,387.337
592,8 Dec 2021 17:13:42.396,8 Dec 2021 17:22:36.949,534.553
593,9 Dec 2021 04:59:27.606,9 Dec 2021 05:05:40.859,373.252
594,9 Dec 2021 06:35:01.764,9 Dec 2021 06:43:52.871,531.106
595,9 Dec 2021 08:13:55.756,9 Dec 2021 08:16:12.816,137.060
596,9 Dec 2021 16:01:15.528,9 Dec 2021 16:09:11.346,475.818
597,9 Dec 2021 17:37:31.317,9 Dec 2021 17:45:47.432,496.115
598,10 Dec 2021 05:22:11.959,10 Dec 2021 05:30:11.757,479.797
599,10 Dec 2021 06:58:37.592,10 Dec 2021 07:06:48.651,491.059
600,10 Dec 2021 16:24:05.600,10 Dec 2021 16:32:49.895,524.295
601,10 Dec 2021 18:01:51.810,10 Dec 2021 18:08:38.979,407.169
602,11 Dec 2021 05:45:18.719,11 Dec 2021 05:54:07.473,528.755
603,11 Dec 2021 07:22:25.972,11 Dec 2021 07:29:19.771,413.798
604,11 Dec 2021 15:13:17.189,11 Dec 2021 15:18:32.802,315.613
605,11 Dec 2021 16:47:18.215,11 Dec 2021 16:56:17.969,539.754
606,11 Dec 2021 18:27:16.123,11 Dec 2021 18:30:40.012,203.889
607,12 Dec 2021 04:33:48.202,12 Dec 2021 04:38:18.187,269.985
608,12 Dec 2021 06:08:38.613,12 Dec 2021 06:17:37.730,539.117
609,12 Dec 2021 07:46:37.793,12 Dec 2021 07:51:15.299,277.505
610,12 Dec 2021 15:35:22.693,12 Dec 2021 15:42:37.330,434.636
611,12 Dec 2021 17:10:53.700,12 Dec 2021 17:19:35.328,521.628
612,13 Dec 2021 04:56:08.048,13 Dec 2021 05:03:20.676,432.628
613,13 Dec 2021 06:32:08.912,13 Dec 2021 06:40:45.455,516.543
614,13 Dec 2021 15:57:59.700,13 Dec 2021 16:06:22.500,502.800
615,13 Dec 2021 17:34:55.924,13 Dec 2021 17:42:38.347,462.424
616,14 Dec 2021 05:19:04.873,14 Dec 2021 05:27:33.060,508.187
617,14 Dec 2021 06:55:50.052,14 Dec 2021 07:03:30.273,460.221
618,14 Dec 2021 14:48:02.273,14 Dec 2021 14:51:30.807,208.533
619,14 Dec 2021 16:21:00.470,14 Dec 2021 16:29:56.000,535.529
620,14 Dec 2021 17:59:37.860,14 Dec 2021 18:05:14.570,336.710
621,15 Dec 2021 05:42:18.359,15 Dec 2021 05:51:16.244,537.885
622,15 Dec 2021 07:19:46.869,15 Dec 2021 07:25:47.284,360.416
623,15 Dec 2021 15:09:38.444,15 Dec 2021 15:15:58.178,379.734
624,15 Dec 2021 16:44:23.553,15 Dec 2021 16:53:19.264,535.711
625,16 Dec 2021 04:30:13.429,16 Dec 2021 04:36:16.587,363.158
626,16 Dec 2021 06:05:43.248,16 Dec 2021 06:14:35.826,532.578
627,16 Dec 2021 07:44:27.028,16 Dec 2021 07:47:08.773,161.745
628,16 Dec 2021 15:32:00.462,16 Dec 2021 15:39:51.876,471.414
629,16 Dec 2021 17:08:10.748,16 Dec 2021 17:16:30.663,499.915
630,17 Dec 2021 04:52:55.585,17 Dec 2021 05:00:50.539,474.954
631,17 Dec 2021 06:29:18.376,17 Dec 2021 06:37:33.085,494.710
632,17 Dec 2021 15:54:49.002,17 Dec 2021 16:03:31.173,522.171
633,17 Dec 2021 17:32:28.746,17 Dec 2021 17:39:23.865,415.120
634,18 Dec 2021 05:16:01.285,18 Dec 2021 05:24:48.129,526.843
635,18 Dec 2021 06:53:05.772,18 Dec 2021 07:00:05.984,420.213
636,18 Dec 2021 14:44:05.828,18 Dec 2021 14:49:10.844,305.016
637,18 Dec 2021 16:18:00.176,18 Dec 2021 16:26:59.905,539.729
638,18 Dec 2021 17:57:45.552,18 Dec 2021 18:01:31.516,225.963
639,19 Dec 2021 04:04:37.355,19 Dec 2021 04:08:50.101,252.746
640,19 Dec 2021 05:39:20.439,19 Dec 2021 05:48:19.914,539.474
641,19 Dec 2021 07:17:15.223,19 Dec 2021 07:22:04.674,289.451
642,19 Dec 2021 15:06:08.588,19 Dec 2021 15:13:17.323,428.735
643,19 Dec 2021 16:41:34.096,19 Dec 2021 16:50:18.025,523.930
644,20 Dec 2021 04:26:52.575,20 Dec 2021 04:33:58.104,425.528
645,20 Dec 2021 06:02:50.087,20 Dec 2021 06:11:29.081,518.994
646,20 Dec 2021 15:28:43.893,20 Dec 2021 15:37:03.406,499.513
647,20 Dec 2021 17:05:34.349,20 Dec 2021 17:13:22.197,467.849
648,21 Dec 2021 04:49:47.934,21 Dec 2021 04:58:12.791,504.857
649,21 Dec 2021 06:26:30.440,21 Dec 2021 06:34:15.472,465.032
650,21 Dec 2021 14:18:54.864,21 Dec 2021 14:22:05.317,190.453
651,21 Dec 2021 15:51:43.197,21 Dec 2021 16:00:37.582,534.385
652,21 Dec 2021 17:30:12.805,21 Dec 2021 17:36:01.032,348.227
653,22 Dec 2021 05:13:00.563,22 Dec 2021 05:21:57.639,537.076
654,22 Dec 2021 06:50:25.904,22 Dec 2021 06:56:34.628,368.725
655,22 Dec 2021 14:40:25.539,22 Dec 2021 14:46:37.388,371.849
656,22 Dec 2021 16:15:04.804,22 Dec 2021 16:24:01.533,536.730
657,23 Dec 2021 04:00:59.501,23 Dec 2021 04:06:52.005,352.504
658,23 Dec 2021 05:36:24.771,23 Dec 2021 05:45:18.681,533.910
659,23 Dec 2021 07:15:00.011,23 Dec 2021 07:18:02.959,182.948
660,23 Dec 2021 15:02:45.506,23 Dec 2021 15:10:32.348,466.842
661,23 Dec 2021 16:38:50.305,23 Dec 2021 16:47:13.823,503.518
662,24 Dec 2021 04:23:39.298,24 Dec 2021 04:31:29.172,469.875
663,24 Dec 2021 05:59:59.211,24 Dec 2021 06:08:17.413,498.202
664,24 Dec 2021 15:25:32.494,24 Dec 2021 15:34:12.404,519.910
665,24 Dec 2021 17:03:05.898,24 Dec 2021 17:10:08.590,422.691
666,25 Dec 2021 04:46:43.904,25 Dec 2021 04:55:28.676,524.773
667,25 Dec 2021 06:23:45.656,25 Dec 2021 06:30:52.057,426.401
668,25 Dec 2021 14:14:54.752,25 Dec 2021 14:19:48.651,293.899
669,25 Dec 2021 15:48:42.227,25 Dec 2021 15:57:41.796,539.569
670,25 Dec 2021 17:28:16.200,25 Dec 2021 17:32:21.852,245.651
671,26 Dec 2021 03:35:27.329,26 Dec 2021 03:39:21.140,233.811
672,26 Dec 2021 05:10:02.314,26 Dec 2021 05:19:02.002,539.688
673,26 Dec 2021 06:47:52.928,26 Dec 2021 06:52:53.719,300.791
674,26 Dec 2021 14:36:54.608,26 Dec 2021 14:43:57.238,422.630
675,26 Dec 2021 16:12:14.602,26 Dec 2021 16:21:00.662,526.060
676,27 Dec 2021 03:57:37.247,27 Dec 2021 04:04:35.333,418.087
677,27 Dec 2021 05:33:31.300,27 Dec 2021 05:42:12.617,521.317
678,27 Dec 2021 14:59:28.185,27 Dec 2021 15:07:44.262,496.077
679,27 Dec 2021 16:36:12.928,27 Dec 2021 16:44:05.948,473.020
680,28 Dec 2021 04:20:31.065,28 Dec 2021 04:28:52.395,501.330
681,28 Dec 2021 05:57:10.889,28 Dec 2021 06:05:00.558,469.669
682,28 Dec 2021 13:49:48.532,28 Dec 2021 13:52:38.806,170.275
683,28 Dec 2021 15:22:26.019,28 Dec 2021 15:31:19.122,533.103
684,28 Dec 2021 17:00:48.100,28 Dec 2021 17:06:47.211,359.111
685,29 Dec 2021 04:43:42.807,29 Dec 2021 04:52:38.933,536.126
686,29 Dec 2021 06:21:05.067,29 Dec 2021 06:27:21.790,376.723
687,29 Dec 2021 14:11:12.812,29 Dec 2021 14:17:16.475,363.663
688,29 Dec 2021 15:45:46.162,29 Dec 2021 15:54:43.749,537.587
689,30 Dec 2021 03:31:45.853,30 Dec 2021 03:37:27.090,341.237
690,30 Dec 2021 05:07:06.339,30 Dec 2021 05:16:01.448,535.108
691,30 Dec 2021 06:45:34.164,30 Dec 2021 06:48:55.930,201.766
692,30 Dec 2021 14:33:30.663,30 Dec 2021 14:41:12.762,462.100
693,30 Dec 2021 16:09:29.987,30 Dec 2021 16:17:56.910,506.923
694,31 Dec 2021 03:54:23.109,31 Dec 2021 04:02:07.661,464.552
695,31 Dec 2021 05:30:40.098,31 Dec 2021 05:39:01.646,501.548
696,31 Dec 2021 14:56:16.087,31 Dec 2021 15:04:53.595,517.509
697,31 Dec 2021 16:33:43.248,31 Dec 2021 16:40:53.173,429.925
698,1 Jan 2022 04:17:26.578,1 Jan 2022 04:26:09.117,522.539
699,1 Jan 2022 05:54:25.619,1 Jan 2022 06:01:38.001,432.382
700,1 Jan 2022 13:45:43.995,1 Jan 2022 13:50:26.191,282.195
701,1 Jan 2022 15:19:24.374,1 Jan 2022 15:28:23.643,539.270
702,1 Jan 2022 16:58:47.800,1 Jan 2022 17:03:11.306,263.506
703,2 Jan 2022 03:06:18.340,2 Jan 2022 03:09:51.081,212.741
704,2 Jan 2022 04:40:44.232,2 Jan 2022 04:49:43.995,539.763
705,2 Jan 2022 06:18:30.883,2 Jan 2022 06:23:42.463,311.580
706,2 Jan 2022 14:07:40.766,2 Jan 2022 14:14:37.069,416.303
707,2 Jan 2022 15:42:55.215,2 Jan 2022 15:51:43.252,528.037
708,3 Jan 2022 03:28:22.069,3 Jan 2022 03:35:12.353,410.284
709,3 Jan 2022 05:04:12.559,3 Jan 2022 05:12:56.055,523.495
710,3 Jan 2022 14:30:12.578,3 Jan 2022 14:38:25.067,492.489
711,3 Jan 2022 16:06:51.650,3 Jan 2022 16:14:49.606,477.955
712,4 Jan 2022 03:51:14.267,4 Jan 2022 03:59:31.872,497.605
713,4 Jan 2022 05:27:51.398,4 Jan 2022 05:35:45.534,474.136
714,4 Jan 2022 13:20:43.710,4 Jan 2022 13:23:10.828,147.118
715,4 Jan 2022 14:53:08.928,4 Jan 2022 15:02:00.617,531.689
716,4 Jan 2022 16:31:23.710,4 Jan 2022 16:37:33.127,369.417
717,5 Jan 2022 04:14:25.102,5 Jan 2022 04:23:20.121,535.018
718,5 Jan 2022 05:51:44.349,5 Jan 2022 05:58:08.782,384.432
719,5 Jan 2022 13:42:00.271,5 Jan 2022 13:47:55.423,355.153
720,5 Jan 2022 15:16:27.616,5 Jan 2022 15:25:25.922,538.307
721,6 Jan 2022 03:02:32.512,6 Jan 2022 03:08:01.805,329.293
722,6 Jan 2022 04:37:47.947,6 Jan 2022 04:46:44.117,536.169
723,6 Jan 2022 06:16:09.174,6 Jan 2022 06:19:47.986,218.812
724,6 Jan 2022 14:04:15.933,6 Jan 2022 14:11:53.112,457.179
725,6 Jan 2022 15:40:09.784,6 Jan 2022 15:48:39.926,510.142
726,7 Jan 2022 03:25:07.020,7 Jan 2022 03:32:45.987,458.967
727,7 Jan 2022 05:01:21.031,7 Jan 2022 05:09:45.779,504.749
728,7 Jan 2022 14:26:59.775,7 Jan 2022 14:35:34.739,514.964
729,7 Jan 2022 16:04:20.791,7 Jan 2022 16:11:37.617,436.826
730,8 Jan 2022 03:48:09.311,8 Jan 2022 03:56:49.443,520.132
731,8 Jan 2022 05:25:05.656,8 Jan 2022 05:32:23.816,438.161
732,8 Jan 2022 13:16:33.586,8 Jan 2022 13:21:03.428,269.842
733,8 Jan 2022 14:50:06.610,8 Jan 2022 14:59:05.447,538.837
734,8 Jan 2022 16:29:20.170,8 Jan 2022 16:34:00.038,279.868
735,9 Jan 2022 02:37:10.750,9 Jan 2022 02:40:19.561,188.811
736,9 Jan 2022 04:11:26.199,9 Jan 2022 04:20:25.892,539.692
737,9 Jan 2022 05:49:09.056,9 Jan 2022 05:54:30.937,321.881
738,9 Jan 2022 13:38:27.062,9 Jan 2022 13:45:16.815,409.753
739,9 Jan 2022 15:13:35.936,9 Jan 2022 15:22:25.781,529.845
740,10 Jan 2022 02:59:07.057,10 Jan 2022 03:05:49.152,402.095
741,10 Jan 2022 04:34:53.863,10 Jan 2022 04:43:39.401,525.538
742,10 Jan 2022 14:00:57.078,10 Jan 2022 14:09:05.823,488.745
743,10 Jan 2022 15:37:30.521,10 Jan 2022 15:45:33.172,482.651
744,11 Jan 2022 03:21:57.543,11 Jan 2022 03:30:11.227,493.684
745,11 Jan 2022 04:58:31.962,11 Jan 2022 05:06:30.405,478.443
746,11 Jan 2022 12:51:41.254,11 Jan 2022 12:53:40.546,119.291
747,11 Jan 2022 14:23:51.942,11 Jan 2022 14:32:42.077,530.135
748,11 Jan 2022 16:01:59.616,11 Jan 2022 16:08:18.807,379.191
749,12 Jan 2022 03:45:07.450,12 Jan 2022 03:54:01.214,533.764
750,12 Jan 2022 05:22:23.745,12 Jan 2022 05:28:55.615,391.869
751,12 Jan 2022 13:12:47.928,12 Jan 2022 13:18:34.234,346.307
752,12 Jan 2022 14:47:09.164,12 Jan 2022 14:56:08.048,538.884
753,12 Jan 2022 16:28:03.046,12 Jan 2022 16:29:43.598,100.553
754,13 Jan 2022 02:33:19.520,13 Jan 2022 02:38:36.117,316.597
755,13 Jan 2022 04:08:29.600,13 Jan 2022 04:17:26.694,537.094
756,13 Jan 2022 05:46:44.858,13 Jan 2022 05:50:39.324,234.466
757,13 Jan 2022 13:35:01.318,13 Jan 2022 13:42:33.397,452.079
758,13 Jan 2022 15:10:49.706,13 Jan 2022 15:19:22.885,513.178
759,14 Jan 2022 02:55:51.038,14 Jan 2022 03:03:24.157,453.119
760,14 Jan 2022 04:32:02.013,14 Jan 2022 04:40:29.808,507.796
761,14 Jan 2022 13:57:43.559,14 Jan 2022 14:06:15.839,512.280
762,14 Jan 2022 15:34:58.520,14 Jan 2022 15:42:21.935,443.415
763,15 Jan 2022 03:18:52.105,15 Jan 2022 03:27:29.658,517.554
764,15 Jan 2022 04:55:45.768,15 Jan 2022 05:03:09.508,443.740
765,15 Jan 2022 12:47:23.584,15 Jan 2022 12:51:40.320,256.736
766,15 Jan 2022 14:20:48.950,15 Jan 2022 14:29:47.210,538.260
767,15 Jan 2022 15:59:53.192,15 Jan 2022 16:04:48.190,294.998
768,16 Jan 2022 02:08:05.191,16 Jan 2022 02:10:45.945,160.754
769,16 Jan 2022 03:42:08.205,16 Jan 2022 03:51:07.692,539.487
770,16 Jan 2022 05:19:47.430,16 Jan 2022 05:25:19.158,331.728
771,16 Jan 2022 13:09:13.500,16 Jan 2022 13:15:56.464,402.965
772,16 Jan 2022 14:44:16.762,16 Jan 2022 14:53:08.258,531.496
773,17 Jan 2022 02:29:52.218,17 Jan 2022 02:36:25.724,393.507
774,17 Jan 2022 04:05:35.209,17 Jan 2022 04:14:22.650,527.441
775,17 Jan 2022 05:45:07.805,17 Jan 2022 05:45:57.903,50.097
776,17 Jan 2022 13:31:41.676,17 Jan 2022 13:39:46.525,484.849
777,17 Jan 2022 15:08:09.530,17 Jan 2022 15:16:16.656,487.126
778,18 Jan 2022 02:52:40.898,18 Jan 2022 03:00:50.446,489.549
779,18 Jan 2022 04:29:12.581,18 Jan 2022 04:37:15.169,482.588
780,18 Jan 2022 12:22:43.473,18 Jan 2022 12:24:05.635,82.162
781,18 Jan 2022 13:54:35.039,18 Jan 2022 14:03:23.487,528.447
782,18 Jan 2022 15:32:35.793,18 Jan 2022 15:39:04.269,388.476
783,19 Jan 2022 03:15:49.851,19 Jan 2022 03:24:42.201,532.350
784,19 Jan 2022 04:53:03.249,19 Jan 2022 04:59:42.288,399.039
785,19 Jan 2022 12:43:35.792,19 Jan 2022 12:49:12.881,337.089
786,19 Jan 2022 14:17:50.813,19 Jan 2022 14:26:50.124,539.311
787,19 Jan 2022 15:58:22.571,19 Jan 2022 16:00:44.804,142.233
788,20 Jan 2022 02:04:06.924,20 Jan 2022 02:09:09.972,303.048
789,20 Jan 2022 03:39:11.294,20 Jan 2022 03:48:09.176,537.881
790,20 Jan 2022 05:17:21.081,20 Jan 2022 05:21:30.070,248.990
791,20 Jan 2022 13:05:46.818,20 Jan 2022 13:13:13.618,446.799
792,20 Jan 2022 14:41:29.744,20 Jan 2022 14:50:05.773,516.029
793,21 Jan 2022 02:26:35.166,21 Jan 2022 02:34:02.156,446.991
794,21 Jan 2022 04:02:43.041,21 Jan 2022 04:11:13.748,510.707
795,21 Jan 2022 13:28:27.437,21 Jan 2022 13:36:56.893,509.456
796,21 Jan 2022 15:05:36.428,21 Jan 2022 15:13:06.128,449.700
797,22 Jan 2022 02:49:34.960,22 Jan 2022 02:58:09.765,514.805
798,22 Jan 2022 04:26:25.950,22 Jan 2022 04:33:55.079,449.130
799,22 Jan 2022 12:18:14.036,22 Jan 2022 12:22:16.810,242.775
800,22 Jan 2022 13:51:31.380,22 Jan 2022 14:00:28.926,537.546
801,22 Jan 2022 15:30:26.764,22 Jan 2022 15:35:35.839,309.075
802,23 Jan 2022 01:39:03.041,23 Jan 2022 01:41:08.868,125.827
803,23 Jan 2022 03:12:50.258,23 Jan 2022 03:21:49.396,539.138
804,23 Jan 2022 04:50:25.983,23 Jan 2022 04:56:07.149,341.166
805,23 Jan 2022 12:40:00.088,23 Jan 2022 12:46:36.027,395.939
806,23 Jan 2022 14:14:57.694,23 Jan 2022 14:23:50.683,532.989
807,24 Jan 2022 02:00:37.570,24 Jan 2022 02:07:02.047,384.477
808,24 Jan 2022 03:36:16.599,24 Jan 2022 03:45:05.805,529.206
809,24 Jan 2022 05:15:26.454,24 Jan 2022 05:17:06.592,100.139
810,24 Jan 2022 13:02:26.380,24 Jan 2022 13:10:27.178,480.798
811,24 Jan 2022 14:38:48.677,24 Jan 2022 14:47:00.057,491.380
812,25 Jan 2022 02:23:24.335,25 Jan 2022 02:31:29.532,485.198
813,25 Jan 2022 03:59:53.256,25 Jan 2022 04:07:59.827,486.571
814,25 Jan 2022 13:25:18.237,25 Jan 2022 13:34:04.863,526.627
815,25 Jan 2022 15:03:12.228,25 Jan 2022 15:09:49.534,397.306
816,26 Jan 2022 02:46:32.295,26 Jan 2022 02:55:23.089,530.794
817,26 Jan 2022 04:23:42.847,26 Jan 2022 04:30:28.808,405.961
818,26 Jan 2022 12:14:23.881,26 Jan 2022 12:19:51.364,327.483
819,26 Jan 2022 13:48:32.565,26 Jan 2022 13:57:32.158,539.593
820,26 Jan 2022 15:28:47.269,26 Jan 2022 15:31:40.902,173.633
821,27 Jan 2022 01:34:54.785,27 Jan 2022 01:39:43.314,288.529
822,27 Jan 2022 03:09:53.036,27 Jan 2022 03:18:51.562,538.527
823,27 Jan 2022 04:47:57.753,27 Jan 2022 04:52:20.317,262.564
824,27 Jan 2022 12:36:32.441,27 Jan 2022 12:43:53.770,441.329
825,27 Jan 2022 14:12:09.898,27 Jan 2022 14:20:48.598,518.700
826,28 Jan 2022 01:57:19.414,28 Jan 2022 02:04:39.987,440.573
827,28 Jan 2022 03:33:24.117,28 Jan 2022 03:41:57.584,513.467
828,28 Jan 2022 12:59:11.416,28 Jan 2022 13:07:37.897,506.481
829,28 Jan 2022 14:36:14.504,28 Jan 2022 14:43:50.210,455.706
830,29 Jan 2022 02:20:17.877,29 Jan 2022 02:28:49.753,511.876
831,29 Jan 2022 03:57:06.198,29 Jan 2022 04:04:40.530,454.332
832,29 Jan 2022 11:49:05.024,29 Jan 2022 11:52:52.810,227.786
833,29 Jan 2022 13:22:13.899,29 Jan 2022 13:31:10.601,536.702
834,29 Jan 2022 15:01:00.826,29 Jan 2022 15:06:23.062,322.236
835,30 Jan 2022 01:10:08.809,30 Jan 2022 01:11:23.807,74.999
836,30 Jan 2022 02:43:32.358,30 Jan 2022 02:52:31.002,538.643
837,30 Jan 2022 04:21:04.703,30 Jan 2022 04:26:54.922,350.219
838,30 Jan 2022 12:10:46.825,30 Jan 2022 12:17:15.480,388.655
839,30 Jan 2022 13:45:38.727,30 Jan 2022 13:54:33.059,534.332
840,31 Jan 2022 01:31:23.127,31 Jan 2022 01:37:38.107,374.981
841,31 Jan 2022 03:06:58.035,31 Jan 2022 03:15:48.866,530.830
842,31 Jan 2022 04:45:54.060,31 Jan 2022 04:48:06.274,132.214
843,31 Jan 2022 12:33:11.188,31 Jan 2022 12:41:07.772,476.583
844,31 Jan 2022 14:09:27.957,31 Jan 2022 14:17:43.376,495.419
845,1 Feb 2022 01:54:07.853,1 Feb 2022 02:02:08.478,480.625
846,1 Feb 2022 03:30:33.981,1 Feb 2022 03:38:44.381,490.400
847,1 Feb 2022 12:56:01.531,1 Feb 2022 13:04:46.190,524.659
848,1 Feb 2022 14:33:48.901,1 Feb 2022 14:40:34.618,405.717
849,2 Feb 2022 02:17:14.796,2 Feb 2022 02:26:03.870,529.074
850,2 Feb 2022 03:54:22.539,2 Feb 2022 04:01:15.185,412.647
851,2 Feb 2022 11:45:12.208,2 Feb 2022 11:50:29.651,317.443
852,2 Feb 2022 13:19:14.403,2 Feb 2022 13:28:14.146,539.743
853,2 Feb 2022 14:59:14.682,2 Feb 2022 15:02:34.347,199.665
854,3 Feb 2022 01:05:43.180,3 Feb 2022 01:10:16.059,272.880
855,3 Feb 2022 02:40:34.812,3 Feb 2022 02:49:33.857,539.045
856,3 Feb 2022 04:18:34.799,3 Feb 2022 04:23:10.130,275.331
857,3 Feb 2022 12:07:18.185,3 Feb 2022 12:14:33.850,435.665
858,3 Feb 2022 13:42:50.166,3 Feb 2022 13:51:31.366,521.200
859,4 Feb 2022 01:28:03.787,4 Feb 2022 01:35:17.634,433.847
860,4 Feb 2022 03:04:05.233,4 Feb 2022 03:12:41.329,516.096
861,4 Feb 2022 12:29:55.492,4 Feb 2022 12:38:18.861,503.370
862,4 Feb 2022 14:06:52.744,4 Feb 2022 14:14:34.180,461.436
863,5 Feb 2022 01:51:00.864,5 Feb 2022 01:59:29.622,508.758
864,5 Feb 2022 03:27:46.511,5 Feb 2022 03:35:25.867,459.355
865,5 Feb 2022 11:19:56.652,5 Feb 2022 11:23:28.224,211.572
866,5 Feb 2022 12:52:56.521,5 Feb 2022 13:01:52.236,535.715
867,5 Feb 2022 14:31:35.321,5 Feb 2022 14:37:09.906,334.585
868,6 Feb 2022 02:14:14.504,6 Feb 2022 02:23:12.514,538.011
869,6 Feb 2022 03:51:43.573,6 Feb 2022 03:57:42.490,358.917
870,6 Feb 2022 11:41:33.724,6 Feb 2022 11:47:54.829,381.105
871,6 Feb 2022 13:16:19.863,6 Feb 2022 13:25:15.385,535.521
872,7 Feb 2022 01:02:08.910,7 Feb 2022 01:08:13.886,364.976
873,7 Feb 2022 02:37:39.506,7 Feb 2022 02:46:31.836,532.330
874,7 Feb 2022 04:16:24.934,7 Feb 2022 04:19:02.636,157.701
875,7 Feb 2022 12:03:56.103,7 Feb 2022 12:11:48.313,472.210
876,7 Feb 2022 13:40:07.366,7 Feb 2022 13:48:26.622,499.256
877,8 Feb 2022 01:24:51.465,8 Feb 2022 01:32:47.288,475.824
878,8 Feb 2022 03:01:14.756,8 Feb 2022 03:09:28.833,494.078
879,8 Feb 2022 12:26:44.917,8 Feb 2022 12:35:27.474,522.557
880,8 Feb 2022 14:04:25.800,8 Feb 2022 14:11:19.533,413.733
881,9 Feb 2022 01:47:57.353,9 Feb 2022 01:56:44.546,527.193
882,9 Feb 2022 03:25:02.323,9 Feb 2022 03:32:01.423,419.100
883,9 Feb 2022 11:16:00.798,9 Feb 2022 11:21:07.739,306.941
884,9 Feb 2022 12:49:56.348,9 Feb 2022 12:58:56.091,539.743
885,9 Feb 2022 14:29:43.859,9 Feb 2022 14:33:26.088,222.229
886,10 Feb 2022 00:36:32.213,10 Feb 2022 00:40:48.111,255.898
887,10 Feb 2022 02:11:16.637,10 Feb 2022 02:20:16.059,539.422
888,10 Feb 2022 03:49:12.175,10 Feb 2022 03:53:59.570,287.395
889,10 Feb 2022 11:38:04.058,10 Feb 2022 11:45:13.857,429.799
890,10 Feb 2022 13:13:30.544,10 Feb 2022 13:22:14.075,523.532
891,11 Feb 2022 00:58:48.294,11 Feb 2022 01:05:55.095,426.801
892,11 Feb 2022 02:34:46.398,11 Feb 2022 02:43:24.971,518.574
893,11 Feb 2022 12:00:39.667,11 Feb 2022 12:08:59.774,500.106
894,11 Feb 2022 13:37:31.143,11 Feb 2022 13:45:18.045,466.902
895,12 Feb 2022 01:21:43.914,12 Feb 2022 01:30:09.372,505.458
896,12 Feb 2022 02:58:26.890,12 Feb 2022 03:06:11.087,464.197
897,12 Feb 2022 10:50:49.080,12 Feb 2022 10:54:02.892,193.812
898,12 Feb 2022 12:23:39.228,12 Feb 2022 12:32:33.831,534.603
899,12 Feb 2022 14:02:10.204,12 Feb 2022 14:07:56.430,346.227
900,13 Feb 2022 01:44:56.691,13 Feb 2022 01:53:53.925,537.234
901,13 Feb 2022 03:22:22.586,13 Feb 2022 03:28:29.866,367.280
902,13 Feb 2022 11:12:20.791,13 Feb 2022 11:18:34.063,373.272
903,13 Feb 2022 12:47:01.100,13 Feb 2022 12:55:57.658,536.557
904,14 Feb 2022 00:32:54.938,14 Feb 2022 00:38:49.362,354.424
905,14 Feb 2022 02:08:21.023,14 Feb 2022 02:17:14.709,533.686
906,14 Feb 2022 03:46:57.669,14 Feb 2022 03:49:57.083,179.414
907,14 Feb 2022 11:34:41.128,14 Feb 2022 11:42:28.796,467.668
908,14 Feb 2022 13:10:46.901,14 Feb 2022 13:19:09.792,502.890
909,15 Feb 2022 00:55:35.162,15 Feb 2022 01:03:25.949,470.788
910,15 Feb 2022 02:31:55.584,15 Feb 2022 02:40:13.182,497.598
911,15 Feb 2022 11:57:28.392,15 Feb 2022 12:06:08.716,520.323
912,15 Feb 2022 13:35:02.913,15 Feb 2022 13:42:04.285,421.372
913,16 Feb 2022 01:18:39.963,16 Feb 2022 01:27:25.113,525.150
914,16 Feb 2022 02:55:42.194,16 Feb 2022 03:02:47.520,425.327
915,16 Feb 2022 10:46:49.668,16 Feb 2022 10:51:45.590,295.922
916,16 Feb 2022 12:20:38.378,16 Feb 2022 12:29:37.990,539.612
917,16 Feb 2022 14:00:14.314,16 Feb 2022 14:04:16.610,242.296
918,17 Feb 2022 00:07:22.030,17 Feb 2022 00:11:19.318,237.288
919,17 Feb 2022 01:41:58.504,17 Feb 2022 01:50:58.165,539.661
920,17 Feb 2022 03:19:49.834,17 Feb 2022 03:24:48.671,298.837
921,17 Feb 2022 11:08:50.054,17 Feb 2022 11:15:53.787,423.733
922,17 Feb 2022 12:44:11.031,17 Feb 2022 12:52:56.727,525.696
923,18 Feb 2022 00:29:32.939,18 Feb 2022 00:36:32.361,419.423
924,18 Feb 2022 02:05:27.606,18 Feb 2022 02:14:08.524,520.919
925,18 Feb 2022 11:31:23.942,18 Feb 2022 11:39:40.641,496.699
926,18 Feb 2022 13:08:09.697,18 Feb 2022 13:16:01.813,472.117
927,19 Feb 2022 00:52:27.033,19 Feb 2022 01:00:48.999,501.966
928,19 Feb 2022 02:29:07.328,19 Feb 2022 02:36:56.193,468.864
929,19 Feb 2022 10:21:42.528,19 Feb 2022 10:24:36.589,174.061
930,19 Feb 2022 11:54:22.038,19 Feb 2022 12:03:15.379,533.341
931,19 Feb 2022 13:32:45.440,19 Feb 2022 13:38:42.657,357.217
932,20 Feb 2022 01:15:38.935,20 Feb 2022 01:24:35.234,536.299
933,20 Feb 2022 02:53:01.732,20 Feb 2022 02:59:17.064,375.332
934,20 Feb 2022 10:43:08.032,20 Feb 2022 10:49:13.178,365.146
935,20 Feb 2022 12:17:42.443,20 Feb 2022 12:26:39.885,537.442
936,21 Feb 2022 00:03:41.240,21 Feb 2022 00:09:24.506,343.267
937,21 Feb 2022 01:39:02.584,21 Feb 2022 01:47:57.492,534.907
938,21 Feb 2022 03:17:31.643,21 Feb 2022 03:20:50.244,198.601
939,21 Feb 2022 11:05:26.265,21 Feb 2022 11:13:09.223,462.958
940,21 Feb 2022 12:41:26.562,21 Feb 2022 12:49:52.893,506.331
941,22 Feb 2022 00:26:18.957,22 Feb 2022 00:34:04.464,465.508
942,22 Feb 2022 02:02:36.462,22 Feb 2022 02:10:57.431,500.969
943,22 Feb 2022 11:28:11.969,22 Feb 2022 11:36:49.912,517.943
944,22 Feb 2022 13:05:40.235,22 Feb 2022 13:12:48.894,428.659
945,23 Feb 2022 00:49:22.629,23 Feb 2022 00:58:05.571,522.943
946,23 Feb 2022 02:26:22.143,23 Feb 2022 02:33:33.487,431.344
947,23 Feb 2022 10:17:38.853,23 Feb 2022 10:22:23.183,284.330
948,23 Feb 2022 11:51:20.509,23 Feb 2022 12:00:19.846,539.338
949,23 Feb 2022 13:30:45.759,23 Feb 2022 13:35:06.205,260.445
950,23 Feb 2022 23:38:12.840,23 Feb 2022 23:41:49.472,216.633
951,24 Feb 2022 01:12:40.416,24 Feb 2022 01:21:40.176,539.760
952,24 Feb 2022 02:50:27.748,24 Feb 2022 02:55:37.468,309.720
953,24 Feb 2022 10:39:36.189,24 Feb 2022 10:46:33.637,417.448
954,24 Feb 2022 12:14:51.626,24 Feb 2022 12:23:39.324,527.698
955,25 Feb 2022 00:00:17.735,25 Feb 2022 00:07:09.422,411.686
956,25 Feb 2022 01:36:08.859,25 Feb 2022 01:44:51.980,523.121
957,25 Feb 2022 11:02:08.318,25 Feb 2022 11:10:21.457,493.139
958,25 Feb 2022 12:38:48.395,25 Feb 2022 12:46:45.489,477.094
959,26 Feb 2022 00:23:10.224,26 Feb 2022 00:31:28.498,498.274
960,26 Feb 2022 01:59:47.826,26 Feb 2022 02:07:41.190,473.364
961,26 Feb 2022 09:52:37.399,26 Feb 2022 09:55:08.921,151.522
962,26 Feb 2022 11:25:04.932,26 Feb 2022 11:33:56.883,531.951
963,26 Feb 2022 13:03:20.997,26 Feb 2022 13:09:28.619,367.622
964,27 Feb 2022 00:46:21.220,27 Feb 2022 00:55:16.444,535.224
965,27 Feb 2022 02:23:40.991,27 Feb 2022 02:30:04.090,383.100
966,27 Feb 2022 10:13:55.458,27 Feb 2022 10:19:52.152,356.693
967,27 Feb 2022 11:48:23.874,27 Feb 2022 11:57:22.065,538.191
968,27 Feb 2022 23:34:27.842,27 Feb 2022 23:39:59.292,331.450
969,28 Feb 2022 01:09:44.191,28 Feb 2022 01:18:40.178,535.987
970,28 Feb 2022 02:48:06.521,28 Feb 2022 02:51:42.445,215.924
971,28 Feb 2022 10:36:11.514,28 Feb 2022 10:43:49.585,458.071
972,28 Feb 2022 12:12:06.339,28 Feb 2022 12:20:35.923,509.584
973,28 Feb 2022 23:57:02.850,1 Mar 2022 00:04:42.821,459.971
974,1 Mar 2022 01:33:17.387,1 Mar 2022 01:41:41.583,504.195
975,1 Mar 2022 10:58:55.641,1 Mar 2022 11:07:31.069,515.428
976,1 Mar 2022 12:36:17.742,1 Mar 2022 12:43:33.363,435.621
977,2 Mar 2022 00:20:05.352,2 Mar 2022 00:28:45.920,520.568
