Facility-Facility1-To-Satellite-SSO590_Access.csv

"Access","Start Time (UTCG)","Stop Time (UTCG)","Duration (sec)"
1,4 Aug 2021 13:43:40.506,4 Aug 2021 13:50:58.711,438.206
2,4 Aug 2021 15:18:55.235,4 Aug 2021 15:26:26.786,451.551
3,5 Aug 2021 00:37:24.286,5 Aug 2021 00:45:09.643,465.358
4,5 Aug 2021 02:13:15.190,5 Aug 2021 02:20:12.122,416.932
5,5 Aug 2021 13:48:25.310,5 Aug 2021 13:56:05.583,460.273
6,5 Aug 2021 15:23:55.062,5 Aug 2021 15:31:04.998,429.935
7,6 Aug 2021 00:42:07.203,6 Aug 2021 00:50:06.975,479.772
8,6 Aug 2021 02:18:29.316,6 Aug 2021 02:24:52.021,382.705
9,6 Aug 2021 13:53:12.119,6 Aug 2021 14:01:09.147,477.028
10,6 Aug 2021 15:28:56.607,6 Aug 2021 15:35:40.233,403.626
11,7 Aug 2021 00:46:52.602,7 Aug 2021 00:55:03.073,490.471
12,7 Aug 2021 02:23:49.021,7 Aug 2021 02:29:27.694,338.673
13,7 Aug 2021 13:58:00.620,7 Aug 2021 14:06:09.742,489.122
14,7 Aug 2021 15:34:00.265,7 Aug 2021 15:40:12.106,371.841
15,7 Aug 2021 23:20:16.727,7 Aug 2021 23:22:14.586,117.859
16,8 Aug 2021 00:51:40.421,8 Aug 2021 00:59:57.991,497.571
17,8 Aug 2021 02:29:16.697,8 Aug 2021 02:33:56.782,280.085
18,8 Aug 2021 14:02:50.589,8 Aug 2021 14:11:07.589,497.000
19,8 Aug 2021 15:39:06.703,8 Aug 2021 15:44:39.936,333.233
20,8 Aug 2021 23:24:11.452,8 Aug 2021 23:27:50.279,218.827
21,9 Aug 2021 00:56:30.643,9 Aug 2021 01:04:51.756,501.113
22,9 Aug 2021 02:34:58.860,9 Aug 2021 02:38:12.799,193.939
23,9 Aug 2021 14:07:41.892,9 Aug 2021 14:16:02.847,500.955
24,9 Aug 2021 15:44:17.155,9 Aug 2021 15:49:02.496,285.341
25,9 Aug 2021 23:28:25.421,9 Aug 2021 23:33:07.994,282.573
26,10 Aug 2021 01:01:23.288,10 Aug 2021 01:09:44.348,501.060
27,10 Aug 2021 12:39:15.942,10 Aug 2021 12:42:24.108,188.166
28,10 Aug 2021 14:12:34.421,10 Aug 2021 14:20:55.621,501.199
29,10 Aug 2021 15:49:34.379,10 Aug 2021 15:53:17.014,222.634
30,10 Aug 2021 23:32:47.656,10 Aug 2021 23:38:18.700,331.045
31,11 Aug 2021 01:06:18.417,11 Aug 2021 01:14:35.710,497.294
32,11 Aug 2021 12:43:30.880,11 Aug 2021 12:48:07.422,276.543
33,11 Aug 2021 14:17:28.122,11 Aug 2021 14:25:45.968,497.846
34,11 Aug 2021 15:55:08.343,11 Aug 2021 15:57:13.529,125.186
35,11 Aug 2021 23:37:15.258,11 Aug 2021 23:43:25.310,370.052
36,12 Aug 2021 01:11:16.132,12 Aug 2021 01:19:25.755,489.623
37,12 Aug 2021 12:47:59.522,12 Aug 2021 12:53:35.615,336.093
38,12 Aug 2021 14:22:22.984,12 Aug 2021 14:30:33.909,490.925
39,12 Aug 2021 23:41:46.938,12 Aug 2021 23:48:29.088,402.150
40,13 Aug 2021 01:16:16.579,13 Aug 2021 01:24:14.332,477.752
41,13 Aug 2021 12:52:34.933,13 Aug 2021 12:58:55.653,380.720
42,13 Aug 2021 14:27:19.022,13 Aug 2021 14:35:19.430,480.408
43,13 Aug 2021 23:46:22.021,13 Aug 2021 23:53:30.732,428.711
44,14 Aug 2021 01:21:19.990,14 Aug 2021 01:29:01.234,461.244
45,14 Aug 2021 12:57:14.649,14 Aug 2021 13:04:10.027,415.379
46,14 Aug 2021 14:32:16.288,14 Aug 2021 14:40:02.474,466.187
47,14 Aug 2021 23:51:00.086,14 Aug 2021 23:58:30.637,450.550
48,15 Aug 2021 01:26:26.680,15 Aug 2021 01:33:46.151,439.471
49,15 Aug 2021 13:01:57.455,15 Aug 2021 13:09:19.982,442.527
50,15 Aug 2021 14:37:14.892,15 Aug 2021 14:44:42.937,448.045
51,15 Aug 2021 23:55:40.879,16 Aug 2021 00:03:29.065,468.186
52,16 Aug 2021 01:31:37.140,16 Aug 2021 01:38:28.612,411.472
53,16 Aug 2021 13:06:42.644,16 Aug 2021 13:14:26.240,463.596
54,16 Aug 2021 14:42:15.000,16 Aug 2021 14:49:20.645,425.645
55,17 Aug 2021 00:00:24.240,17 Aug 2021 00:08:26.168,481.928
56,17 Aug 2021 01:36:52.144,17 Aug 2021 01:43:07.870,375.726
57,17 Aug 2021 13:11:29.769,17 Aug 2021 13:19:29.259,479.490
58,17 Aug 2021 14:47:16.879,17 Aug 2021 14:53:55.320,398.441
59,18 Aug 2021 00:05:10.066,18 Aug 2021 00:13:22.056,491.990
60,18 Aug 2021 01:42:13.029,18 Aug 2021 01:47:42.606,329.577
61,18 Aug 2021 13:16:18.542,18 Aug 2021 13:24:29.353,490.811
62,18 Aug 2021 14:52:20.973,18 Aug 2021 14:58:26.536,365.564
63,18 Aug 2021 22:38:22.015,18 Aug 2021 22:40:43.575,141.560
64,19 Aug 2021 00:09:58.311,19 Aug 2021 00:18:16.774,498.463
65,19 Aug 2021 01:47:42.564,19 Aug 2021 01:52:10.083,267.519
66,19 Aug 2021 13:21:08.760,19 Aug 2021 13:29:26.731,497.971
67,19 Aug 2021 14:57:28.004,19 Aug 2021 15:02:53.552,325.547
68,19 Aug 2021 22:42:22.261,19 Aug 2021 22:46:13.968,231.708
69,20 Aug 2021 00:14:48.963,20 Aug 2021 00:23:10.330,501.367
70,20 Aug 2021 01:53:29.065,20 Aug 2021 01:56:22.018,172.954
71,20 Aug 2021 13:26:00.277,20 Aug 2021 13:34:21.546,501.270
72,20 Aug 2021 15:02:39.378,20 Aug 2021 15:07:14.965,275.587
73,20 Aug 2021 22:46:38.061,20 Aug 2021 22:51:30.074,292.013
74,21 Aug 2021 00:19:42.040,21 Aug 2021 00:28:02.709,500.668
75,21 Aug 2021 11:57:26.036,21 Aug 2021 12:00:53.403,207.366
76,21 Aug 2021 13:30:53.016,21 Aug 2021 13:39:13.886,500.870
77,21 Aug 2021 15:07:58.383,21 Aug 2021 15:11:27.478,209.094
78,21 Aug 2021 22:51:01.384,21 Aug 2021 22:56:39.918,338.534
79,22 Aug 2021 00:24:37.618,22 Aug 2021 00:32:53.845,496.227
80,22 Aug 2021 12:01:44.451,22 Aug 2021 12:06:32.986,288.534
81,22 Aug 2021 13:35:46.926,22 Aug 2021 13:44:03.808,496.881
82,22 Aug 2021 15:13:39.360,22 Aug 2021 15:15:16.760,97.401
83,22 Aug 2021 22:55:29.777,22 Aug 2021 23:01:45.954,376.177
84,23 Aug 2021 00:29:35.804,23 Aug 2021 00:37:43.644,487.840
85,23 Aug 2021 12:06:14.579,23 Aug 2021 12:11:59.448,344.869
86,23 Aug 2021 13:40:41.993,23 Aug 2021 13:48:51.323,489.329
87,23 Aug 2021 23:00:02.100,23 Aug 2021 23:06:49.318,407.218
88,24 Aug 2021 00:34:36.755,24 Aug 2021 00:42:31.944,475.189
89,24 Aug 2021 12:10:50.877,24 Aug 2021 12:17:18.357,387.480
90,24 Aug 2021 13:45:38.244,24 Aug 2021 13:53:36.414,478.170
91,24 Aug 2021 23:04:37.730,24 Aug 2021 23:11:50.629,432.899
92,25 Aug 2021 00:39:40.717,25 Aug 2021 00:47:18.521,457.804
93,25 Aug 2021 12:15:31.207,25 Aug 2021 12:22:31.881,420.673
94,25 Aug 2021 13:50:35.736,25 Aug 2021 13:58:19.009,463.273
95,25 Aug 2021 23:09:16.292,25 Aug 2021 23:16:50.259,453.967
96,26 Aug 2021 00:44:48.034,26 Aug 2021 00:52:03.043,435.009
97,26 Aug 2021 12:20:14.478,26 Aug 2021 12:27:41.136,446.658
98,26 Aug 2021 13:55:34.592,26 Aug 2021 14:02:59.000,444.409
99,26 Aug 2021 23:13:57.552,26 Aug 2021 23:21:48.444,470.892
100,27 Aug 2021 00:49:59.231,27 Aug 2021 00:56:45.002,405.771
101,27 Aug 2021 12:25:00.036,27 Aug 2021 12:32:46.792,466.757
102,27 Aug 2021 14:00:34.989,27 Aug 2021 14:07:36.196,421.207
103,27 Aug 2021 23:18:41.355,27 Aug 2021 23:26:45.328,483.972
104,28 Aug 2021 00:55:15.153,28 Aug 2021 01:01:23.578,368.426
105,28 Aug 2021 12:29:47.470,28 Aug 2021 12:37:49.275,481.805
106,28 Aug 2021 14:05:37.222,28 Aug 2021 14:12:10.301,393.079
107,28 Aug 2021 23:23:27.611,28 Aug 2021 23:31:41.002,493.391
108,29 Aug 2021 01:00:37.299,29 Aug 2021 01:05:57.299,319.999
109,29 Aug 2021 12:34:36.511,29 Aug 2021 12:42:48.878,492.367
110,29 Aug 2021 14:10:41.768,29 Aug 2021 14:16:40.837,359.070
111,29 Aug 2021 21:56:29.130,29 Aug 2021 21:59:10.776,161.646
112,29 Aug 2021 23:28:16.282,29 Aug 2021 23:36:35.516,499.234
113,30 Aug 2021 01:06:08.906,30 Aug 2021 01:10:22.954,254.048
114,30 Aug 2021 12:39:26.963,30 Aug 2021 12:47:45.798,498.836
115,30 Aug 2021 14:15:49.438,30 Aug 2021 14:21:06.996,317.558
116,30 Aug 2021 22:00:33.495,30 Aug 2021 22:04:37.270,243.775
117,30 Aug 2021 23:33:07.360,30 Aug 2021 23:41:28.869,501.509
118,31 Aug 2021 01:12:01.001,31 Aug 2021 01:14:29.546,148.546
119,31 Aug 2021 11:11:49.903,31 Aug 2021 11:13:09.694,79.791
120,31 Aug 2021 12:44:18.705,31 Aug 2021 12:52:40.166,501.462
121,31 Aug 2021 14:21:01.827,31 Aug 2021 14:25:27.172,265.345
122,31 Aug 2021 22:04:50.927,31 Aug 2021 22:09:51.969,301.041
123,31 Aug 2021 23:38:00.872,31 Aug 2021 23:46:21.031,500.159
124,1 Sep 2021 11:15:37.087,1 Sep 2021 11:19:21.694,224.607
125,1 Sep 2021 12:49:11.658,1 Sep 2021 12:57:32.076,500.418
126,1 Sep 2021 14:26:22.920,1 Sep 2021 14:29:37.375,194.455
127,1 Sep 2021 22:09:15.269,1 Sep 2021 22:15:01.018,345.749
128,1 Sep 2021 23:42:56.901,1 Sep 2021 23:51:11.944,495.043
129,2 Sep 2021 11:19:58.360,2 Sep 2021 11:24:58.172,299.812
130,2 Sep 2021 12:54:05.768,2 Sep 2021 13:02:21.570,495.802
131,2 Sep 2021 14:32:16.686,2 Sep 2021 14:33:13.640,56.954
132,2 Sep 2021 22:13:44.420,2 Sep 2021 22:20:06.521,382.100
133,2 Sep 2021 23:47:55.561,2 Sep 2021 23:56:01.486,485.925
134,3 Sep 2021 11:24:29.822,3 Sep 2021 11:30:23.053,353.231
135,3 Sep 2021 12:59:01.040,3 Sep 2021 13:07:08.664,487.624
136,3 Sep 2021 22:18:17.363,3 Sep 2021 22:25:09.484,412.121
137,3 Sep 2021 23:52:57.025,4 Sep 2021 00:00:49.499,472.474
138,4 Sep 2021 11:29:06.945,4 Sep 2021 11:35:40.893,393.948
139,4 Sep 2021 13:03:57.503,4 Sep 2021 13:11:53.320,475.817
140,4 Sep 2021 22:22:53.534,4 Sep 2021 22:30:10.473,436.939
141,4 Sep 2021 23:58:01.551,5 Sep 2021 00:05:35.744,454.194
142,5 Sep 2021 11:33:47.858,5 Sep 2021 11:40:53.602,425.743
143,5 Sep 2021 13:08:55.226,5 Sep 2021 13:16:35.468,460.241
144,5 Sep 2021 22:27:32.587,5 Sep 2021 22:35:09.832,457.245
145,6 Sep 2021 00:03:09.509,6 Sep 2021 00:10:19.854,430.346
146,6 Sep 2021 11:38:31.568,6 Sep 2021 11:46:02.181,450.613
147,6 Sep 2021 13:13:54.337,6 Sep 2021 13:21:14.977,440.640
148,6 Sep 2021 22:32:14.304,6 Sep 2021 22:40:07.782,473.477
149,7 Sep 2021 00:08:21.470,7 Sep 2021 00:15:01.289,399.819
150,7 Sep 2021 11:43:17.482,7 Sep 2021 11:51:07.249,469.767
151,7 Sep 2021 13:18:55.036,7 Sep 2021 13:25:51.653,416.617
152,7 Sep 2021 22:36:58.548,7 Sep 2021 22:45:04.447,485.898
153,8 Sep 2021 00:13:38.352,8 Sep 2021 00:19:39.145,360.793
154,8 Sep 2021 11:48:05.220,8 Sep 2021 11:56:09.207,483.987
155,8 Sep 2021 13:23:57.636,8 Sep 2021 13:30:25.171,387.534
156,8 Sep 2021 22:41:45.231,8 Sep 2021 22:49:59.917,494.686
157,9 Sep 2021 00:19:01.852,9 Sep 2021 00:24:11.755,309.903
158,9 Sep 2021 11:52:54.521,9 Sep 2021 12:01:08.319,493.798
159,9 Sep 2021 13:29:02.661,9 Sep 2021 13:34:55.004,352.344
160,9 Sep 2021 21:14:37.464,9 Sep 2021 21:17:36.795,179.331
161,9 Sep 2021 22:46:34.328,9 Sep 2021 22:54:54.222,499.894
162,10 Sep 2021 00:24:35.798,10 Sep 2021 00:28:35.320,239.522
163,10 Sep 2021 11:57:45.215,10 Sep 2021 12:06:04.782,499.567
164,10 Sep 2021 13:34:11.014,10 Sep 2021 13:39:20.258,309.244
165,10 Sep 2021 21:18:45.101,10 Sep 2021 21:23:00.246,255.144
166,10 Sep 2021 22:51:25.832,10 Sep 2021 22:59:47.369,501.537
167,11 Sep 2021 00:30:35.720,11 Sep 2021 00:32:34.342,118.622
168,11 Sep 2021 10:29:49.376,11 Sep 2021 10:31:49.779,120.404
169,11 Sep 2021 12:02:37.170,11 Sep 2021 12:10:58.712,501.542
170,11 Sep 2021 13:39:24.524,11 Sep 2021 13:43:39.085,254.561
171,11 Sep 2021 21:23:04.003,11 Sep 2021 21:28:13.692,309.689
172,11 Sep 2021 22:56:19.788,11 Sep 2021 23:04:39.319,499.531
173,12 Sep 2021 10:33:48.883,12 Sep 2021 10:37:49.201,240.317
174,12 Sep 2021 12:07:30.332,12 Sep 2021 12:15:50.195,499.863
175,12 Sep 2021 13:44:48.121,12 Sep 2021 13:47:46.565,178.444
176,12 Sep 2021 21:27:29.301,12 Sep 2021 21:33:22.010,352.708
177,12 Sep 2021 23:01:16.266,12 Sep 2021 23:09:29.993,493.726
178,13 Sep 2021 10:38:12.566,13 Sep 2021 10:43:23.013,310.447
179,13 Sep 2021 12:12:24.650,13 Sep 2021 12:20:39.265,494.615
180,13 Sep 2021 21:31:59.177,13 Sep 2021 21:38:27.008,387.831
181,13 Sep 2021 23:06:15.408,13 Sep 2021 23:14:19.283,483.875
182,14 Sep 2021 10:42:45.241,14 Sep 2021 10:48:46.443,361.202
183,14 Sep 2021 12:17:20.125,14 Sep 2021 12:25:25.927,485.802
184,14 Sep 2021 21:36:32.726,14 Sep 2021 21:43:29.589,416.863
185,14 Sep 2021 23:11:17.391,14 Sep 2021 23:19:07.004,469.613
186,15 Sep 2021 10:47:23.134,15 Sep 2021 10:54:03.273,400.139
187,15 Sep 2021 12:22:16.804,15 Sep 2021 12:30:10.148,473.344
188,15 Sep 2021 21:41:09.428,15 Sep 2021 21:48:30.270,440.842
189,15 Sep 2021 23:16:22.491,15 Sep 2021 23:23:52.900,450.409
190,16 Sep 2021 10:52:04.594,16 Sep 2021 10:59:15.194,430.600
191,16 Sep 2021 12:27:14.761,16 Sep 2021 12:34:51.841,457.080
192,16 Sep 2021 21:45:48.964,16 Sep 2021 21:53:29.369,460.404
193,16 Sep 2021 23:21:31.108,16 Sep 2021 23:28:36.588,425.480
194,17 Sep 2021 10:56:48.729,17 Sep 2021 11:04:23.117,454.388
195,17 Sep 2021 12:32:14.135,17 Sep 2021 12:39:30.866,436.731
196,17 Sep 2021 21:50:31.136,17 Sep 2021 21:58:27.080,475.944
197,17 Sep 2021 23:26:43.855,17 Sep 2021 23:33:17.467,393.612
198,18 Sep 2021 11:01:34.988,18 Sep 2021 11:09:27.609,472.620
199,18 Sep 2021 12:37:15.143,18 Sep 2021 12:44:07.010,411.867
200,18 Sep 2021 21:55:15.813,18 Sep 2021 22:03:23.530,487.718
201,18 Sep 2021 23:32:01.753,18 Sep 2021 23:37:54.550,352.797
202,19 Sep 2021 11:06:23.019,19 Sep 2021 11:14:29.047,486.029
203,19 Sep 2021 12:42:18.126,19 Sep 2021 12:48:39.924,381.798
204,19 Sep 2021 20:29:09.397,19 Sep 2021 20:30:09.212,59.814
205,19 Sep 2021 22:00:02.930,19 Sep 2021 22:08:18.788,495.858
206,19 Sep 2021 23:37:26.714,19 Sep 2021 23:42:25.943,299.229
207,20 Sep 2021 11:11:12.580,20 Sep 2021 11:19:27.683,495.103
208,20 Sep 2021 12:47:23.656,20 Sep 2021 12:53:09.031,345.375
209,20 Sep 2021 20:32:46.692,20 Sep 2021 20:36:01.957,195.265
210,20 Sep 2021 22:04:52.448,20 Sep 2021 22:13:12.894,500.446
211,20 Sep 2021 23:43:03.343,20 Sep 2021 23:46:47.078,223.735
212,21 Sep 2021 11:16:03.497,21 Sep 2021 11:24:23.685,500.188
213,21 Sep 2021 12:52:32.746,21 Sep 2021 12:57:33.323,300.578
214,21 Sep 2021 20:36:57.030,21 Sep 2021 20:41:22.935,265.905
215,21 Sep 2021 22:09:44.380,21 Sep 2021 22:18:05.832,501.451
216,21 Sep 2021 23:49:16.309,21 Sep 2021 23:50:33.312,77.004
217,22 Sep 2021 09:47:54.365,22 Sep 2021 09:50:24.300,149.935
218,22 Sep 2021 11:20:55.673,22 Sep 2021 11:29:17.180,501.508
219,22 Sep 2021 12:57:47.511,22 Sep 2021 13:01:50.676,243.165
220,22 Sep 2021 20:41:17.273,22 Sep 2021 20:46:35.265,317.992
221,22 Sep 2021 22:14:38.777,22 Sep 2021 22:22:57.560,498.784
222,23 Sep 2021 09:52:01.282,23 Sep 2021 09:56:16.061,254.779
223,23 Sep 2021 11:25:49.041,23 Sep 2021 11:34:08.235,499.194
224,23 Sep 2021 13:03:14.188,23 Sep 2021 13:05:54.851,160.664
225,23 Sep 2021 20:45:43.475,23 Sep 2021 20:51:42.896,359.421
226,23 Sep 2021 22:19:35.715,23 Sep 2021 22:27:48.004,492.288
227,24 Sep 2021 09:56:27.037,24 Sep 2021 10:01:47.551,320.514
228,24 Sep 2021 11:30:43.559,24 Sep 2021 11:38:56.879,493.320
229,24 Sep 2021 20:50:14.050,24 Sep 2021 20:56:47.418,393.368
230,24 Sep 2021 22:24:35.343,24 Sep 2021 22:32:37.029,481.686
231,25 Sep 2021 10:01:00.811,25 Sep 2021 10:07:09.628,368.817
232,25 Sep 2021 11:35:39.247,25 Sep 2021 11:43:43.116,483.868
233,25 Sep 2021 20:54:48.189,25 Sep 2021 21:01:49.636,421.447
234,25 Sep 2021 22:29:37.854,25 Sep 2021 22:37:24.450,466.597
235,26 Sep 2021 10:05:39.426,26 Sep 2021 10:12:25.502,406.077
236,26 Sep 2021 11:40:36.145,26 Sep 2021 11:48:26.898,470.753
237,26 Sep 2021 20:59:25.413,26 Sep 2021 21:06:50.018,444.605
238,26 Sep 2021 22:34:43.543,26 Sep 2021 22:42:09.988,446.445
239,27 Sep 2021 10:10:21.413,27 Sep 2021 10:17:36.662,435.249
240,27 Sep 2021 11:45:34.339,27 Sep 2021 11:53:08.131,453.791
241,27 Sep 2021 21:04:05.425,27 Sep 2021 21:11:48.858,463.434
242,27 Sep 2021 22:39:52.835,27 Sep 2021 22:46:53.233,420.398
243,28 Sep 2021 10:15:05.957,28 Sep 2021 10:22:43.946,457.989
244,28 Sep 2021 11:50:33.984,28 Sep 2021 11:57:46.668,432.684
245,28 Sep 2021 21:08:48.049,28 Sep 2021 21:16:46.340,478.291
246,28 Sep 2021 22:45:06.403,28 Sep 2021 22:51:33.531,387.128
247,29 Sep 2021 10:19:52.551,29 Sep 2021 10:27:47.876,475.326
248,29 Sep 2021 11:55:35.312,29 Sep 2021 12:02:22.268,406.956
249,29 Sep 2021 21:13:33.161,29 Sep 2021 21:21:42.576,489.416
250,29 Sep 2021 22:50:25.370,29 Sep 2021 22:56:09.784,344.414
251,30 Sep 2021 10:24:40.865,30 Sep 2021 10:32:48.804,487.938
252,30 Sep 2021 12:00:38.697,30 Sep 2021 12:06:54.556,375.859
253,30 Sep 2021 19:47:06.865,30 Sep 2021 19:48:45.951,99.087
254,30 Sep 2021 21:18:20.701,30 Sep 2021 21:26:37.628,496.927
255,30 Sep 2021 22:55:51.919,30 Sep 2021 23:00:39.835,287.915
256,1 Oct 2021 10:29:30.673,1 Oct 2021 10:37:46.958,496.285
257,1 Oct 2021 12:05:44.761,1 Oct 2021 12:11:22.911,338.150
258,1 Oct 2021 19:50:56.619,1 Oct 2021 19:54:26.464,209.845
259,1 Oct 2021 21:23:10.643,1 Oct 2021 21:31:31.530,500.886
260,1 Oct 2021 23:01:31.686,1 Oct 2021 23:04:58.083,206.397
261,2 Oct 2021 10:34:21.823,2 Oct 2021 10:42:42.514,500.692
262,2 Oct 2021 12:10:54.649,2 Oct 2021 12:15:46.181,291.532
263,2 Oct 2021 19:55:09.249,2 Oct 2021 19:59:45.370,276.121
264,2 Oct 2021 21:28:03.005,2 Oct 2021 21:36:24.256,501.251
265,3 Oct 2021 09:06:02.004,3 Oct 2021 09:08:56.129,174.124
266,3 Oct 2021 10:39:14.212,3 Oct 2021 10:47:35.572,501.360
267,3 Oct 2021 12:16:10.831,3 Oct 2021 12:20:01.891,231.060
268,3 Oct 2021 19:59:30.725,3 Oct 2021 20:04:56.691,325.966
269,3 Oct 2021 21:32:57.845,3 Oct 2021 21:41:15.766,497.921
270,4 Oct 2021 09:10:14.179,4 Oct 2021 09:14:42.374,268.195
271,4 Oct 2021 10:44:07.786,4 Oct 2021 10:52:26.202,498.416
272,4 Oct 2021 12:21:41.461,4 Oct 2021 12:24:01.891,140.430
273,4 Oct 2021 20:03:57.785,4 Oct 2021 20:10:03.691,365.906
274,4 Oct 2021 21:37:55.249,4 Oct 2021 21:46:05.972,490.723
275,5 Oct 2021 09:14:41.745,5 Oct 2021 09:20:11.807,330.062
276,5 Oct 2021 10:49:02.509,5 Oct 2021 10:57:14.421,491.913
277,5 Oct 2021 20:08:29.034,5 Oct 2021 20:15:07.757,398.723
278,5 Oct 2021 21:42:55.368,5 Oct 2021 21:50:54.729,479.361
279,6 Oct 2021 09:19:16.532,6 Oct 2021 09:25:32.629,376.097
280,6 Oct 2021 10:53:58.408,6 Oct 2021 11:02:00.229,481.821
281,6 Oct 2021 20:13:03.747,6 Oct 2021 20:20:09.626,425.879
282,6 Oct 2021 21:47:58.419,6 Oct 2021 21:55:41.841,463.421
283,7 Oct 2021 09:23:55.823,7 Oct 2021 09:30:47.586,411.763
284,7 Oct 2021 10:58:55.526,7 Oct 2021 11:06:43.566,468.041
285,7 Oct 2021 20:17:41.481,7 Oct 2021 20:25:09.715,448.234
286,7 Oct 2021 21:53:04.707,7 Oct 2021 22:00:27.007,442.300
287,8 Oct 2021 09:28:38.312,8 Oct 2021 09:35:58.010,439.699
288,8 Oct 2021 11:03:53.967,8 Oct 2021 11:11:24.335,450.369
289,8 Oct 2021 20:22:21.966,8 Oct 2021 20:30:08.305,466.339
290,8 Oct 2021 21:58:14.695,8 Oct 2021 22:05:09.784,415.089
291,9 Oct 2021 09:33:23.250,9 Oct 2021 09:41:04.670,461.420
292,9 Oct 2021 11:08:53.884,9 Oct 2021 11:16:02.378,428.493
293,9 Oct 2021 20:27:05.036,9 Oct 2021 20:35:05.560,480.524
294,9 Oct 2021 22:03:29.117,9 Oct 2021 22:09:49.468,380.350
295,10 Oct 2021 09:38:10.166,10 Oct 2021 09:46:08.049,477.883
296,10 Oct 2021 11:13:55.545,10 Oct 2021 11:20:37.423,401.878
297,10 Oct 2021 20:31:50.578,10 Oct 2021 20:40:01.585,491.007
298,10 Oct 2021 22:08:49.218,10 Oct 2021 22:14:24.830,335.612
299,11 Oct 2021 09:42:58.760,11 Oct 2021 09:51:08.470,489.710
300,11 Oct 2021 11:18:59.348,11 Oct 2021 11:25:09.075,369.727
301,11 Oct 2021 19:05:10.282,11 Oct 2021 19:07:16.781,126.499
302,11 Oct 2021 20:36:38.542,11 Oct 2021 20:44:56.433,497.891
303,11 Oct 2021 22:14:17.508,11 Oct 2021 22:18:53.388,275.881
304,12 Oct 2021 09:47:48.817,12 Oct 2021 09:56:06.160,497.343
305,12 Oct 2021 11:24:05.983,12 Oct 2021 11:29:36.632,330.648
306,12 Oct 2021 19:09:07.111,12 Oct 2021 19:12:50.443,223.332
307,12 Oct 2021 20:41:28.915,12 Oct 2021 20:49:50.127,501.212
308,12 Oct 2021 22:20:01.045,12 Oct 2021 22:23:08.119,187.074
309,13 Oct 2021 09:52:40.187,13 Oct 2021 10:01:01.265,501.078
310,13 Oct 2021 11:29:16.740,13 Oct 2021 11:33:58.810,282.070
311,13 Oct 2021 19:13:21.732,13 Oct 2021 19:18:07.581,285.849
312,13 Oct 2021 20:46:21.707,13 Oct 2021 20:54:42.646,500.939
313,14 Oct 2021 08:24:11.297,14 Oct 2021 08:27:26.256,194.959
314,14 Oct 2021 09:57:32.788,14 Oct 2021 10:05:53.890,501.102
315,14 Oct 2021 11:34:34.541,14 Oct 2021 11:38:12.676,218.135
316,14 Oct 2021 19:17:44.348,14 Oct 2021 19:23:17.987,333.640
317,14 Oct 2021 20:51:16.988,14 Oct 2021 20:59:33.933,496.945
318,15 Oct 2021 08:28:27.501,15 Oct 2021 08:33:08.218,280.717
319,15 Oct 2021 10:02:26.566,15 Oct 2021 10:10:44.092,497.527
320,15 Oct 2021 11:40:10.563,15 Oct 2021 11:42:07.060,116.498
321,15 Oct 2021 19:22:12.222,15 Oct 2021 19:28:24.391,372.169
322,15 Oct 2021 20:56:14.864,15 Oct 2021 21:04:23.890,489.027
323,16 Oct 2021 08:32:56.669,16 Oct 2021 08:38:35.802,339.133
324,16 Oct 2021 10:07:21.494,16 Oct 2021 10:15:31.889,490.395
325,16 Oct 2021 19:26:44.125,16 Oct 2021 19:33:28.029,403.904
326,16 Oct 2021 21:01:15.483,16 Oct 2021 21:09:12.374,476.892
327,17 Oct 2021 08:37:32.390,17 Oct 2021 08:43:55.448,383.058
328,17 Oct 2021 10:12:17.604,17 Oct 2021 10:20:17.262,479.657
329,17 Oct 2021 19:31:19.397,17 Oct 2021 19:38:29.559,430.162
330,17 Oct 2021 21:06:19.081,17 Oct 2021 21:13:59.167,460.087
331,18 Oct 2021 08:42:12.318,18 Oct 2021 08:49:09.527,417.209
332,18 Oct 2021 10:17:14.947,18 Oct 2021 10:25:00.154,465.207
333,18 Oct 2021 19:35:57.631,18 Oct 2021 19:43:29.367,451.736
334,18 Oct 2021 21:11:25.983,18 Oct 2021 21:18:43.950,437.967
335,19 Oct 2021 08:46:55.285,19 Oct 2021 08:54:19.242,443.957
336,19 Oct 2021 10:22:13.636,19 Oct 2021 10:29:40.457,446.821
337,19 Oct 2021 19:40:38.587,19 Oct 2021 19:48:27.708,469.121
338,19 Oct 2021 21:16:36.692,19 Oct 2021 21:23:26.242,409.550
339,20 Oct 2021 08:51:40.602,20 Oct 2021 08:59:25.291,464.689
340,20 Oct 2021 10:27:13.842,20 Oct 2021 10:34:17.991,424.149
341,20 Oct 2021 19:45:22.101,20 Oct 2021 19:53:24.739,482.638
342,20 Oct 2021 21:21:52.006,20 Oct 2021 21:28:05.271,373.265
343,21 Oct 2021 08:56:27.833,21 Oct 2021 09:04:28.129,480.296
344,21 Oct 2021 10:32:15.840,21 Oct 2021 10:38:52.474,396.634
345,21 Oct 2021 19:50:08.078,21 Oct 2021 19:58:20.555,492.477
346,21 Oct 2021 21:27:13.313,21 Oct 2021 21:32:39.671,326.359
347,22 Oct 2021 09:01:16.698,22 Oct 2021 09:09:28.055,491.357
348,22 Oct 2021 10:37:20.086,22 Oct 2021 10:43:23.463,363.377
349,22 Oct 2021 18:23:16.297,22 Oct 2021 18:25:45.056,148.758
350,22 Oct 2021 19:54:56.464,22 Oct 2021 20:03:15.203,498.739
351,22 Oct 2021 21:32:43.529,22 Oct 2021 21:37:06.552,263.023
352,23 Oct 2021 09:06:06.993,23 Oct 2021 09:14:25.277,498.284
353,23 Oct 2021 10:42:27.330,23 Oct 2021 10:47:50.189,322.859
354,23 Oct 2021 18:27:18.075,23 Oct 2021 18:31:13.994,235.919
355,23 Oct 2021 19:59:47.261,23 Oct 2021 20:08:08.690,501.428
356,23 Oct 2021 21:38:31.765,23 Oct 2021 21:41:16.836,165.071
357,24 Oct 2021 07:38:53.553,24 Oct 2021 07:39:24.020,30.467
358,24 Oct 2021 09:10:58.593,24 Oct 2021 09:19:19.936,501.343
359,24 Oct 2021 10:47:39.039,24 Oct 2021 10:52:11.192,272.152
360,24 Oct 2021 18:31:34.454,24 Oct 2021 18:36:29.597,295.143
361,24 Oct 2021 20:04:40.492,24 Oct 2021 20:13:00.994,500.503
362,25 Oct 2021 07:42:21.743,25 Oct 2021 07:45:55.187,213.444
363,25 Oct 2021 09:15:51.401,25 Oct 2021 09:24:12.131,500.730
364,25 Oct 2021 10:52:58.718,25 Oct 2021 10:56:22.954,204.236
365,25 Oct 2021 18:35:58.132,25 Oct 2021 18:41:39.161,341.029
366,25 Oct 2021 20:09:36.223,25 Oct 2021 20:17:52.056,495.833
367,26 Oct 2021 07:46:41.191,26 Oct 2021 07:51:33.650,292.459
368,26 Oct 2021 09:20:45.385,26 Oct 2021 09:29:01.905,496.520
369,26 Oct 2021 10:58:43.024,26 Oct 2021 11:00:08.834,85.810
370,26 Oct 2021 18:40:26.786,26 Oct 2021 18:46:45.011,378.225
371,26 Oct 2021 20:14:34.566,26 Oct 2021 20:22:41.766,487.199
372,27 Oct 2021 07:51:11.789,27 Oct 2021 07:56:59.557,347.768
373,27 Oct 2021 09:25:40.522,27 Oct 2021 09:33:49.279,488.757
374,27 Oct 2021 18:44:59.325,27 Oct 2021 18:51:48.235,408.911
375,27 Oct 2021 20:19:35.691,27 Oct 2021 20:27:29.966,474.276
376,28 Oct 2021 07:55:48.376,28 Oct 2021 08:02:18.093,389.718
377,28 Oct 2021 09:30:36.841,28 Oct 2021 09:38:34.217,477.376
378,28 Oct 2021 18:49:35.141,28 Oct 2021 18:56:49.435,434.294
379,28 Oct 2021 20:24:39.843,28 Oct 2021 20:32:16.431,456.588
380,29 Oct 2021 08:00:28.907,29 Oct 2021 08:07:31.336,422.429
381,29 Oct 2021 09:35:34.410,29 Oct 2021 09:43:16.664,462.254
382,29 Oct 2021 18:54:13.870,29 Oct 2021 19:01:48.973,455.103
383,29 Oct 2021 20:29:47.377,29 Oct 2021 20:37:00.817,433.440
384,30 Oct 2021 08:05:12.329,30 Oct 2021 08:12:40.358,448.029
385,30 Oct 2021 09:40:33.353,30 Oct 2021 09:47:56.490,443.137
386,30 Oct 2021 18:58:55.287,30 Oct 2021 19:06:47.071,471.784
387,30 Oct 2021 20:34:58.831,30 Oct 2021 20:41:42.599,403.768
388,31 Oct 2021 08:09:58.012,31 Oct 2021 08:17:45.814,467.802
389,31 Oct 2021 09:45:33.851,31 Oct 2021 09:52:33.510,419.659
390,31 Oct 2021 19:03:39.240,31 Oct 2021 19:11:43.885,484.645
391,31 Oct 2021 20:40:15.079,31 Oct 2021 20:46:20.937,365.858
392,1 Nov 2021 08:14:45.550,1 Nov 2021 08:22:48.115,482.565
393,1 Nov 2021 09:50:36.208,1 Nov 2021 09:57:07.417,391.209
394,1 Nov 2021 19:08:25.648,1 Nov 2021 19:16:39.491,493.843
395,1 Nov 2021 20:45:37.674,1 Nov 2021 20:50:54.287,316.613
396,2 Nov 2021 08:19:34.680,2 Nov 2021 08:27:47.551,492.871
397,2 Nov 2021 09:55:40.914,2 Nov 2021 10:01:37.715,356.801
398,2 Nov 2021 17:41:23.881,2 Nov 2021 17:44:11.799,167.918
399,2 Nov 2021 19:13:14.460,2 Nov 2021 19:21:33.932,499.473
400,2 Nov 2021 20:51:10.047,2 Nov 2021 20:55:19.262,249.215
401,3 Nov 2021 08:24:25.218,3 Nov 2021 08:32:44.312,499.094
402,3 Nov 2021 10:00:48.812,3 Nov 2021 10:06:03.571,314.759
403,3 Nov 2021 17:45:29.446,3 Nov 2021 17:49:37.173,247.727
404,3 Nov 2021 19:18:05.683,3 Nov 2021 19:26:27.214,501.531
405,3 Nov 2021 20:57:04.486,3 Nov 2021 20:59:23.599,139.113
406,4 Nov 2021 06:56:40.730,4 Nov 2021 06:58:16.428,95.697
407,4 Nov 2021 08:29:17.030,4 Nov 2021 08:37:38.532,501.502
408,4 Nov 2021 10:06:01.571,4 Nov 2021 10:10:23.300,261.729
409,4 Nov 2021 17:49:47.394,4 Nov 2021 17:54:51.430,304.036
410,4 Nov 2021 19:22:59.345,4 Nov 2021 19:31:19.306,499.961
411,5 Nov 2021 07:00:33.065,5 Nov 2021 07:04:23.191,230.126
412,5 Nov 2021 08:34:10.055,5 Nov 2021 08:42:30.295,500.240
413,5 Nov 2021 10:11:23.465,5 Nov 2021 10:14:32.627,189.161
414,5 Nov 2021 17:54:12.069,5 Nov 2021 18:00:00.222,348.153
415,5 Nov 2021 19:27:55.529,5 Nov 2021 19:36:10.137,494.609
416,6 Nov 2021 07:04:55.204,6 Nov 2021 07:09:58.714,303.510
417,6 Nov 2021 08:39:04.237,6 Nov 2021 08:47:19.647,495.410
418,6 Nov 2021 10:17:26.439,6 Nov 2021 10:17:59.608,33.169
419,6 Nov 2021 17:58:41.469,6 Nov 2021 18:05:05.548,384.079
420,6 Nov 2021 19:32:54.352,6 Nov 2021 19:40:59.592,485.240
421,7 Nov 2021 07:09:27.091,7 Nov 2021 07:15:23.087,355.996
422,7 Nov 2021 08:43:59.577,7 Nov 2021 08:52:06.592,487.015
423,7 Nov 2021 18:03:14.622,7 Nov 2021 18:10:08.379,413.757
424,7 Nov 2021 19:37:55.992,7 Nov 2021 19:45:47.510,471.517
425,8 Nov 2021 07:14:04.483,8 Nov 2021 07:20:40.575,396.092
426,8 Nov 2021 08:48:56.113,8 Nov 2021 08:56:51.095,474.982
427,8 Nov 2021 18:07:50.975,8 Nov 2021 18:15:09.262,438.287
428,8 Nov 2021 19:43:00.712,8 Nov 2021 19:50:33.634,452.921
429,9 Nov 2021 07:18:45.587,9 Nov 2021 07:25:53.013,427.426
430,9 Nov 2021 08:53:53.916,9 Nov 2021 09:01:33.091,459.176
431,9 Nov 2021 18:12:30.194,9 Nov 2021 18:20:08.534,458.340
432,9 Nov 2021 19:48:08.893,9 Nov 2021 19:55:17.605,428.712
433,10 Nov 2021 07:23:29.443,10 Nov 2021 07:31:01.366,451.922
434,10 Nov 2021 08:58:53.116,10 Nov 2021 09:06:12.436,439.320
435,10 Nov 2021 18:17:12.066,10 Nov 2021 18:25:06.395,474.328
436,10 Nov 2021 19:53:21.119,10 Nov 2021 19:59:58.850,397.731
437,11 Nov 2021 07:28:15.476,11 Nov 2021 07:36:06.234,470.758
438,11 Nov 2021 09:03:53.919,11 Nov 2021 09:10:48.931,415.012
439,11 Nov 2021 18:21:56.456,11 Nov 2021 18:30:02.990,486.534
440,11 Nov 2021 19:58:38.341,11 Nov 2021 20:04:36.448,358.107
441,12 Nov 2021 07:33:03.315,12 Nov 2021 07:41:08.015,484.700
442,12 Nov 2021 09:08:56.648,12 Nov 2021 09:15:22.243,385.595
443,12 Nov 2021 18:26:43.288,12 Nov 2021 18:34:58.387,495.099
444,12 Nov 2021 20:04:02.326,12 Nov 2021 20:09:08.654,306.328
445,13 Nov 2021 07:37:52.705,13 Nov 2021 07:46:06.966,494.261
446,13 Nov 2021 09:14:01.841,13 Nov 2021 09:19:51.834,349.993
447,13 Nov 2021 16:59:32.552,13 Nov 2021 17:02:37.492,184.940
448,13 Nov 2021 18:31:32.529,13 Nov 2021 18:39:52.624,500.095
449,13 Nov 2021 20:09:37.144,13 Nov 2021 20:13:31.432,234.288
450,14 Nov 2021 07:42:43.477,14 Nov 2021 07:51:03.270,499.792
451,14 Nov 2021 09:19:10.440,14 Nov 2021 09:24:16.764,306.324
452,14 Nov 2021 17:03:41.167,14 Nov 2021 17:08:00.044,258.878
453,14 Nov 2021 18:36:24.180,14 Nov 2021 18:44:45.701,501.521
454,14 Nov 2021 20:15:40.631,14 Nov 2021 20:17:26.978,106.347
455,15 Nov 2021 06:14:42.698,15 Nov 2021 06:16:54.000,131.301
456,15 Nov 2021 07:47:35.511,15 Nov 2021 07:55:57.050,501.538
457,15 Nov 2021 09:24:24.362,15 Nov 2021 09:28:35.102,250.740
458,15 Nov 2021 17:08:00.537,15 Nov 2021 17:13:13.095,312.558
459,15 Nov 2021 18:41:18.281,15 Nov 2021 18:49:37.577,499.296
460,16 Nov 2021 06:18:45.077,16 Nov 2021 06:22:50.463,245.386
461,16 Nov 2021 07:52:28.734,16 Nov 2021 08:00:48.386,499.652
462,16 Nov 2021 09:29:48.936,16 Nov 2021 09:32:41.530,172.594
463,16 Nov 2021 17:12:26.150,16 Nov 2021 17:18:21.173,355.023
464,16 Nov 2021 18:46:14.921,16 Nov 2021 18:54:28.173,493.252
465,17 Nov 2021 06:23:09.501,17 Nov 2021 06:28:23.448,313.947
466,17 Nov 2021 07:57:23.126,17 Nov 2021 08:05:37.312,494.187
467,17 Nov 2021 17:16:56.267,17 Nov 2021 17:23:26.009,389.742
468,17 Nov 2021 18:51:14.228,17 Nov 2021 18:59:17.371,483.144
469,18 Nov 2021 06:27:42.560,18 Nov 2021 06:33:46.406,363.846
470,18 Nov 2021 08:02:18.673,18 Nov 2021 08:10:23.830,485.156
471,18 Nov 2021 17:21:30.019,18 Nov 2021 17:28:28.464,418.444
472,18 Nov 2021 18:56:16.389,18 Nov 2021 19:04:04.994,468.604
473,19 Nov 2021 06:32:20.706,19 Nov 2021 06:39:02.904,402.198
474,19 Nov 2021 08:07:15.427,19 Nov 2021 08:15:07.895,472.468
475,19 Nov 2021 17:26:06.899,19 Nov 2021 17:33:29.041,442.142
476,19 Nov 2021 19:01:21.690,19 Nov 2021 19:08:50.767,449.077
477,20 Nov 2021 06:37:02.351,20 Nov 2021 06:44:14.561,432.210
478,20 Nov 2021 08:12:13.465,20 Nov 2021 08:19:49.435,455.971
479,20 Nov 2021 17:30:46.600,20 Nov 2021 17:38:28.050,461.451
480,20 Nov 2021 19:06:30.535,20 Nov 2021 19:13:34.306,423.771
481,21 Nov 2021 06:41:46.627,21 Nov 2021 06:49:22.265,455.639
482,21 Nov 2021 08:17:12.931,21 Nov 2021 08:24:28.294,435.363
483,21 Nov 2021 17:35:28.925,21 Nov 2021 17:43:25.680,476.755
484,21 Nov 2021 19:11:43.557,21 Nov 2021 19:18:14.989,391.432
485,22 Nov 2021 06:46:33.001,22 Nov 2021 06:54:26.566,473.565
486,22 Nov 2021 08:22:14.047,22 Nov 2021 08:29:04.254,410.207
487,22 Nov 2021 17:40:13.750,22 Nov 2021 17:48:22.056,488.306
488,22 Nov 2021 19:17:01.813,22 Nov 2021 19:22:51.797,349.984
489,23 Nov 2021 06:51:21.129,23 Nov 2021 06:59:27.826,486.697
490,23 Nov 2021 08:27:17.164,23 Nov 2021 08:33:36.955,379.791
491,23 Nov 2021 16:13:59.382,23 Nov 2021 16:15:14.947,75.564
492,23 Nov 2021 17:45:01.008,23 Nov 2021 17:53:17.252,496.244
493,23 Nov 2021 19:22:27.300,23 Nov 2021 19:27:22.748,295.449
494,24 Nov 2021 06:56:10.772,24 Nov 2021 07:04:26.298,495.526
495,24 Nov 2021 08:32:22.874,24 Nov 2021 08:38:05.807,342.933
496,24 Nov 2021 16:17:42.039,24 Nov 2021 16:21:02.406,200.367
497,24 Nov 2021 17:49:50.675,24 Nov 2021 17:58:11.284,500.609
498,24 Nov 2021 19:28:04.939,24 Nov 2021 19:31:42.956,218.018
499,25 Nov 2021 07:01:01.772,25 Nov 2021 07:09:22.145,500.374
500,25 Nov 2021 08:37:32.229,25 Nov 2021 08:42:29.756,297.527
501,25 Nov 2021 16:21:53.197,25 Nov 2021 16:26:22.640,269.443
502,25 Nov 2021 17:54:42.753,25 Nov 2021 18:03:04.149,501.396
503,25 Nov 2021 19:34:25.656,25 Nov 2021 19:35:21.528,55.873
504,26 Nov 2021 05:32:48.760,26 Nov 2021 05:35:27.429,158.669
505,26 Nov 2021 07:05:54.020,26 Nov 2021 07:14:15.491,501.470
506,26 Nov 2021 08:42:47.459,26 Nov 2021 08:46:46.569,239.110
507,26 Nov 2021 16:26:13.871,26 Nov 2021 16:31:34.615,320.744
508,26 Nov 2021 17:59:37.295,26 Nov 2021 18:07:55.805,498.509
509,27 Nov 2021 05:36:57.653,27 Nov 2021 05:41:17.126,259.473
510,27 Nov 2021 07:10:47.455,27 Nov 2021 07:19:06.398,498.944
511,27 Nov 2021 08:48:15.369,27 Nov 2021 08:50:49.436,154.067
512,27 Nov 2021 16:30:40.373,27 Nov 2021 16:36:42.027,361.654
513,27 Nov 2021 18:04:34.397,27 Nov 2021 18:12:46.168,491.771
514,28 Nov 2021 05:41:24.053,28 Nov 2021 05:46:47.884,323.831
515,28 Nov 2021 07:15:42.052,28 Nov 2021 07:23:54.900,492.849
516,28 Nov 2021 16:35:11.177,28 Nov 2021 16:41:46.390,395.213
517,28 Nov 2021 18:09:34.191,28 Nov 2021 18:17:35.103,480.912
518,29 Nov 2021 05:45:58.183,29 Nov 2021 05:52:09.522,371.339
519,29 Nov 2021 07:20:37.807,29 Nov 2021 07:28:40.988,483.180
520,29 Nov 2021 16:39:45.513,29 Nov 2021 16:46:48.488,422.975
521,29 Nov 2021 18:14:36.884,29 Nov 2021 18:22:22.418,465.534
522,30 Nov 2021 05:50:37.034,30 Nov 2021 05:57:25.080,408.046
523,30 Nov 2021 07:25:34.780,30 Nov 2021 07:33:24.619,469.839
524,30 Nov 2021 16:44:22.912,30 Nov 2021 16:51:48.770,445.858
525,30 Nov 2021 18:19:42.779,30 Nov 2021 18:27:07.832,445.053
526,1 Dec 2021 05:55:19.195,1 Dec 2021 06:02:35.986,436.791
527,1 Dec 2021 07:30:33.057,1 Dec 2021 07:38:05.695,452.638
528,1 Dec 2021 16:49:03.086,1 Dec 2021 16:56:47.522,464.436
529,1 Dec 2021 18:24:52.304,1 Dec 2021 18:31:50.918,418.614
530,2 Dec 2021 06:00:03.875,2 Dec 2021 06:07:43.057,459.182
531,2 Dec 2021 07:35:32.796,2 Dec 2021 07:42:44.064,431.268
532,2 Dec 2021 16:53:45.862,2 Dec 2021 17:01:44.926,479.064
533,2 Dec 2021 18:30:06.160,2 Dec 2021 18:36:31.011,384.852
534,3 Dec 2021 06:04:50.580,3 Dec 2021 06:12:46.796,476.216
535,3 Dec 2021 07:40:34.236,3 Dec 2021 07:47:19.476,405.240
536,3 Dec 2021 16:58:31.124,3 Dec 2021 17:06:41.092,489.968
537,3 Dec 2021 18:35:25.505,3 Dec 2021 18:41:06.968,341.462
538,4 Dec 2021 06:09:38.990,4 Dec 2021 06:17:47.551,488.560
539,4 Dec 2021 07:45:37.759,4 Dec 2021 07:51:51.547,373.788
540,4 Dec 2021 15:31:59.660,4 Dec 2021 15:33:48.889,109.229
541,4 Dec 2021 17:03:18.808,4 Dec 2021 17:11:36.078,497.270
542,4 Dec 2021 18:40:52.629,4 Dec 2021 18:45:36.529,283.901
543,5 Dec 2021 06:14:28.883,5 Dec 2021 06:22:45.548,496.665
544,5 Dec 2021 07:50:44.017,5 Dec 2021 07:56:19.629,335.612
545,5 Dec 2021 15:35:52.170,5 Dec 2021 15:39:26.722,214.551
546,5 Dec 2021 17:08:08.895,5 Dec 2021 17:16:29.906,501.011
547,5 Dec 2021 18:46:33.598,5 Dec 2021 18:49:53.660,200.062
548,6 Dec 2021 06:19:20.109,6 Dec 2021 06:27:40.946,500.837
549,6 Dec 2021 07:55:54.193,6 Dec 2021 08:00:42.537,288.344
550,6 Dec 2021 15:40:05.508,6 Dec 2021 15:44:44.995,279.487
551,6 Dec 2021 17:13:01.403,6 Dec 2021 17:21:22.562,501.160
552,7 Dec 2021 04:50:57.040,7 Dec 2021 04:53:58.600,181.560
553,7 Dec 2021 06:24:12.571,7 Dec 2021 06:32:33.855,501.284
554,7 Dec 2021 08:01:10.904,7 Dec 2021 08:04:57.643,226.739
555,7 Dec 2021 15:44:27.381,7 Dec 2021 15:49:55.993,328.612
556,7 Dec 2021 17:17:56.389,7 Dec 2021 17:26:13.997,497.608
557,8 Dec 2021 04:55:10.701,8 Dec 2021 04:59:43.270,272.569
558,8 Dec 2021 06:29:06.213,8 Dec 2021 06:37:24.339,498.125
559,8 Dec 2021 08:06:43.172,8 Dec 2021 08:08:55.928,132.757
560,8 Dec 2021 15:48:54.724,8 Dec 2021 15:55:02.789,368.065
561,8 Dec 2021 17:22:53.955,8 Dec 2021 17:31:04.116,490.161
562,9 Dec 2021 04:59:38.835,9 Dec 2021 05:05:12.049,333.214
563,9 Dec 2021 06:34:01.007,9 Dec 2021 06:42:12.415,491.408
564,9 Dec 2021 15:53:26.197,9 Dec 2021 16:00:06.704,400.507
565,9 Dec 2021 17:27:54.244,9 Dec 2021 17:35:52.780,478.536
566,10 Dec 2021 05:04:13.950,10 Dec 2021 05:10:32.460,378.511
567,10 Dec 2021 06:38:56.980,10 Dec 2021 06:46:58.073,481.093
568,10 Dec 2021 15:58:01.102,10 Dec 2021 16:05:08.456,427.354
569,10 Dec 2021 17:32:57.481,10 Dec 2021 17:40:39.781,462.300
570,11 Dec 2021 05:08:53.463,11 Dec 2021 05:15:47.113,413.650
571,11 Dec 2021 06:43:54.172,11 Dec 2021 06:51:41.257,467.084
572,11 Dec 2021 16:02:39.008,11 Dec 2021 16:10:08.449,449.441
573,11 Dec 2021 17:38:03.977,11 Dec 2021 17:45:24.822,440.845
574,12 Dec 2021 05:13:36.117,12 Dec 2021 05:20:57.292,441.175
575,12 Dec 2021 06:48:52.698,12 Dec 2021 06:56:21.868,449.170
576,12 Dec 2021 16:07:19.652,12 Dec 2021 16:15:06.954,467.301
577,12 Dec 2021 17:43:14.208,12 Dec 2021 17:50:07.437,413.229
578,13 Dec 2021 05:18:21.187,13 Dec 2021 05:26:03.740,462.553
579,13 Dec 2021 06:53:52.714,13 Dec 2021 07:00:59.738,427.023
580,13 Dec 2021 16:12:02.874,13 Dec 2021 16:20:04.133,481.259
581,13 Dec 2021 17:48:28.930,13 Dec 2021 17:54:46.902,377.972
582,14 Dec 2021 05:23:08.212,14 Dec 2021 05:31:06.935,478.723
583,14 Dec 2021 06:58:54.486,14 Dec 2021 07:05:34.594,400.109
584,14 Dec 2021 16:16:48.568,14 Dec 2021 16:25:00.084,491.516
585,14 Dec 2021 17:53:49.433,14 Dec 2021 17:59:21.944,332.511
586,15 Dec 2021 05:27:56.899,15 Dec 2021 05:36:07.188,490.289
587,15 Dec 2021 07:03:58.438,15 Dec 2021 07:10:06.020,367.582
588,15 Dec 2021 14:50:04.142,15 Dec 2021 14:52:18.663,134.521
589,15 Dec 2021 16:21:36.673,15 Dec 2021 16:29:54.867,498.194
590,15 Dec 2021 17:59:18.357,15 Dec 2021 18:03:49.953,271.596
591,16 Dec 2021 05:32:47.040,16 Dec 2021 05:41:04.716,497.677
592,16 Dec 2021 07:09:05.278,16 Dec 2021 07:14:33.298,328.020
593,16 Dec 2021 14:54:02.830,16 Dec 2021 14:57:50.546,227.716
594,16 Dec 2021 16:26:27.190,16 Dec 2021 16:34:48.489,501.298
595,16 Dec 2021 18:05:03.369,16 Dec 2021 18:08:03.294,179.925
596,17 Dec 2021 05:37:38.489,17 Dec 2021 05:45:59.669,501.181
597,17 Dec 2021 07:14:16.351,17 Dec 2021 07:18:55.085,278.735
598,17 Dec 2021 14:58:18.073,17 Dec 2021 15:03:07.137,289.064
599,17 Dec 2021 16:31:20.130,17 Dec 2021 16:39:40.935,500.805
600,18 Dec 2021 04:09:06.767,18 Dec 2021 04:12:28.274,201.508
601,18 Dec 2021 05:42:31.159,18 Dec 2021 05:50:52.147,500.988
602,18 Dec 2021 07:19:34.762,18 Dec 2021 07:23:08.265,213.504
603,18 Dec 2021 15:02:41.059,18 Dec 2021 15:08:17.247,336.188
604,18 Dec 2021 16:36:15.564,18 Dec 2021 16:44:32.142,496.578
605,19 Dec 2021 04:13:24.154,19 Dec 2021 04:18:08.966,284.812
606,19 Dec 2021 05:47:25.008,19 Dec 2021 05:55:42.203,497.195
607,19 Dec 2021 07:25:13.161,19 Dec 2021 07:27:00.190,107.029
608,19 Dec 2021 15:07:09.206,19 Dec 2021 15:13:23.457,374.251
609,19 Dec 2021 16:41:13.600,19 Dec 2021 16:49:22.020,488.420
610,20 Dec 2021 04:17:53.828,20 Dec 2021 04:23:35.958,342.131
611,20 Dec 2021 05:52:20.008,20 Dec 2021 06:00:29.854,489.846
612,20 Dec 2021 15:11:41.326,20 Dec 2021 15:18:26.952,405.626
613,20 Dec 2021 16:46:14.390,20 Dec 2021 16:54:10.409,476.019
614,21 Dec 2021 04:22:29.851,21 Dec 2021 04:28:55.219,385.367
615,21 Dec 2021 05:57:16.188,21 Dec 2021 06:05:15.078,478.891
616,21 Dec 2021 15:16:16.782,21 Dec 2021 15:23:28.369,431.587
617,21 Dec 2021 16:51:18.177,21 Dec 2021 16:58:57.091,458.914
618,22 Dec 2021 04:27:09.990,22 Dec 2021 04:34:09.007,419.018
619,22 Dec 2021 06:02:13.607,22 Dec 2021 06:09:57.820,464.213
620,22 Dec 2021 15:20:55.186,22 Dec 2021 15:28:28.084,452.898
621,22 Dec 2021 16:56:25.291,22 Dec 2021 17:03:41.738,436.447
622,23 Dec 2021 04:31:53.115,23 Dec 2021 04:39:18.481,445.366
623,23 Dec 2021 06:07:12.382,23 Dec 2021 06:14:37.959,445.577
624,23 Dec 2021 15:25:36.299,23 Dec 2021 15:33:26.343,470.044
625,23 Dec 2021 17:01:36.251,23 Dec 2021 17:08:23.859,407.608
626,24 Dec 2021 04:36:38.557,24 Dec 2021 04:44:24.328,465.771
627,24 Dec 2021 06:12:12.686,24 Dec 2021 06:19:15.318,422.632
628,24 Dec 2021 15:30:19.963,24 Dec 2021 15:38:23.298,483.335
629,24 Dec 2021 17:06:51.880,24 Dec 2021 17:13:02.654,370.774
630,25 Dec 2021 04:41:25.894,25 Dec 2021 04:49:26.982,481.088
631,25 Dec 2021 06:17:14.805,25 Dec 2021 06:23:49.606,394.801
632,25 Dec 2021 15:35:06.087,25 Dec 2021 15:43:19.039,492.953
633,25 Dec 2021 17:12:13.614,25 Dec 2021 17:17:36.706,323.092
634,26 Dec 2021 04:46:14.852,26 Dec 2021 04:54:26.739,491.887
635,26 Dec 2021 06:22:19.204,26 Dec 2021 06:28:20.362,361.158
636,26 Dec 2021 14:08:10.767,26 Dec 2021 14:10:46.341,155.574
637,26 Dec 2021 15:39:54.618,26 Dec 2021 15:48:13.620,499.001
638,26 Dec 2021 17:17:44.538,26 Dec 2021 17:22:02.967,258.430
639,27 Dec 2021 04:51:05.232,27 Dec 2021 04:59:23.804,498.572
640,27 Dec 2021 06:27:26.667,27 Dec 2021 06:32:46.797,320.129
641,27 Dec 2021 14:12:13.935,27 Dec 2021 14:16:13.963,240.028
642,27 Dec 2021 15:44:45.561,27 Dec 2021 15:53:07.037,501.476
643,27 Dec 2021 17:23:34.678,27 Dec 2021 17:26:11.433,156.755
644,28 Dec 2021 03:23:36.929,28 Dec 2021 03:24:38.199,61.270
645,28 Dec 2021 04:55:56.900,28 Dec 2021 05:04:18.312,501.412
646,28 Dec 2021 06:32:38.723,28 Dec 2021 06:37:07.377,268.654
647,28 Dec 2021 14:16:30.869,28 Dec 2021 14:21:29.085,298.216
648,28 Dec 2021 15:49:38.940,28 Dec 2021 15:57:59.268,500.329
649,29 Dec 2021 03:27:17.540,29 Dec 2021 03:30:56.857,219.318
650,29 Dec 2021 05:00:49.783,29 Dec 2021 05:09:10.359,500.577
651,29 Dec 2021 06:37:59.115,29 Dec 2021 06:41:18.350,199.235
652,29 Dec 2021 14:20:54.894,29 Dec 2021 14:26:38.378,343.484
653,29 Dec 2021 15:54:34.825,29 Dec 2021 16:02:50.253,495.428
654,30 Dec 2021 03:31:37.960,30 Dec 2021 03:36:34.265,296.305
655,30 Dec 2021 05:05:43.832,30 Dec 2021 05:13:59.992,496.160
656,30 Dec 2021 06:43:47.621,30 Dec 2021 06:44:59.949,72.329
657,30 Dec 2021 14:25:23.810,30 Dec 2021 14:31:44.050,380.240
658,30 Dec 2021 15:59:33.328,30 Dec 2021 16:07:39.877,486.548
659,31 Dec 2021 03:36:09.012,31 Dec 2021 03:41:59.633,350.620
660,31 Dec 2021 05:10:39.039,31 Dec 2021 05:18:47.217,488.178
661,31 Dec 2021 14:29:56.556,31 Dec 2021 14:36:47.137,410.581
662,31 Dec 2021 16:04:34.629,31 Dec 2021 16:12:27.981,473.352
663,1 Jan 2022 03:40:45.880,1 Jan 2022 03:47:17.804,391.924
664,1 Jan 2022 05:15:35.434,1 Jan 2022 05:23:32.010,476.577
665,1 Jan 2022 14:34:32.556,1 Jan 2022 14:41:48.228,435.672
666,1 Jan 2022 16:09:38.974,1 Jan 2022 16:17:14.333,455.360
667,2 Jan 2022 03:45:26.611,2 Jan 2022 03:52:30.769,424.158
668,2 Jan 2022 05:20:33.083,2 Jan 2022 05:28:14.301,461.218
669,2 Jan 2022 14:39:11.454,2 Jan 2022 14:46:47.674,456.221
670,2 Jan 2022 16:14:46.726,2 Jan 2022 16:21:58.577,431.851
671,3 Jan 2022 03:50:10.182,3 Jan 2022 03:57:39.560,449.379
672,3 Jan 2022 05:25:32.111,3 Jan 2022 05:32:53.962,441.851
673,3 Jan 2022 14:43:53.026,3 Jan 2022 14:51:45.691,472.665
674,3 Jan 2022 16:19:58.438,3 Jan 2022 16:26:40.179,401.741
675,4 Jan 2022 03:54:55.983,4 Jan 2022 04:02:44.816,468.833
676,4 Jan 2022 05:30:32.714,4 Jan 2022 05:37:30.804,418.090
677,4 Jan 2022 14:48:37.127,4 Jan 2022 14:56:42.427,485.300
678,4 Jan 2022 16:25:15.013,4 Jan 2022 16:31:18.269,363.257
679,5 Jan 2022 03:59:43.627,5 Jan 2022 04:07:46.936,483.309
680,5 Jan 2022 05:35:35.195,5 Jan 2022 05:42:04.510,389.315
681,5 Jan 2022 14:53:23.676,5 Jan 2022 15:01:37.964,494.288
682,5 Jan 2022 16:30:38.071,5 Jan 2022 16:35:51.242,313.171
683,6 Jan 2022 04:04:32.846,6 Jan 2022 04:12:46.205,493.359
684,6 Jan 2022 05:40:40.064,6 Jan 2022 05:46:34.573,354.509
685,6 Jan 2022 13:26:18.758,6 Jan 2022 13:29:12.685,173.927
686,6 Jan 2022 14:58:12.638,6 Jan 2022 15:06:32.333,499.695
687,6 Jan 2022 16:36:11.241,6 Jan 2022 16:40:15.502,244.260
688,7 Jan 2022 04:09:23.465,7 Jan 2022 04:17:42.810,499.345
689,7 Jan 2022 05:45:48.195,7 Jan 2022 05:51:00.114,311.919
690,7 Jan 2022 13:30:25.429,7 Jan 2022 13:34:37.031,251.601
691,7 Jan 2022 15:03:04.007,7 Jan 2022 15:11:25.547,501.540
692,7 Jan 2022 16:42:08.333,7 Jan 2022 16:44:17.274,128.941
693,8 Jan 2022 02:41:32.734,8 Jan 2022 02:43:21.963,109.229
694,8 Jan 2022 04:14:15.356,8 Jan 2022 04:22:36.880,501.524
695,8 Jan 2022 05:51:01.335,8 Jan 2022 05:55:19.385,258.050
696,8 Jan 2022 13:34:43.877,8 Jan 2022 13:39:50.861,306.984
697,8 Jan 2022 15:07:57.823,8 Jan 2022 15:16:17.565,499.743
698,9 Jan 2022 02:45:29.116,9 Jan 2022 02:49:24.593,235.478
699,9 Jan 2022 04:19:08.442,9 Jan 2022 04:27:28.496,500.054
700,9 Jan 2022 05:56:24.084,9 Jan 2022 05:59:27.783,183.699
701,9 Jan 2022 13:39:08.878,9 Jan 2022 13:44:59.399,350.521
702,9 Jan 2022 15:12:54.157,9 Jan 2022 15:21:08.314,494.157
703,10 Jan 2022 02:49:52.074,10 Jan 2022 02:54:59.212,307.138
704,10 Jan 2022 04:24:02.700,10 Jan 2022 04:32:17.705,495.004
705,10 Jan 2022 13:43:38.526,10 Jan 2022 13:50:04.560,386.034
706,10 Jan 2022 15:17:53.145,10 Jan 2022 15:25:57.686,484.541
707,11 Jan 2022 02:54:24.373,11 Jan 2022 03:00:23.087,358.713
708,11 Jan 2022 04:28:58.114,11 Jan 2022 04:37:04.503,486.389
709,11 Jan 2022 13:48:11.886,11 Jan 2022 13:55:07.261,415.375
710,11 Jan 2022 15:22:54.962,11 Jan 2022 15:30:45.498,470.536
711,12 Jan 2022 02:59:02.027,12 Jan 2022 03:05:40.231,398.204
712,12 Jan 2022 04:33:54.720,12 Jan 2022 04:41:48.862,474.142
713,12 Jan 2022 13:52:48.420,12 Jan 2022 14:00:08.038,439.618
714,12 Jan 2022 15:27:59.879,12 Jan 2022 15:35:31.509,451.630
715,13 Jan 2022 03:03:43.319,13 Jan 2022 03:10:52.400,429.081
716,13 Jan 2022 04:38:52.602,13 Jan 2022 04:46:30.698,458.096
717,13 Jan 2022 13:57:27.804,13 Jan 2022 14:05:07.220,459.416
718,13 Jan 2022 15:33:08.285,13 Jan 2022 15:40:15.333,427.049
719,14 Jan 2022 03:08:27.321,14 Jan 2022 03:16:00.529,453.208
720,14 Jan 2022 04:43:51.892,14 Jan 2022 04:51:09.878,437.986
721,14 Jan 2022 14:02:09.831,14 Jan 2022 14:10:05.005,475.173
722,14 Jan 2022 15:38:20.777,14 Jan 2022 15:44:56.390,395.613
723,15 Jan 2022 03:13:13.471,15 Jan 2022 03:21:05.202,471.731
724,15 Jan 2022 04:48:52.801,15 Jan 2022 04:55:46.192,413.392
725,15 Jan 2022 14:06:54.374,15 Jan 2022 14:15:01.523,487.148
726,15 Jan 2022 15:43:38.348,15 Jan 2022 15:49:33.726,355.378
727,16 Jan 2022 03:18:01.410,16 Jan 2022 03:26:06.804,485.394
728,16 Jan 2022 04:53:55.660,16 Jan 2022 05:00:19.299,383.639
729,16 Jan 2022 12:40:58.032,16 Jan 2022 12:41:37.817,39.785
730,16 Jan 2022 14:11:41.347,16 Jan 2022 14:19:56.849,495.502
731,16 Jan 2022 15:49:02.831,16 Jan 2022 15:54:05.516,302.685
732,17 Jan 2022 03:22:50.885,17 Jan 2022 03:31:05.592,494.707
733,17 Jan 2022 04:59:01.026,17 Jan 2022 05:04:48.643,347.617
734,17 Jan 2022 12:44:27.728,17 Jan 2022 12:47:38.094,190.366
735,17 Jan 2022 14:16:30.733,17 Jan 2022 14:24:51.016,500.283
736,17 Jan 2022 15:54:38.564,17 Jan 2022 15:58:27.465,228.901
737,18 Jan 2022 03:27:41.738,18 Jan 2022 03:36:01.741,500.003
738,18 Jan 2022 05:04:09.875,18 Jan 2022 05:09:13.240,303.365
739,18 Jan 2022 12:48:37.255,18 Jan 2022 12:52:59.805,262.550
740,18 Jan 2022 14:21:22.529,18 Jan 2022 14:29:44.020,501.491
741,18 Jan 2022 16:00:46.393,18 Jan 2022 16:02:18.760,92.367
742,19 Jan 2022 01:59:36.466,19 Jan 2022 02:01:57.753,141.287
743,19 Jan 2022 03:32:33.840,19 Jan 2022 03:40:55.371,501.531
744,19 Jan 2022 05:09:24.225,19 Jan 2022 05:13:31.078,246.853
745,19 Jan 2022 12:52:57.086,19 Jan 2022 12:58:12.478,315.392
746,19 Jan 2022 14:26:16.785,19 Jan 2022 14:34:35.818,499.033
747,20 Jan 2022 02:03:41.333,20 Jan 2022 02:07:51.641,250.307
748,20 Jan 2022 03:37:27.138,20 Jan 2022 03:45:46.561,499.423
749,20 Jan 2022 05:14:49.848,20 Jan 2022 05:17:36.383,166.535
750,20 Jan 2022 12:57:23.006,20 Jan 2022 13:03:20.321,357.315
751,20 Jan 2022 14:31:13.577,20 Jan 2022 14:39:26.338,492.761
752,21 Jan 2022 02:08:06.462,21 Jan 2022 02:13:23.839,317.377
753,21 Jan 2022 03:42:21.601,21 Jan 2022 03:50:35.344,493.743
754,21 Jan 2022 13:01:53.362,21 Jan 2022 13:08:24.993,391.631
755,21 Jan 2022 14:36:13.050,21 Jan 2022 14:44:15.446,482.396
756,22 Jan 2022 02:12:39.901,22 Jan 2022 02:18:46.335,366.434
757,22 Jan 2022 03:47:17.217,22 Jan 2022 03:55:21.714,484.496
758,22 Jan 2022 13:06:27.315,22 Jan 2022 13:13:27.323,420.008
759,22 Jan 2022 14:41:15.392,22 Jan 2022 14:49:02.964,467.572
760,23 Jan 2022 02:17:18.289,23 Jan 2022 02:24:02.506,404.217
761,23 Jan 2022 03:52:14.046,23 Jan 2022 04:00:05.635,471.589
762,23 Jan 2022 13:11:04.372,23 Jan 2022 13:18:27.800,443.427
763,23 Jan 2022 14:46:20.893,23 Jan 2022 14:53:48.616,447.723
764,24 Jan 2022 02:22:00.112,24 Jan 2022 02:29:13.904,433.792
765,24 Jan 2022 03:57:12.164,24 Jan 2022 04:04:47.014,454.850
766,24 Jan 2022 13:15:44.236,24 Jan 2022 13:23:26.719,462.483
767,24 Jan 2022 14:51:29.968,24 Jan 2022 14:58:32.004,422.035
768,25 Jan 2022 02:26:44.527,25 Jan 2022 02:34:21.391,456.864
769,25 Jan 2022 04:02:11.723,25 Jan 2022 04:09:25.707,433.985
770,25 Jan 2022 13:20:26.715,25 Jan 2022 13:28:24.276,477.561
771,25 Jan 2022 14:56:43.273,25 Jan 2022 15:03:12.489,389.216
772,26 Jan 2022 02:31:31.016,26 Jan 2022 02:39:25.500,474.485
773,26 Jan 2022 04:07:12.948,26 Jan 2022 04:14:01.482,408.534
774,26 Jan 2022 13:25:11.694,26 Jan 2022 13:33:20.576,488.882
775,26 Jan 2022 15:02:01.895,26 Jan 2022 15:07:49.013,347.118
776,27 Jan 2022 02:36:19.241,27 Jan 2022 02:44:26.586,487.346
777,27 Jan 2022 04:12:16.203,27 Jan 2022 04:18:33.971,377.768
778,27 Jan 2022 11:58:50.739,27 Jan 2022 12:00:19.303,88.564
779,27 Jan 2022 13:29:59.097,27 Jan 2022 13:38:15.698,496.601
780,27 Jan 2022 15:07:27.924,27 Jan 2022 15:12:19.502,291.579
781,28 Jan 2022 02:41:08.974,28 Jan 2022 02:49:24.895,495.921
782,28 Jan 2022 04:17:22.094,28 Jan 2022 04:23:02.565,340.471
783,28 Jan 2022 12:02:37.447,28 Jan 2022 12:06:02.793,205.346
784,28 Jan 2022 13:34:48.904,28 Jan 2022 13:43:09.663,500.759
785,28 Jan 2022 15:13:06.635,28 Jan 2022 15:16:38.728,212.093
786,29 Jan 2022 02:46:00.046,29 Jan 2022 02:54:20.590,500.545
787,29 Jan 2022 04:22:31.720,29 Jan 2022 04:27:26.169,294.449
788,29 Jan 2022 12:06:49.386,29 Jan 2022 12:11:22.318,272.932
789,29 Jan 2022 13:39:41.129,29 Jan 2022 13:48:02.457,501.327
790,29 Jan 2022 15:19:43.860,29 Jan 2022 15:20:00.881,17.021
791,30 Jan 2022 01:17:43.415,30 Jan 2022 01:20:30.280,166.865
792,30 Jan 2022 02:50:52.372,30 Jan 2022 02:59:13.786,501.415
793,30 Jan 2022 04:27:47.432,30 Jan 2022 04:31:42.415,234.983
794,30 Jan 2022 12:11:10.480,30 Jan 2022 12:16:33.949,323.468
795,30 Jan 2022 13:44:35.822,30 Jan 2022 13:52:54.039,498.216
796,31 Jan 2022 01:21:54.081,31 Jan 2022 01:26:18.118,264.036
797,31 Jan 2022 02:55:45.874,31 Jan 2022 03:04:04.547,498.673
798,31 Jan 2022 04:33:16.682,31 Jan 2022 04:35:43.868,147.186
799,31 Jan 2022 12:15:37.272,31 Jan 2022 12:21:41.146,363.874
800,31 Jan 2022 13:49:33.083,31 Jan 2022 13:57:44.317,491.235
801,1 Feb 2022 01:26:21.097,1 Feb 2022 01:31:48.179,327.082
802,1 Feb 2022 03:00:40.533,1 Feb 2022 03:08:52.906,492.374
803,1 Feb 2022 12:20:08.309,1 Feb 2022 12:26:45.353,397.043
804,1 Feb 2022 13:54:33.044,1 Feb 2022 14:02:33.160,480.116
805,2 Feb 2022 01:30:55.571,2 Feb 2022 01:37:09.389,373.818
806,2 Feb 2022 03:05:36.365,2 Feb 2022 03:13:38.846,482.481
807,2 Feb 2022 12:24:42.841,2 Feb 2022 12:31:47.330,424.489
808,2 Feb 2022 13:59:35.924,2 Feb 2022 14:07:20.368,464.444
809,3 Feb 2022 01:35:34.652,3 Feb 2022 01:42:24.633,409.981
810,3 Feb 2022 03:10:33.411,3 Feb 2022 03:18:22.326,468.915
811,3 Feb 2022 12:29:20.414,3 Feb 2022 12:36:47.513,447.099
812,3 Feb 2022 14:04:42.020,3 Feb 2022 14:12:05.656,443.635
813,4 Feb 2022 01:40:16.984,4 Feb 2022 01:47:35.288,438.304
814,4 Feb 2022 03:15:31.771,4 Feb 2022 03:23:03.245,451.474
815,4 Feb 2022 12:34:00.749,4 Feb 2022 12:41:46.180,465.430
816,4 Feb 2022 14:09:51.785,4 Feb 2022 14:16:48.582,416.798
817,5 Feb 2022 01:45:01.797,5 Feb 2022 01:52:42.146,460.349
818,5 Feb 2022 03:20:31.604,5 Feb 2022 03:27:41.446,429.842
819,5 Feb 2022 12:38:43.678,5 Feb 2022 12:46:43.506,479.828
820,5 Feb 2022 14:15:05.932,5 Feb 2022 14:21:28.466,382.533
821,6 Feb 2022 01:49:48.613,6 Feb 2022 01:57:45.698,477.085
822,6 Feb 2022 03:25:33.157,6 Feb 2022 03:32:16.669,403.513
823,6 Feb 2022 12:43:29.083,6 Feb 2022 12:51:39.594,490.511
824,6 Feb 2022 14:20:25.666,6 Feb 2022 14:26:04.117,338.450
825,7 Feb 2022 01:54:37.120,7 Feb 2022 02:02:46.281,489.161
826,7 Feb 2022 03:30:36.824,7 Feb 2022 03:36:48.528,371.704
827,7 Feb 2022 11:16:52.875,7 Feb 2022 11:18:51.398,118.523
828,7 Feb 2022 12:48:16.916,7 Feb 2022 12:56:34.512,497.596
829,7 Feb 2022 14:25:53.386,7 Feb 2022 14:30:33.167,279.781
830,8 Feb 2022 01:59:27.099,8 Feb 2022 02:07:44.117,497.018
831,8 Feb 2022 03:35:43.274,8 Feb 2022 03:41:16.339,333.065
832,8 Feb 2022 11:20:47.767,8 Feb 2022 11:24:26.932,219.165
833,8 Feb 2022 12:53:07.151,8 Feb 2022 13:01:28.271,501.120
834,8 Feb 2022 14:31:35.646,8 Feb 2022 14:34:49.093,193.447
835,9 Feb 2022 02:04:18.398,9 Feb 2022 02:12:39.365,500.968
836,9 Feb 2022 03:40:53.746,9 Feb 2022 03:45:38.875,285.128
837,9 Feb 2022 11:25:01.785,9 Feb 2022 11:29:44.601,282.816
838,9 Feb 2022 12:57:59.806,9 Feb 2022 13:06:20.857,501.051
839,10 Feb 2022 00:35:52.254,10 Feb 2022 00:39:00.881,188.628
840,10 Feb 2022 02:09:10.936,10 Feb 2022 02:17:32.129,501.193
841,10 Feb 2022 03:46:11.008,10 Feb 2022 03:49:53.351,222.343
842,10 Feb 2022 11:29:24.049,10 Feb 2022 11:34:55.285,331.236
843,10 Feb 2022 13:02:54.945,10 Feb 2022 13:11:12.214,497.269
844,11 Feb 2022 00:40:07.278,11 Feb 2022 00:44:44.102,276.824
845,11 Feb 2022 02:14:04.644,11 Feb 2022 02:22:22.462,497.819
846,11 Feb 2022 03:51:45.098,11 Feb 2022 03:53:49.735,124.637
847,11 Feb 2022 11:33:51.671,11 Feb 2022 11:40:01.878,370.208
848,11 Feb 2022 13:07:52.671,11 Feb 2022 13:16:02.252,489.580
849,12 Feb 2022 00:44:35.956,12 Feb 2022 00:50:12.253,336.298
850,12 Feb 2022 02:18:59.510,12 Feb 2022 02:27:10.393,490.883
851,12 Feb 2022 11:38:23.367,12 Feb 2022 11:45:05.646,402.279
852,12 Feb 2022 13:12:53.131,12 Feb 2022 13:20:50.822,477.691
853,13 Feb 2022 00:49:11.387,13 Feb 2022 00:55:32.263,380.876
854,13 Feb 2022 02:23:55.549,13 Feb 2022 02:31:55.907,480.358
855,13 Feb 2022 11:42:58.463,13 Feb 2022 11:50:07.281,428.818
856,13 Feb 2022 13:17:56.554,13 Feb 2022 13:25:37.715,461.161
857,14 Feb 2022 00:53:51.117,14 Feb 2022 01:00:46.618,415.501
858,14 Feb 2022 02:28:52.819,14 Feb 2022 02:36:38.942,466.122
859,14 Feb 2022 11:47:36.541,14 Feb 2022 11:55:07.178,450.637
860,14 Feb 2022 13:23:03.260,14 Feb 2022 13:30:22.622,439.362
861,15 Feb 2022 00:58:33.934,15 Feb 2022 01:05:56.556,442.623
862,15 Feb 2022 02:33:51.429,15 Feb 2022 02:41:19.394,447.965
863,15 Feb 2022 11:52:17.344,15 Feb 2022 12:00:05.599,468.254
864,15 Feb 2022 13:28:13.737,15 Feb 2022 13:35:05.070,411.333
865,16 Feb 2022 01:03:19.131,16 Feb 2022 01:11:02.800,463.668
866,16 Feb 2022 02:38:51.543,16 Feb 2022 02:45:57.090,425.547
867,16 Feb 2022 11:57:00.717,16 Feb 2022 12:05:02.697,481.980
868,16 Feb 2022 13:33:28.766,16 Feb 2022 13:39:44.311,375.546
869,17 Feb 2022 01:08:06.263,17 Feb 2022 01:16:05.806,479.543
870,17 Feb 2022 02:43:53.429,17 Feb 2022 02:50:31.753,398.323
871,17 Feb 2022 12:01:46.558,17 Feb 2022 12:09:58.580,492.022
872,17 Feb 2022 13:38:49.680,17 Feb 2022 13:44:19.023,329.343
873,18 Feb 2022 01:12:55.043,18 Feb 2022 01:21:05.890,490.847
874,18 Feb 2022 02:48:57.533,18 Feb 2022 02:55:02.955,365.422
875,18 Feb 2022 10:34:58.220,18 Feb 2022 10:37:20.332,142.112
876,18 Feb 2022 12:06:34.810,18 Feb 2022 12:14:53.288,498.479
877,18 Feb 2022 13:44:19.264,18 Feb 2022 13:48:46.457,267.193
878,19 Feb 2022 01:17:45.266,19 Feb 2022 01:26:03.257,497.991
879,19 Feb 2022 02:54:04.578,19 Feb 2022 02:59:29.949,325.372
880,19 Feb 2022 10:38:58.586,19 Feb 2022 10:42:50.611,232.025
881,19 Feb 2022 12:11:25.472,19 Feb 2022 12:19:46.844,501.372
882,19 Feb 2022 13:50:05.884,19 Feb 2022 13:52:58.276,172.392
883,20 Feb 2022 01:22:36.791,20 Feb 2022 01:30:58.063,501.272
884,20 Feb 2022 02:59:15.973,20 Feb 2022 03:03:51.339,275.366
885,20 Feb 2022 10:43:14.430,20 Feb 2022 10:48:06.678,292.248
886,20 Feb 2022 12:16:18.560,20 Feb 2022 12:24:39.217,500.657
887,20 Feb 2022 23:54:02.375,20 Feb 2022 23:57:30.149,207.774
888,21 Feb 2022 01:27:29.532,21 Feb 2022 01:35:50.393,500.860
889,21 Feb 2022 03:04:35.021,21 Feb 2022 03:08:03.804,208.783
890,21 Feb 2022 10:47:37.781,21 Feb 2022 10:53:16.500,338.720
891,21 Feb 2022 12:21:14.152,21 Feb 2022 12:29:30.348,496.196
892,21 Feb 2022 23:58:20.859,22 Feb 2022 00:03:09.656,288.797
893,22 Feb 2022 01:32:23.447,22 Feb 2022 01:40:40.305,496.858
894,22 Feb 2022 03:10:16.194,22 Feb 2022 03:11:52.886,96.691
895,22 Feb 2022 10:52:06.193,22 Feb 2022 10:58:22.520,376.327
896,22 Feb 2022 12:26:12.347,22 Feb 2022 12:34:20.140,487.793
897,23 Feb 2022 00:02:51.018,23 Feb 2022 00:08:36.081,345.063
898,23 Feb 2022 01:37:18.518,23 Feb 2022 01:45:27.810,489.292
899,23 Feb 2022 10:56:38.532,23 Feb 2022 11:03:25.874,407.342
900,23 Feb 2022 12:31:13.310,23 Feb 2022 12:39:08.430,475.120
901,24 Feb 2022 00:07:27.335,24 Feb 2022 00:13:54.965,387.630
902,24 Feb 2022 01:42:14.773,24 Feb 2022 01:50:12.891,478.118
903,24 Feb 2022 11:01:14.176,24 Feb 2022 11:08:27.177,433.001
904,24 Feb 2022 12:36:17.285,24 Feb 2022 12:43:55.001,457.716
905,25 Feb 2022 00:12:07.678,25 Feb 2022 00:19:08.469,420.791
906,25 Feb 2022 01:47:12.269,25 Feb 2022 01:54:55.475,463.206
907,25 Feb 2022 11:05:52.749,25 Feb 2022 11:13:26.799,454.050
908,25 Feb 2022 12:41:24.617,25 Feb 2022 12:48:39.513,434.896
909,26 Feb 2022 00:16:50.958,26 Feb 2022 00:24:17.708,446.750
910,26 Feb 2022 01:52:11.131,26 Feb 2022 01:59:35.455,444.325
911,26 Feb 2022 11:10:34.020,26 Feb 2022 11:18:24.973,470.953
912,26 Feb 2022 12:46:35.832,26 Feb 2022 12:53:21.459,405.627
913,27 Feb 2022 00:21:36.524,27 Feb 2022 00:29:23.351,466.827
914,27 Feb 2022 01:57:11.534,27 Feb 2022 02:04:12.639,421.105
915,27 Feb 2022 11:15:17.834,27 Feb 2022 11:23:21.855,484.022
916,27 Feb 2022 12:51:51.781,27 Feb 2022 12:58:00.017,368.236
917,28 Feb 2022 00:26:23.965,28 Feb 2022 00:34:25.821,481.856
918,28 Feb 2022 02:02:13.774,28 Feb 2022 02:08:46.731,392.957
919,28 Feb 2022 11:20:04.100,28 Feb 2022 11:28:17.524,493.424
920,28 Feb 2022 12:57:13.955,28 Feb 2022 13:02:33.710,319.755
921,1 Mar 2022 00:31:13.012,1 Mar 2022 00:39:25.412,492.400
922,1 Mar 2022 02:07:18.329,1 Mar 2022 02:13:17.252,358.923
923,1 Mar 2022 09:53:05.373,1 Mar 2022 09:55:47.492,162.119
924,1 Mar 2022 11:24:52.781,1 Mar 2022 11:33:12.033,499.252
925,1 Mar 2022 13:02:45.617,1 Mar 2022 13:06:59.317,253.700
926,2 Mar 2022 00:36:03.472,2 Mar 2022 00:44:22.322,498.850
927,2 Mar 2022 02:12:26.014,2 Mar 2022 02:17:43.386,317.373
928,2 Mar 2022 09:57:09.830,2 Mar 2022 10:01:13.902,244.072
929,2 Mar 2022 11:29:43.870,2 Mar 2022 11:38:05.380,501.511
930,2 Mar 2022 13:08:37.875,2 Mar 2022 13:11:05.753,147.879
931,2 Mar 2022 23:08:25.876,2 Mar 2022 23:09:46.810,80.934
932,3 Mar 2022 00:40:55.216,3 Mar 2022 00:49:16.680,501.464
933,3 Mar 2022 02:17:38.425,3 Mar 2022 02:22:03.539,265.114
934,3 Mar 2022 10:01:27.306,3 Mar 2022 10:06:28.567,301.261
935,3 Mar 2022 11:34:37.396,3 Mar 2022 11:42:57.538,500.142
936,3 Mar 2022 23:12:13.444,3 Mar 2022 23:15:58.423,224.978
937,4 Mar 2022 00:45:48.174,4 Mar 2022 00:54:08.581,500.407
938,4 Mar 2022 02:22:59.568,4 Mar 2022 02:26:13.688,194.120
939,4 Mar 2022 10:05:51.668,4 Mar 2022 10:11:37.594,345.926
940,4 Mar 2022 11:39:33.433,4 Mar 2022 11:47:48.444,495.011
941,4 Mar 2022 23:16:34.775,4 Mar 2022 23:21:34.832,300.057
942,5 Mar 2022 00:50:42.288,5 Mar 2022 00:58:58.065,495.777
943,5 Mar 2022 02:28:53.774,5 Mar 2022 02:29:49.510,55.736
944,5 Mar 2022 10:10:20.838,5 Mar 2022 10:16:43.086,382.249
945,5 Mar 2022 11:44:32.105,5 Mar 2022 11:52:37.980,485.875
946,5 Mar 2022 23:21:06.266,5 Mar 2022 23:26:59.679,353.414
947,6 Mar 2022 00:55:37.568,6 Mar 2022 01:03:45.149,487.581
948,6 Mar 2022 10:14:53.797,6 Mar 2022 10:21:46.039,412.242
949,6 Mar 2022 11:49:33.582,6 Mar 2022 11:57:25.990,472.407
950,6 Mar 2022 23:25:43.406,6 Mar 2022 23:32:17.497,394.090
951,7 Mar 2022 01:00:34.033,7 Mar 2022 01:08:29.792,475.759
952,7 Mar 2022 10:19:29.981,7 Mar 2022 10:26:47.020,437.039
953,7 Mar 2022 11:54:38.122,7 Mar 2022 12:02:12.223,454.101
954,7 Mar 2022 23:30:24.332,7 Mar 2022 23:37:30.187,425.855
955,8 Mar 2022 01:05:31.761,8 Mar 2022 01:13:11.933,460.171
956,8 Mar 2022 10:24:09.046,8 Mar 2022 10:31:46.375,457.328
957,8 Mar 2022 11:59:46.096,8 Mar 2022 12:06:56.323,430.227
958,8 Mar 2022 23:35:08.051,8 Mar 2022 23:42:38.751,450.701
959,9 Mar 2022 01:10:30.878,9 Mar 2022 01:17:51.431,440.553
960,9 Mar 2022 10:28:50.775,9 Mar 2022 10:36:44.315,473.540
961,9 Mar 2022 12:04:58.077,9 Mar 2022 12:11:37.744,399.667
962,9 Mar 2022 23:39:53.972,9 Mar 2022 23:47:43.806,469.834
963,10 Mar 2022 01:15:31.583,10 Mar 2022 01:22:28.094,416.511
964,10 Mar 2022 10:33:35.027,10 Mar 2022 10:41:40.974,485.947
965,10 Mar 2022 12:10:14.982,10 Mar 2022 12:16:15.581,360.600
966,10 Mar 2022 23:44:41.717,10 Mar 2022 23:52:45.751,484.034
967,11 Mar 2022 01:20:34.191,11 Mar 2022 01:27:01.598,387.407
968,11 Mar 2022 10:38:21.727,11 Mar 2022 10:46:36.439,494.712
969,11 Mar 2022 12:15:38.516,11 Mar 2022 12:20:48.162,309.647
970,11 Mar 2022 23:49:31.023,11 Mar 2022 23:57:44.852,493.829
971,12 Mar 2022 01:25:39.226,12 Mar 2022 01:31:31.420,352.194
972,12 Mar 2022 09:11:13.736,12 Mar 2022 09:14:13.485,179.750
973,12 Mar 2022 10:43:10.829,12 Mar 2022 10:51:30.738,499.909
974,12 Mar 2022 12:21:12.523,12 Mar 2022 12:25:11.671,239.148
975,12 Mar 2022 23:54:21.722,13 Mar 2022 00:02:41.304,499.582
976,13 Mar 2022 01:30:47.594,13 Mar 2022 01:35:56.647,309.053
977,13 Mar 2022 09:15:21.446,13 Mar 2022 09:19:36.868,255.421
978,13 Mar 2022 10:48:02.344,13 Mar 2022 10:56:23.880,501.536
