csvfiles/Facility-Facility1-To-Satellite-SSO500_Access.csv

"Access","Start Time (UTCG)","Stop Time (UTCG)","Duration (sec)"
1,4 Aug 2021 13:39:57.055,4 Aug 2021 13:45:55.802,358.747
2,4 Aug 2021 15:13:13.360,4 Aug 2021 15:19:52.382,399.022
3,5 Aug 2021 00:21:33.589,5 Aug 2021 00:27:28.831,355.242
4,5 Aug 2021 01:54:33.021,5 Aug 2021 02:01:18.016,404.995
5,5 Aug 2021 13:17:47.940,5 Aug 2021 13:22:12.789,264.848
6,5 Aug 2021 14:50:16.182,5 Aug 2021 14:57:25.928,429.746
7,5 Aug 2021 23:59:36.651,6 Aug 2021 00:04:12.618,275.967
8,6 Aug 2021 01:31:27.997,6 Aug 2021 01:38:41.885,433.887
9,6 Aug 2021 14:27:25.511,6 Aug 2021 14:34:47.348,441.837
10,6 Aug 2021 16:03:16.281,6 Aug 2021 16:04:46.349,90.067
11,6 Aug 2021 23:38:19.816,6 Aug 2021 23:40:21.980,122.164
12,7 Aug 2021 01:08:36.184,7 Aug 2021 01:15:58.239,442.055
13,7 Aug 2021 14:04:41.187,7 Aug 2021 14:11:56.796,435.609
14,7 Aug 2021 15:39:15.205,7 Aug 2021 15:43:40.529,265.325
15,8 Aug 2021 00:45:56.399,8 Aug 2021 00:53:08.208,431.809
16,8 Aug 2021 02:21:18.879,8 Aug 2021 02:25:30.035,251.156
17,8 Aug 2021 13:42:04.190,8 Aug 2021 13:48:53.216,409.026
18,8 Aug 2021 15:15:57.192,8 Aug 2021 15:21:45.971,348.779
19,9 Aug 2021 00:23:28.661,9 Aug 2021 00:30:11.734,403.073
20,9 Aug 2021 01:57:32.296,9 Aug 2021 02:03:23.868,351.572
21,9 Aug 2021 13:19:37.398,9 Aug 2021 13:25:33.634,356.236
22,9 Aug 2021 14:52:52.227,9 Aug 2021 14:59:32.719,400.492
23,10 Aug 2021 00:01:14.417,10 Aug 2021 00:07:07.391,352.975
24,10 Aug 2021 01:34:11.471,10 Aug 2021 01:40:57.933,406.462
25,10 Aug 2021 12:57:29.296,10 Aug 2021 13:01:49.390,260.093
26,10 Aug 2021 14:29:55.303,10 Aug 2021 14:37:05.808,430.506
27,10 Aug 2021 23:39:18.308,10 Aug 2021 23:43:50.557,272.249
28,11 Aug 2021 01:11:06.967,11 Aug 2021 01:18:21.494,434.527
29,11 Aug 2021 14:07:04.860,11 Aug 2021 14:14:26.796,441.936
30,11 Aug 2021 15:42:49.857,11 Aug 2021 15:44:32.589,102.733
31,11 Aug 2021 23:18:04.878,11 Aug 2021 23:19:56.719,111.840
32,12 Aug 2021 00:48:15.604,12 Aug 2021 00:55:37.603,441.999
33,12 Aug 2021 13:44:20.779,12 Aug 2021 13:51:35.799,435.021
34,12 Aug 2021 15:18:53.075,12 Aug 2021 15:23:22.272,269.197
35,13 Aug 2021 00:25:36.249,13 Aug 2021 00:32:47.346,431.097
36,13 Aug 2021 02:00:55.346,13 Aug 2021 02:05:11.511,256.165
37,13 Aug 2021 13:21:44.086,13 Aug 2021 13:28:31.703,407.617
38,13 Aug 2021 14:55:35.724,13 Aug 2021 15:01:26.843,351.119
39,14 Aug 2021 00:03:08.967,14 Aug 2021 00:09:50.623,401.656
40,14 Aug 2021 01:37:10.076,14 Aug 2021 01:43:04.253,354.177
41,14 Aug 2021 12:59:17.765,14 Aug 2021 13:05:11.438,353.673
42,14 Aug 2021 14:32:31.106,14 Aug 2021 14:39:13.041,401.935
43,14 Aug 2021 23:40:55.269,14 Aug 2021 23:46:45.935,350.665
44,15 Aug 2021 01:13:49.943,15 Aug 2021 01:20:37.840,407.897
45,15 Aug 2021 12:37:10.719,15 Aug 2021 12:41:25.916,255.197
46,15 Aug 2021 14:09:34.435,15 Aug 2021 14:16:45.672,431.236
47,15 Aug 2021 23:19:00.010,15 Aug 2021 23:23:28.458,268.449
48,16 Aug 2021 00:50:45.954,16 Aug 2021 00:58:01.091,435.137
49,16 Aug 2021 13:46:44.218,16 Aug 2021 13:54:06.229,442.012
50,16 Aug 2021 15:22:24.160,16 Aug 2021 15:24:18.091,113.931
51,16 Aug 2021 22:57:50.509,16 Aug 2021 22:59:30.902,100.393
52,17 Aug 2021 00:27:55.040,17 Aug 2021 00:35:16.958,441.919
53,17 Aug 2021 13:24:00.376,17 Aug 2021 13:31:14.783,434.407
54,17 Aug 2021 14:58:30.984,17 Aug 2021 15:03:03.963,272.979
55,18 Aug 2021 00:05:16.115,18 Aug 2021 00:12:26.473,430.357
56,18 Aug 2021 01:40:31.886,18 Aug 2021 01:44:52.918,261.031
57,18 Aug 2021 13:01:23.996,18 Aug 2021 13:08:10.172,406.176
58,18 Aug 2021 14:35:14.272,18 Aug 2021 14:41:07.693,353.421
59,18 Aug 2021 23:42:49.289,18 Aug 2021 23:49:29.497,400.208
60,19 Aug 2021 01:16:47.884,19 Aug 2021 01:22:44.613,356.729
61,19 Aug 2021 12:38:58.153,19 Aug 2021 12:44:49.212,351.059
62,19 Aug 2021 14:12:09.994,19 Aug 2021 14:18:53.342,403.348
63,19 Aug 2021 23:20:36.144,19 Aug 2021 23:26:24.462,348.318
64,20 Aug 2021 00:53:28.434,20 Aug 2021 01:00:17.731,409.297
65,20 Aug 2021 12:16:52.208,20 Aug 2021 12:21:02.366,250.158
66,20 Aug 2021 13:49:13.572,20 Aug 2021 13:56:25.519,431.947
67,20 Aug 2021 22:58:41.755,20 Aug 2021 23:03:06.322,264.567
68,21 Aug 2021 00:30:24.957,21 Aug 2021 00:37:40.679,435.722
69,21 Aug 2021 13:26:23.582,21 Aug 2021 13:33:45.646,442.063
70,21 Aug 2021 15:01:58.984,21 Aug 2021 15:04:03.069,124.084
71,21 Aug 2021 22:37:36.918,21 Aug 2021 22:39:04.310,87.392
72,22 Aug 2021 00:07:34.490,22 Aug 2021 00:14:56.304,441.814
73,22 Aug 2021 13:03:39.986,22 Aug 2021 13:10:53.746,433.761
74,22 Aug 2021 14:38:08.926,22 Aug 2021 14:42:45.611,276.685
75,22 Aug 2021 23:44:55.998,22 Aug 2021 23:52:05.594,429.596
76,23 Aug 2021 01:20:08.502,23 Aug 2021 01:24:34.258,265.756
77,23 Aug 2021 12:41:03.918,23 Aug 2021 12:47:48.619,404.701
78,23 Aug 2021 14:14:52.834,23 Aug 2021 14:20:48.518,355.683
79,23 Aug 2021 23:22:29.629,23 Aug 2021 23:29:08.364,398.735
80,24 Aug 2021 00:56:25.724,24 Aug 2021 01:02:24.951,359.227
81,24 Aug 2021 12:18:38.566,24 Aug 2021 12:24:26.949,348.383
82,24 Aug 2021 13:51:48.893,24 Aug 2021 13:58:33.627,404.734
83,24 Aug 2021 23:00:17.042,24 Aug 2021 23:06:02.978,345.937
84,25 Aug 2021 00:33:06.947,25 Aug 2021 00:39:57.608,410.661
85,25 Aug 2021 11:56:33.775,25 Aug 2021 12:00:38.731,244.956
86,25 Aug 2021 13:28:52.719,25 Aug 2021 13:36:05.352,432.633
87,25 Aug 2021 22:38:23.547,25 Aug 2021 22:42:44.148,260.601
88,26 Aug 2021 00:10:03.979,26 Aug 2021 00:17:20.257,436.278
89,26 Aug 2021 13:06:02.957,26 Aug 2021 13:13:25.047,442.091
90,26 Aug 2021 14:41:34.215,26 Aug 2021 14:43:47.633,133.418
91,26 Aug 2021 22:17:24.530,26 Aug 2021 22:18:36.528,71.998
92,26 Aug 2021 23:47:13.958,26 Aug 2021 23:54:35.645,441.687
93,27 Aug 2021 12:43:19.606,27 Aug 2021 12:50:32.699,433.093
94,27 Aug 2021 14:17:46.904,27 Aug 2021 14:22:27.222,280.318
95,27 Aug 2021 23:24:35.897,27 Aug 2021 23:31:44.706,428.809
96,28 Aug 2021 00:59:45.188,28 Aug 2021 01:04:15.540,270.352
97,28 Aug 2021 12:20:43.854,28 Aug 2021 12:27:27.044,403.190
98,28 Aug 2021 13:54:31.414,28 Aug 2021 14:00:29.317,357.903
99,28 Aug 2021 23:02:09.988,28 Aug 2021 23:08:47.220,397.231
100,29 Aug 2021 00:36:03.597,29 Aug 2021 00:42:05.269,361.672
101,29 Aug 2021 11:58:19.004,29 Aug 2021 12:04:04.657,345.653
102,29 Aug 2021 13:31:27.802,29 Aug 2021 13:38:13.895,406.092
103,29 Aug 2021 22:39:57.965,29 Aug 2021 22:45:41.478,343.512
104,30 Aug 2021 00:12:45.481,30 Aug 2021 00:19:37.478,411.997
105,30 Aug 2021 11:36:15.419,30 Aug 2021 11:40:15.010,239.591
106,30 Aug 2021 13:08:31.874,30 Aug 2021 13:15:45.167,433.293
107,30 Aug 2021 22:18:05.389,30 Aug 2021 22:22:21.930,256.541
108,30 Aug 2021 23:49:43.020,30 Aug 2021 23:56:59.827,436.808
109,31 Aug 2021 12:45:42.339,31 Aug 2021 12:53:04.433,442.094
110,31 Aug 2021 14:21:09.774,31 Aug 2021 14:23:31.857,142.083
111,31 Aug 2021 21:57:14.380,31 Aug 2021 21:58:06.502,52.122
112,31 Aug 2021 23:26:53.441,31 Aug 2021 23:34:14.975,441.534
113,1 Sep 2021 12:22:59.235,1 Sep 2021 12:30:11.632,432.396
114,1 Sep 2021 13:57:24.915,1 Sep 2021 14:02:08.790,283.875
115,1 Sep 2021 23:04:15.812,1 Sep 2021 23:11:23.809,427.997
116,2 Sep 2021 00:39:21.938,2 Sep 2021 00:43:56.761,274.823
117,2 Sep 2021 12:00:23.801,2 Sep 2021 12:07:05.447,401.646
118,2 Sep 2021 13:34:10.007,2 Sep 2021 13:40:10.096,360.089
119,2 Sep 2021 22:41:50.365,2 Sep 2021 22:48:26.064,395.699
120,3 Sep 2021 00:15:41.494,3 Sep 2021 00:21:45.564,364.070
121,3 Sep 2021 11:37:59.466,3 Sep 2021 11:43:42.332,342.866
122,3 Sep 2021 13:11:06.723,3 Sep 2021 13:17:54.143,407.419
123,3 Sep 2021 22:19:38.910,3 Sep 2021 22:25:19.957,341.047
124,3 Sep 2021 23:52:24.034,3 Sep 2021 23:59:17.332,413.298
125,4 Sep 2021 11:15:57.150,4 Sep 2021 11:19:51.194,234.044
126,4 Sep 2021 12:48:11.040,4 Sep 2021 12:55:24.968,433.928
127,4 Sep 2021 21:57:47.280,4 Sep 2021 22:01:59.674,252.394
128,4 Sep 2021 23:29:22.073,4 Sep 2021 23:36:39.389,437.316
129,5 Sep 2021 12:25:21.729,5 Sep 2021 12:32:43.802,442.072
130,5 Sep 2021 14:00:45.594,5 Sep 2021 14:03:15.816,150.221
131,5 Sep 2021 21:37:12.631,5 Sep 2021 21:37:28.094,15.463
132,5 Sep 2021 23:06:32.939,5 Sep 2021 23:13:54.297,441.358
133,6 Sep 2021 00:43:54.742,6 Sep 2021 00:44:39.534,44.793
134,6 Sep 2021 12:02:38.875,6 Sep 2021 12:09:50.546,431.671
135,6 Sep 2021 13:37:02.955,6 Sep 2021 13:41:50.322,287.367
136,6 Sep 2021 22:43:55.740,6 Sep 2021 22:51:02.902,427.163
137,7 Sep 2021 00:18:58.753,7 Sep 2021 00:23:37.928,279.176
138,7 Sep 2021 11:40:03.768,7 Sep 2021 11:46:43.827,400.059
139,7 Sep 2021 13:13:48.615,7 Sep 2021 13:19:50.855,362.240
140,7 Sep 2021 22:21:30.759,7 Sep 2021 22:28:04.898,394.139
141,7 Sep 2021 23:55:19.422,8 Sep 2021 00:01:25.838,366.416
142,8 Sep 2021 11:17:39.956,8 Sep 2021 11:23:19.976,340.020
143,8 Sep 2021 12:50:45.652,8 Sep 2021 12:57:34.376,408.724
144,8 Sep 2021 21:59:19.882,8 Sep 2021 22:04:58.419,338.538
145,8 Sep 2021 23:32:02.608,8 Sep 2021 23:38:57.174,414.566
146,9 Sep 2021 10:55:38.974,9 Sep 2021 10:59:27.278,228.304
147,9 Sep 2021 12:27:50.212,9 Sep 2021 12:35:04.753,434.541
148,9 Sep 2021 21:37:29.225,9 Sep 2021 21:41:37.371,248.146
149,9 Sep 2021 23:09:01.145,9 Sep 2021 23:16:18.941,437.796
150,10 Sep 2021 12:05:01.129,10 Sep 2021 12:12:23.156,442.027
151,10 Sep 2021 13:40:21.648,10 Sep 2021 13:42:59.539,157.891
152,10 Sep 2021 22:46:12.454,10 Sep 2021 22:53:33.611,441.157
153,11 Sep 2021 00:23:20.240,11 Sep 2021 00:24:31.799,71.559
154,11 Sep 2021 11:42:18.525,11 Sep 2021 11:49:29.441,430.916
155,11 Sep 2021 13:16:41.028,11 Sep 2021 13:21:31.813,290.785
156,11 Sep 2021 22:23:35.687,11 Sep 2021 22:30:41.991,426.304
157,11 Sep 2021 23:58:35.628,12 Sep 2021 00:03:19.045,283.417
158,12 Sep 2021 11:19:43.745,12 Sep 2021 11:26:22.186,398.441
159,12 Sep 2021 12:53:27.240,12 Sep 2021 12:59:31.591,364.352
160,12 Sep 2021 22:01:11.173,12 Sep 2021 22:07:43.724,392.551
161,12 Sep 2021 23:34:57.377,12 Sep 2021 23:41:06.094,368.717
162,13 Sep 2021 10:57:20.471,13 Sep 2021 11:02:57.582,337.112
163,13 Sep 2021 12:30:24.591,13 Sep 2021 12:37:14.589,409.998
164,13 Sep 2021 21:39:00.879,13 Sep 2021 21:44:36.864,335.985
165,13 Sep 2021 23:11:41.201,13 Sep 2021 23:18:37.003,415.802
166,14 Sep 2021 10:35:20.895,14 Sep 2021 10:39:03.255,222.360
167,14 Sep 2021 12:07:29.390,14 Sep 2021 12:14:44.519,435.129
168,14 Sep 2021 21:17:11.226,14 Sep 2021 21:21:15.017,243.791
169,14 Sep 2021 22:48:40.233,14 Sep 2021 22:55:58.479,438.246
170,15 Sep 2021 11:44:40.536,15 Sep 2021 11:52:02.494,441.957
171,15 Sep 2021 13:19:57.889,15 Sep 2021 13:22:43.058,165.170
172,15 Sep 2021 22:25:51.983,15 Sep 2021 22:33:12.918,440.935
173,16 Sep 2021 00:02:49.602,16 Sep 2021 00:04:20.206,90.603
174,16 Sep 2021 11:21:58.184,16 Sep 2021 11:29:08.322,430.138
175,16 Sep 2021 12:56:19.128,16 Sep 2021 13:01:13.268,294.140
176,16 Sep 2021 22:03:15.649,16 Sep 2021 22:10:21.070,425.421
177,16 Sep 2021 23:38:12.559,16 Sep 2021 23:43:00.113,287.554
178,17 Sep 2021 10:59:23.736,17 Sep 2021 11:06:00.521,396.785
179,17 Sep 2021 12:33:05.875,17 Sep 2021 12:39:12.306,366.431
180,17 Sep 2021 21:40:51.606,17 Sep 2021 21:47:22.535,390.929
181,17 Sep 2021 23:14:35.360,17 Sep 2021 23:20:46.328,370.968
182,18 Sep 2021 10:37:01.013,18 Sep 2021 10:42:35.150,334.137
183,18 Sep 2021 12:10:03.538,18 Sep 2021 12:16:54.788,411.249
184,18 Sep 2021 21:18:41.901,18 Sep 2021 21:24:15.291,333.390
185,18 Sep 2021 22:51:19.817,18 Sep 2021 22:58:16.817,417.000
186,19 Sep 2021 10:15:02.926,19 Sep 2021 10:18:39.113,216.187
187,19 Sep 2021 11:47:08.579,19 Sep 2021 11:54:24.273,435.694
188,19 Sep 2021 20:56:53.286,19 Sep 2021 21:00:52.615,239.329
189,19 Sep 2021 22:28:19.340,19 Sep 2021 22:35:38.014,438.674
190,20 Sep 2021 11:24:19.952,20 Sep 2021 11:31:41.815,441.863
191,20 Sep 2021 12:59:34.300,20 Sep 2021 13:02:26.402,172.102
192,20 Sep 2021 22:05:31.529,20 Sep 2021 22:12:52.216,440.687
193,20 Sep 2021 23:42:20.718,20 Sep 2021 23:44:06.869,106.151
194,21 Sep 2021 11:01:37.852,21 Sep 2021 11:08:47.183,429.331
195,21 Sep 2021 12:35:57.257,21 Sep 2021 12:40:54.690,297.433
196,21 Sep 2021 21:42:55.628,21 Sep 2021 21:50:00.139,424.511
197,21 Sep 2021 23:17:49.548,21 Sep 2021 23:22:41.132,291.584
198,22 Sep 2021 10:39:03.744,22 Sep 2021 10:45:38.835,395.092
199,22 Sep 2021 12:12:44.525,22 Sep 2021 12:18:53.000,368.475
200,22 Sep 2021 21:20:32.057,22 Sep 2021 21:27:01.338,389.281
201,22 Sep 2021 22:54:13.371,22 Sep 2021 23:00:26.544,373.172
202,23 Sep 2021 10:16:41.586,23 Sep 2021 10:22:12.688,331.102
203,23 Sep 2021 11:49:42.497,23 Sep 2021 11:56:34.970,412.474
204,23 Sep 2021 20:58:22.951,23 Sep 2021 21:03:53.699,330.748
205,23 Sep 2021 22:30:58.451,23 Sep 2021 22:37:56.623,418.172
206,24 Sep 2021 09:54:45.074,24 Sep 2021 09:58:14.847,209.772
207,24 Sep 2021 11:26:47.777,24 Sep 2021 11:34:04.011,436.234
208,24 Sep 2021 20:36:35.407,24 Sep 2021 20:40:30.159,234.752
209,24 Sep 2021 22:07:58.461,24 Sep 2021 22:15:17.536,439.076
210,25 Sep 2021 11:03:59.377,25 Sep 2021 11:11:21.121,441.744
211,25 Sep 2021 12:39:10.864,25 Sep 2021 12:42:09.589,178.725
212,25 Sep 2021 21:45:11.091,25 Sep 2021 21:52:31.505,440.415
213,25 Sep 2021 23:21:52.891,25 Sep 2021 23:23:52.484,119.593
214,26 Sep 2021 10:41:17.532,26 Sep 2021 10:48:26.026,428.494
215,26 Sep 2021 12:15:35.414,26 Sep 2021 12:20:36.074,300.660
216,26 Sep 2021 21:22:35.623,26 Sep 2021 21:29:39.199,423.576
217,26 Sep 2021 22:57:26.589,26 Sep 2021 23:02:22.106,295.517
218,27 Sep 2021 10:18:43.766,27 Sep 2021 10:25:17.127,393.361
219,27 Sep 2021 11:52:23.189,27 Sep 2021 11:58:33.672,370.482
220,27 Sep 2021 21:00:12.528,27 Sep 2021 21:06:40.131,387.603
221,27 Sep 2021 22:33:51.409,27 Sep 2021 22:40:06.741,375.332
222,28 Sep 2021 09:56:22.186,28 Sep 2021 10:01:50.183,327.997
223,28 Sep 2021 11:29:21.464,28 Sep 2021 11:36:15.136,413.672
224,28 Sep 2021 20:38:04.026,28 Sep 2021 20:43:32.085,328.058
225,28 Sep 2021 22:10:37.103,28 Sep 2021 22:17:36.416,419.313
226,29 Sep 2021 09:34:27.352,29 Sep 2021 09:37:50.445,203.093
227,29 Sep 2021 11:06:26.982,29 Sep 2021 11:13:43.734,436.752
228,29 Sep 2021 20:16:17.589,29 Sep 2021 20:20:07.643,230.054
229,29 Sep 2021 21:47:37.599,29 Sep 2021 21:54:57.049,439.450
230,30 Sep 2021 10:43:38.810,30 Sep 2021 10:51:00.410,441.600
231,30 Sep 2021 12:18:47.557,30 Sep 2021 12:21:52.633,185.076
232,30 Sep 2021 21:24:50.667,30 Sep 2021 21:32:10.789,440.122
233,30 Sep 2021 23:01:25.801,30 Sep 2021 23:03:37.363,131.562
234,1 Oct 2021 10:20:57.222,1 Oct 2021 10:28:04.851,427.629
235,1 Oct 2021 11:55:13.595,1 Oct 2021 12:00:17.428,303.832
236,1 Oct 2021 21:02:15.633,1 Oct 2021 21:09:18.249,422.616
237,1 Oct 2021 22:37:03.681,1 Oct 2021 22:42:03.036,299.355
238,2 Oct 2021 09:58:23.803,2 Oct 2021 10:04:55.394,391.591
239,2 Oct 2021 11:32:01.866,2 Oct 2021 11:38:14.325,372.459
240,2 Oct 2021 20:39:53.015,2 Oct 2021 20:46:18.909,385.894
241,2 Oct 2021 22:13:29.472,2 Oct 2021 22:19:46.918,377.445
242,3 Oct 2021 09:36:02.817,3 Oct 2021 09:41:27.640,324.824
243,3 Oct 2021 11:09:00.440,3 Oct 2021 11:15:55.281,414.841
244,3 Oct 2021 20:17:45.128,3 Oct 2021 20:23:10.459,325.331
245,3 Oct 2021 21:50:15.774,3 Oct 2021 21:57:16.198,420.424
246,4 Oct 2021 09:14:09.775,4 Oct 2021 09:17:25.884,196.109
247,4 Oct 2021 10:46:06.196,4 Oct 2021 10:53:23.442,437.246
248,4 Oct 2021 19:55:59.841,4 Oct 2021 19:59:45.070,225.229
249,4 Oct 2021 21:27:16.755,4 Oct 2021 21:34:36.557,439.802
250,5 Oct 2021 10:23:18.252,5 Oct 2021 10:30:39.684,441.432
251,5 Oct 2021 11:58:24.367,5 Oct 2021 12:01:35.555,191.188
252,5 Oct 2021 21:04:30.259,5 Oct 2021 21:11:50.062,439.802
253,5 Oct 2021 22:40:59.267,5 Oct 2021 22:43:21.705,142.438
254,6 Oct 2021 10:00:36.924,6 Oct 2021 10:07:43.660,426.737
255,6 Oct 2021 11:34:51.803,6 Oct 2021 11:39:58.749,306.946
256,6 Oct 2021 20:41:55.661,6 Oct 2021 20:48:57.292,421.631
257,6 Oct 2021 22:16:40.824,6 Oct 2021 22:21:43.925,303.101
258,7 Oct 2021 09:38:03.857,7 Oct 2021 09:44:33.641,389.785
259,7 Oct 2021 11:11:40.556,7 Oct 2021 11:17:54.957,374.401
260,7 Oct 2021 20:19:33.522,7 Oct 2021 20:25:57.675,384.153
261,7 Oct 2021 21:53:07.564,7 Oct 2021 21:59:27.075,379.511
262,8 Oct 2021 09:15:43.481,8 Oct 2021 09:21:05.064,321.583
263,8 Oct 2021 10:48:39.423,8 Oct 2021 10:55:35.415,415.992
264,8 Oct 2021 19:57:26.259,8 Oct 2021 20:02:48.808,322.548
265,8 Oct 2021 21:29:54.466,8 Oct 2021 21:36:55.970,421.504
266,9 Oct 2021 08:53:52.356,9 Oct 2021 08:57:01.166,188.810
267,9 Oct 2021 10:25:45.418,9 Oct 2021 10:33:03.133,437.715
268,9 Oct 2021 19:35:42.168,9 Oct 2021 19:39:22.429,220.261
269,9 Oct 2021 21:06:55.927,9 Oct 2021 21:14:16.055,440.128
270,10 Oct 2021 10:02:57.702,10 Oct 2021 10:10:18.941,441.239
271,10 Oct 2021 11:38:01.290,10 Oct 2021 11:41:18.361,197.071
272,10 Oct 2021 20:44:09.868,10 Oct 2021 20:51:29.326,439.459
273,10 Oct 2021 22:20:33.169,10 Oct 2021 22:23:05.621,152.453
274,11 Oct 2021 09:40:16.635,11 Oct 2021 09:47:22.449,425.814
275,11 Oct 2021 11:14:30.035,11 Oct 2021 11:19:40.035,310.000
276,11 Oct 2021 20:21:35.704,11 Oct 2021 20:28:36.325,420.621
277,11 Oct 2021 21:56:18.013,11 Oct 2021 22:01:24.775,306.762
278,12 Oct 2021 09:17:43.925,12 Oct 2021 09:24:11.862,387.937
279,12 Oct 2021 10:51:19.259,12 Oct 2021 10:57:35.567,376.308
280,12 Oct 2021 19:59:14.047,12 Oct 2021 20:05:36.428,382.380
281,12 Oct 2021 21:32:45.678,12 Oct 2021 21:39:07.216,381.538
282,13 Oct 2021 08:55:24.173,13 Oct 2021 09:00:42.443,318.270
283,13 Oct 2021 10:28:18.418,13 Oct 2021 10:35:15.529,417.111
284,13 Oct 2021 19:37:07.417,13 Oct 2021 19:42:27.135,319.717
285,13 Oct 2021 21:09:33.174,13 Oct 2021 21:16:35.728,422.554
286,14 Oct 2021 08:33:35.113,14 Oct 2021 08:36:36.253,181.141
287,14 Oct 2021 10:05:24.648,14 Oct 2021 10:12:42.806,438.158
288,14 Oct 2021 19:15:24.569,14 Oct 2021 19:18:59.717,215.147
289,14 Oct 2021 20:46:35.114,14 Oct 2021 20:53:55.543,440.429
290,15 Oct 2021 09:42:37.160,15 Oct 2021 09:49:58.183,441.023
291,15 Oct 2021 11:17:38.308,15 Oct 2021 11:21:01.060,202.752
292,15 Oct 2021 20:23:49.490,15 Oct 2021 20:31:08.585,439.095
293,15 Oct 2021 22:00:07.420,15 Oct 2021 22:02:49.187,161.767
294,16 Oct 2021 09:19:56.360,16 Oct 2021 09:27:01.221,424.861
295,16 Oct 2021 10:54:08.293,16 Oct 2021 10:59:21.292,312.998
296,16 Oct 2021 20:01:15.761,16 Oct 2021 20:08:15.349,419.588
297,16 Oct 2021 21:35:55.249,16 Oct 2021 21:41:05.585,310.336
298,17 Oct 2021 08:57:24.011,17 Oct 2021 09:03:50.058,386.048
299,17 Oct 2021 10:30:57.974,17 Oct 2021 10:37:16.159,378.185
300,17 Oct 2021 19:38:54.592,17 Oct 2021 19:45:15.172,380.580
301,17 Oct 2021 21:12:23.819,17 Oct 2021 21:18:47.339,383.521
302,18 Oct 2021 08:35:04.902,18 Oct 2021 08:40:19.780,314.878
303,18 Oct 2021 10:07:57.422,18 Oct 2021 10:14:55.622,418.200
304,18 Oct 2021 19:16:48.604,18 Oct 2021 19:22:05.441,316.836
305,18 Oct 2021 20:49:11.899,18 Oct 2021 20:56:15.477,423.578
306,19 Oct 2021 08:13:18.077,19 Oct 2021 08:16:11.129,173.052
307,19 Oct 2021 09:45:03.886,19 Oct 2021 09:52:22.467,438.580
308,19 Oct 2021 18:55:07.054,19 Oct 2021 18:58:36.937,209.883
309,19 Oct 2021 20:26:14.319,19 Oct 2021 20:33:35.020,440.701
310,20 Oct 2021 09:22:16.629,20 Oct 2021 09:29:37.409,440.780
311,20 Oct 2021 10:57:15.418,20 Oct 2021 11:00:43.658,208.240
312,20 Oct 2021 20:03:29.130,20 Oct 2021 20:10:47.831,438.701
313,20 Oct 2021 21:39:41.973,20 Oct 2021 21:42:32.463,170.490
314,21 Oct 2021 08:59:36.094,21 Oct 2021 09:06:39.974,423.880
315,21 Oct 2021 10:33:46.568,21 Oct 2021 10:39:02.517,315.949
316,21 Oct 2021 19:40:55.838,21 Oct 2021 19:47:54.366,418.528
317,21 Oct 2021 21:15:32.530,21 Oct 2021 21:20:46.360,313.830
318,22 Oct 2021 08:37:04.113,22 Oct 2021 08:43:28.231,384.118
319,22 Oct 2021 10:10:36.703,22 Oct 2021 10:16:56.728,380.025
320,22 Oct 2021 19:18:35.158,22 Oct 2021 19:24:53.907,378.749
321,22 Oct 2021 20:52:01.984,22 Oct 2021 20:58:27.449,385.464
322,23 Oct 2021 08:14:45.667,23 Oct 2021 08:19:57.075,311.407
323,23 Oct 2021 09:47:36.436,23 Oct 2021 09:54:35.704,419.268
324,23 Oct 2021 18:56:29.823,23 Oct 2021 19:01:43.727,313.904
325,23 Oct 2021 20:28:50.646,23 Oct 2021 20:35:55.215,424.569
326,24 Oct 2021 07:53:01.276,24 Oct 2021 07:55:45.763,164.487
327,24 Oct 2021 09:24:43.133,24 Oct 2021 09:32:02.111,438.978
328,24 Oct 2021 18:34:49.629,24 Oct 2021 18:38:14.068,204.439
329,24 Oct 2021 20:05:53.539,24 Oct 2021 20:13:14.491,440.952
330,25 Oct 2021 09:01:56.105,25 Oct 2021 09:09:16.620,440.516
331,25 Oct 2021 10:36:52.612,25 Oct 2021 10:40:26.169,213.556
332,25 Oct 2021 19:43:08.785,25 Oct 2021 19:50:27.073,438.289
333,25 Oct 2021 21:19:16.775,25 Oct 2021 21:22:15.495,178.720
334,26 Oct 2021 08:39:15.838,26 Oct 2021 08:46:18.707,422.869
335,26 Oct 2021 10:13:24.872,26 Oct 2021 10:18:43.711,318.840
336,26 Oct 2021 19:20:35.930,26 Oct 2021 19:27:33.376,417.446
337,26 Oct 2021 20:55:09.857,26 Oct 2021 21:00:27.099,317.242
338,27 Oct 2021 08:16:44.231,27 Oct 2021 08:23:06.379,382.148
339,27 Oct 2021 09:50:15.443,27 Oct 2021 09:56:37.277,381.834
340,27 Oct 2021 18:58:15.742,27 Oct 2021 19:04:32.625,376.883
341,27 Oct 2021 20:31:40.173,27 Oct 2021 20:38:07.539,387.366
342,28 Oct 2021 07:54:26.463,28 Oct 2021 07:59:34.324,307.861
343,28 Oct 2021 09:27:15.460,28 Oct 2021 09:34:15.768,420.308
344,28 Oct 2021 18:36:11.069,28 Oct 2021 18:41:21.988,310.919
345,28 Oct 2021 20:08:29.411,28 Oct 2021 20:15:34.938,425.527
346,29 Oct 2021 07:32:44.750,29 Oct 2021 07:35:20.112,155.362
347,29 Oct 2021 09:04:22.387,29 Oct 2021 09:11:41.736,439.349
348,29 Oct 2021 18:14:32.297,29 Oct 2021 18:17:51.118,198.821
349,29 Oct 2021 19:45:32.775,29 Oct 2021 19:52:53.950,441.175
350,30 Oct 2021 08:41:35.592,30 Oct 2021 08:48:55.812,440.220
351,30 Oct 2021 10:16:29.880,30 Oct 2021 10:20:08.595,218.715
352,30 Oct 2021 19:22:48.455,30 Oct 2021 19:30:06.307,437.853
353,30 Oct 2021 20:58:51.803,30 Oct 2021 21:01:58.317,186.515
354,31 Oct 2021 08:18:55.594,31 Oct 2021 08:25:57.421,421.828
355,31 Oct 2021 09:53:03.192,31 Oct 2021 09:58:24.879,321.687
356,31 Oct 2021 19:00:16.039,31 Oct 2021 19:07:12.370,416.332
357,31 Oct 2021 20:34:47.220,31 Oct 2021 20:40:07.803,320.583
358,1 Nov 2021 07:56:24.367,1 Nov 2021 08:02:44.502,380.135
359,1 Nov 2021 09:29:54.195,1 Nov 2021 09:36:17.809,383.614
360,1 Nov 2021 18:37:56.346,1 Nov 2021 18:44:11.331,374.984
361,1 Nov 2021 20:11:18.387,1 Nov 2021 20:17:47.613,389.226
362,2 Nov 2021 07:34:07.301,2 Nov 2021 07:39:11.528,304.227
363,2 Nov 2021 09:06:54.491,2 Nov 2021 09:13:55.817,421.326
364,2 Nov 2021 18:15:52.347,2 Nov 2021 18:21:00.226,307.880
365,2 Nov 2021 19:48:08.195,2 Nov 2021 19:55:14.654,426.459
366,3 Nov 2021 07:12:28.553,3 Nov 2021 07:14:54.126,145.573
367,3 Nov 2021 08:44:01.650,3 Nov 2021 08:51:21.350,439.700
368,3 Nov 2021 17:54:15.068,3 Nov 2021 17:57:28.070,193.002
369,3 Nov 2021 19:25:12.028,3 Nov 2021 19:32:33.404,441.376
370,4 Nov 2021 08:21:15.083,4 Nov 2021 08:28:34.988,439.904
371,4 Nov 2021 09:56:07.220,4 Nov 2021 09:59:50.945,223.725
372,4 Nov 2021 19:02:28.141,4 Nov 2021 19:09:45.528,437.387
373,4 Nov 2021 20:38:27.023,4 Nov 2021 20:41:40.951,193.928
374,5 Nov 2021 07:58:35.361,5 Nov 2021 08:05:36.118,420.757
375,5 Nov 2021 09:32:41.535,5 Nov 2021 09:38:06.018,324.483
376,5 Nov 2021 18:39:56.168,5 Nov 2021 18:46:51.358,415.190
377,5 Nov 2021 20:14:24.628,5 Nov 2021 20:19:48.472,323.844
378,6 Nov 2021 07:36:04.521,6 Nov 2021 07:42:22.602,378.082
379,6 Nov 2021 09:09:32.959,6 Nov 2021 09:15:58.325,385.366
380,6 Nov 2021 18:17:36.972,6 Nov 2021 18:23:50.025,373.053
381,6 Nov 2021 19:50:56.625,6 Nov 2021 19:57:27.670,391.045
382,7 Nov 2021 07:13:48.177,7 Nov 2021 07:18:48.685,300.509
383,7 Nov 2021 08:46:33.531,7 Nov 2021 08:53:35.849,422.318
384,7 Nov 2021 17:55:33.657,7 Nov 2021 18:00:38.438,304.781
385,7 Nov 2021 19:27:46.997,7 Nov 2021 19:34:54.357,427.360
386,8 Nov 2021 06:52:12.744,8 Nov 2021 06:54:27.733,134.989
387,8 Nov 2021 08:23:40.920,8 Nov 2021 08:31:00.947,440.027
388,8 Nov 2021 17:33:57.957,8 Nov 2021 17:37:04.914,186.957
389,8 Nov 2021 19:04:51.296,8 Nov 2021 19:12:12.848,441.552
390,9 Nov 2021 08:00:54.585,9 Nov 2021 08:08:14.146,439.561
391,9 Nov 2021 09:35:44.627,9 Nov 2021 09:39:33.218,228.592
392,9 Nov 2021 18:42:07.842,9 Nov 2021 18:49:24.745,436.903
393,9 Nov 2021 20:18:02.414,9 Nov 2021 20:21:23.419,201.005
394,10 Nov 2021 07:38:15.137,10 Nov 2021 07:45:14.793,419.656
395,10 Nov 2021 09:12:19.895,10 Nov 2021 09:17:47.129,327.234
396,10 Nov 2021 18:19:36.310,10 Nov 2021 18:26:30.340,414.031
397,10 Nov 2021 19:54:02.073,10 Nov 2021 19:59:29.113,327.040
398,11 Nov 2021 07:15:44.691,11 Nov 2021 07:22:00.673,375.982
399,11 Nov 2021 08:49:11.732,11 Nov 2021 08:55:38.818,387.086
400,11 Nov 2021 17:57:17.616,11 Nov 2021 18:03:28.703,371.087
401,11 Nov 2021 19:30:34.885,11 Nov 2021 19:37:07.712,392.826
402,12 Nov 2021 06:53:29.094,12 Nov 2021 06:58:25.792,296.698
403,12 Nov 2021 08:26:12.579,12 Nov 2021 08:33:15.864,423.286
404,12 Nov 2021 17:35:14.997,12 Nov 2021 17:40:16.630,301.633
405,12 Nov 2021 19:07:25.819,12 Nov 2021 19:14:34.051,428.232
406,13 Nov 2021 06:31:57.447,13 Nov 2021 06:34:00.828,123.381
407,13 Nov 2021 08:03:20.199,13 Nov 2021 08:10:40.529,440.330
408,13 Nov 2021 17:13:40.961,13 Nov 2021 17:16:41.644,180.682
409,13 Nov 2021 18:44:30.581,13 Nov 2021 18:51:52.284,441.703
410,14 Nov 2021 07:40:34.097,14 Nov 2021 07:47:53.288,439.191
411,14 Nov 2021 09:15:22.095,14 Nov 2021 09:19:15.424,233.329
412,14 Nov 2021 18:21:47.559,14 Nov 2021 18:29:03.955,436.396
413,14 Nov 2021 19:57:37.965,14 Nov 2021 20:01:05.735,207.770
414,15 Nov 2021 07:17:54.924,15 Nov 2021 07:24:53.451,418.527
415,15 Nov 2021 08:51:58.278,15 Nov 2021 08:57:28.208,329.931
416,15 Nov 2021 17:59:16.469,15 Nov 2021 18:06:09.310,412.841
417,15 Nov 2021 19:33:39.559,15 Nov 2021 19:39:09.725,330.166
418,16 Nov 2021 06:55:24.882,16 Nov 2021 07:01:38.718,373.835
419,16 Nov 2021 08:28:50.519,16 Nov 2021 08:35:19.293,388.774
420,16 Nov 2021 17:36:58.282,16 Nov 2021 17:43:07.370,369.088
421,16 Nov 2021 19:10:13.171,16 Nov 2021 19:16:47.740,394.569
422,17 Nov 2021 06:33:10.054,17 Nov 2021 06:38:02.849,292.795
423,17 Nov 2021 08:05:51.637,17 Nov 2021 08:12:55.865,424.228
424,17 Nov 2021 17:14:56.373,17 Nov 2021 17:19:54.793,298.420
425,17 Nov 2021 18:47:04.658,17 Nov 2021 18:54:13.735,429.078
426,18 Nov 2021 06:11:42.812,18 Nov 2021 06:13:33.255,110.443
427,18 Nov 2021 07:42:59.487,18 Nov 2021 07:50:20.092,440.606
428,18 Nov 2021 16:53:24.104,18 Nov 2021 16:56:18.248,174.144
429,18 Nov 2021 18:24:09.882,18 Nov 2021 18:31:31.712,441.830
430,19 Nov 2021 07:20:13.619,19 Nov 2021 07:27:32.420,438.801
431,19 Nov 2021 08:54:59.619,19 Nov 2021 08:58:57.563,237.945
432,19 Nov 2021 18:01:27.292,19 Nov 2021 18:08:43.153,435.862
433,19 Nov 2021 19:37:13.657,19 Nov 2021 19:40:47.924,214.266
434,20 Nov 2021 06:57:34.726,20 Nov 2021 07:04:32.093,417.367
435,20 Nov 2021 08:31:36.681,20 Nov 2021 08:37:09.265,332.584
436,20 Nov 2021 17:38:56.645,20 Nov 2021 17:45:48.268,411.623
437,20 Nov 2021 19:13:17.082,20 Nov 2021 19:18:50.303,333.221
438,21 Nov 2021 06:35:05.091,21 Nov 2021 06:41:16.737,371.647
439,21 Nov 2021 08:08:29.317,21 Nov 2021 08:14:59.748,390.431
440,21 Nov 2021 17:16:38.969,21 Nov 2021 17:22:46.024,367.055
441,21 Nov 2021 18:49:51.478,21 Nov 2021 18:56:27.752,396.274
442,22 Nov 2021 06:12:51.057,22 Nov 2021 06:17:39.853,288.796
443,22 Nov 2021 07:45:30.703,22 Nov 2021 07:52:35.849,425.146
444,22 Nov 2021 16:54:37.783,22 Nov 2021 16:59:32.928,295.145
445,22 Nov 2021 18:26:43.513,22 Nov 2021 18:33:53.409,429.896
446,23 Nov 2021 05:51:29.106,23 Nov 2021 05:53:04.739,95.633
447,23 Nov 2021 07:22:38.781,23 Nov 2021 07:29:59.643,440.861
448,23 Nov 2021 16:33:07.401,23 Nov 2021 16:35:54.706,167.305
449,23 Nov 2021 18:03:49.198,23 Nov 2021 18:11:11.129,441.931
450,24 Nov 2021 06:59:53.149,24 Nov 2021 07:07:11.526,438.378
451,24 Nov 2021 08:34:37.199,24 Nov 2021 08:38:39.639,242.441
452,24 Nov 2021 17:41:07.044,24 Nov 2021 17:48:22.343,435.299
453,24 Nov 2021 19:16:49.479,24 Nov 2021 19:20:29.989,220.510
454,25 Nov 2021 06:37:14.538,25 Nov 2021 06:44:10.708,416.170
455,25 Nov 2021 08:11:15.101,25 Nov 2021 08:16:50.298,335.198
456,25 Nov 2021 17:18:36.837,25 Nov 2021 17:25:27.218,410.381
457,25 Nov 2021 18:52:54.640,25 Nov 2021 18:58:30.856,336.215
458,26 Nov 2021 06:14:45.319,26 Nov 2021 06:20:54.727,369.408
459,26 Nov 2021 07:48:08.123,26 Nov 2021 07:54:40.182,392.059
460,26 Nov 2021 16:56:19.677,26 Nov 2021 17:02:24.664,364.987
461,26 Nov 2021 18:29:29.808,26 Nov 2021 18:36:07.749,397.941
462,27 Nov 2021 05:52:32.109,27 Nov 2021 05:57:16.799,284.690
463,27 Nov 2021 07:25:09.777,27 Nov 2021 07:32:15.816,426.039
464,27 Nov 2021 16:34:19.226,27 Nov 2021 16:39:11.037,291.810
465,27 Nov 2021 18:06:22.386,27 Nov 2021 18:13:33.070,430.684
466,28 Nov 2021 05:31:16.869,28 Nov 2021 05:32:34.749,77.880
467,28 Nov 2021 07:02:18.084,28 Nov 2021 07:09:39.177,441.093
468,28 Nov 2021 16:12:50.861,28 Nov 2021 16:15:31.004,160.143
469,28 Nov 2021 17:43:28.531,28 Nov 2021 17:50:50.539,442.008
470,29 Nov 2021 06:39:32.688,29 Nov 2021 06:46:50.623,437.935
471,29 Nov 2021 08:14:14.830,29 Nov 2021 08:18:21.658,246.828
472,29 Nov 2021 17:20:46.803,29 Nov 2021 17:28:01.528,434.725
473,29 Nov 2021 18:56:25.421,29 Nov 2021 19:00:11.941,226.520
474,30 Nov 2021 06:16:54.364,30 Nov 2021 06:23:49.306,414.942
475,30 Nov 2021 07:50:53.539,30 Nov 2021 07:56:31.303,337.764
476,30 Nov 2021 16:58:17.047,30 Nov 2021 17:05:06.159,409.112
477,30 Nov 2021 18:32:32.236,30 Nov 2021 18:38:11.379,339.143
478,1 Dec 2021 05:54:25.568,1 Dec 2021 06:00:32.690,367.122
479,1 Dec 2021 07:27:46.943,1 Dec 2021 07:34:20.602,393.658
480,1 Dec 2021 16:36:00.404,1 Dec 2021 16:42:03.290,362.886
481,1 Dec 2021 18:09:08.161,1 Dec 2021 18:15:47.731,399.570
482,2 Dec 2021 05:32:13.209,2 Dec 2021 05:36:53.691,280.482
483,2 Dec 2021 07:04:48.863,2 Dec 2021 07:11:55.765,426.902
484,2 Dec 2021 16:14:00.707,2 Dec 2021 16:18:49.117,288.410
485,2 Dec 2021 17:46:01.278,2 Dec 2021 17:53:12.723,431.445
486,3 Dec 2021 05:11:07.490,3 Dec 2021 05:12:01.890,54.400
487,3 Dec 2021 06:41:57.396,3 Dec 2021 06:49:18.695,441.299
488,3 Dec 2021 15:52:34.517,3 Dec 2021 15:55:07.113,152.595
489,3 Dec 2021 17:23:07.879,3 Dec 2021 17:30:29.941,442.061
490,4 Dec 2021 06:19:12.237,4 Dec 2021 06:26:29.696,437.459
491,4 Dec 2021 07:53:52.511,4 Dec 2021 07:58:03.618,251.107
492,4 Dec 2021 17:00:26.583,4 Dec 2021 17:07:40.702,434.119
493,4 Dec 2021 18:36:01.472,4 Dec 2021 18:39:53.794,232.322
494,5 Dec 2021 05:56:34.201,5 Dec 2021 06:03:27.889,413.689
495,5 Dec 2021 07:30:31.998,5 Dec 2021 07:36:12.280,340.281
496,5 Dec 2021 16:37:57.274,5 Dec 2021 16:44:45.089,407.815
497,5 Dec 2021 18:12:09.865,5 Dec 2021 18:17:51.873,342.008
498,6 Dec 2021 05:34:05.835,6 Dec 2021 05:40:10.624,364.790
499,6 Dec 2021 07:07:25.773,6 Dec 2021 07:14:00.999,395.225
500,6 Dec 2021 16:15:41.154,6 Dec 2021 16:21:41.900,360.746
501,6 Dec 2021 17:48:46.532,6 Dec 2021 17:55:27.698,401.167
502,7 Dec 2021 05:11:54.359,7 Dec 2021 05:16:30.522,276.162
503,7 Dec 2021 06:44:27.953,7 Dec 2021 06:51:35.698,427.744
504,7 Dec 2021 15:53:42.224,7 Dec 2021 15:58:27.168,284.944
505,7 Dec 2021 17:25:40.185,7 Dec 2021 17:32:52.359,432.174
506,8 Dec 2021 06:21:36.715,8 Dec 2021 06:28:58.197,441.482
507,8 Dec 2021 07:57:48.917,8 Dec 2021 07:58:33.215,44.298
508,8 Dec 2021 15:32:18.397,8 Dec 2021 15:34:43.008,144.611
509,8 Dec 2021 17:02:47.242,8 Dec 2021 17:10:09.332,442.090
510,9 Dec 2021 05:58:51.791,9 Dec 2021 06:06:08.758,436.967
511,9 Dec 2021 07:33:30.236,9 Dec 2021 07:37:45.526,255.289
512,9 Dec 2021 16:40:06.378,9 Dec 2021 16:47:19.865,433.487
513,9 Dec 2021 18:15:37.626,9 Dec 2021 18:19:35.549,237.924
514,10 Dec 2021 05:36:14.050,10 Dec 2021 05:43:06.447,412.397
515,10 Dec 2021 07:10:10.469,10 Dec 2021 07:15:53.236,342.767
516,10 Dec 2021 16:17:37.513,10 Dec 2021 16:24:24.013,406.499
517,10 Dec 2021 17:51:47.529,10 Dec 2021 17:57:32.341,344.811
518,11 Dec 2021 05:13:46.125,11 Dec 2021 05:19:48.532,362.407
519,11 Dec 2021 06:47:04.614,11 Dec 2021 06:53:41.381,396.767
520,11 Dec 2021 15:55:21.926,11 Dec 2021 16:01:20.498,358.572
521,11 Dec 2021 17:28:24.928,11 Dec 2021 17:35:07.651,402.723
522,12 Dec 2021 04:51:35.566,12 Dec 2021 04:56:07.293,271.727
523,12 Dec 2021 06:24:07.053,12 Dec 2021 06:31:15.617,428.564
524,12 Dec 2021 15:33:23.780,12 Dec 2021 15:38:05.187,281.407
525,12 Dec 2021 17:05:19.112,12 Dec 2021 17:12:31.996,432.884
526,13 Dec 2021 06:01:16.043,13 Dec 2021 06:08:37.685,441.642
527,13 Dec 2021 07:37:17.690,13 Dec 2021 07:38:24.277,66.587
528,13 Dec 2021 15:12:02.539,13 Dec 2021 15:14:18.653,136.114
529,13 Dec 2021 16:42:26.623,13 Dec 2021 16:49:48.717,442.094
530,14 Dec 2021 05:38:31.359,14 Dec 2021 05:45:47.800,436.442
531,14 Dec 2021 07:13:08.007,14 Dec 2021 07:17:27.380,259.373
532,14 Dec 2021 16:19:46.190,14 Dec 2021 16:26:59.026,432.836
533,14 Dec 2021 17:55:13.877,14 Dec 2021 17:59:17.220,243.343
534,15 Dec 2021 05:15:53.913,15 Dec 2021 05:22:44.984,411.071
535,15 Dec 2021 06:49:48.962,15 Dec 2021 06:55:34.166,345.204
536,15 Dec 2021 15:57:17.775,15 Dec 2021 16:04:02.926,405.150
537,15 Dec 2021 17:31:25.227,15 Dec 2021 17:37:12.787,347.559
538,16 Dec 2021 04:53:26.435,16 Dec 2021 04:59:26.410,359.976
539,16 Dec 2021 06:26:43.467,16 Dec 2021 06:33:21.746,398.279
540,16 Dec 2021 15:35:02.721,16 Dec 2021 15:40:59.081,356.360
541,16 Dec 2021 17:08:03.343,16 Dec 2021 17:14:47.591,404.248
542,17 Dec 2021 04:31:16.829,17 Dec 2021 04:35:43.999,267.170
543,17 Dec 2021 06:03:46.162,17 Dec 2021 06:10:55.522,429.360
544,17 Dec 2021 15:13:05.376,17 Dec 2021 15:17:43.173,277.797
545,17 Dec 2021 16:44:58.058,17 Dec 2021 16:52:11.616,433.558
546,18 Dec 2021 05:40:55.379,18 Dec 2021 05:48:17.157,441.778
547,18 Dec 2021 07:16:49.393,18 Dec 2021 07:18:12.406,83.014
548,18 Dec 2021 14:51:46.989,18 Dec 2021 14:53:53.988,127.000
549,18 Dec 2021 16:22:06.019,18 Dec 2021 16:29:28.093,442.074
550,19 Dec 2021 05:18:10.934,19 Dec 2021 05:25:26.828,435.893
551,19 Dec 2021 06:52:45.820,19 Dec 2021 06:57:09.188,263.368
552,19 Dec 2021 15:59:26.018,19 Dec 2021 16:06:38.170,432.152
553,19 Dec 2021 17:34:50.215,19 Dec 2021 17:38:58.808,248.593
554,20 Dec 2021 04:55:33.787,20 Dec 2021 05:02:23.503,409.716
555,20 Dec 2021 06:29:27.469,20 Dec 2021 06:35:15.068,347.599
556,20 Dec 2021 15:36:58.053,20 Dec 2021 15:43:41.825,403.772
557,20 Dec 2021 17:11:02.957,20 Dec 2021 17:16:53.205,350.249
558,21 Dec 2021 04:33:06.763,21 Dec 2021 04:39:04.258,357.495
559,21 Dec 2021 06:06:22.329,21 Dec 2021 06:13:02.092,399.763
560,21 Dec 2021 15:14:43.538,21 Dec 2021 15:20:37.651,354.114
561,21 Dec 2021 16:47:41.781,21 Dec 2021 16:54:27.514,405.733
562,22 Dec 2021 04:10:58.151,22 Dec 2021 04:15:20.634,262.482
563,22 Dec 2021 05:43:25.278,22 Dec 2021 05:50:35.409,430.130
564,22 Dec 2021 14:52:47.012,22 Dec 2021 14:57:21.130,274.118
565,22 Dec 2021 16:24:37.018,22 Dec 2021 16:31:51.229,434.212
566,23 Dec 2021 05:20:34.723,23 Dec 2021 05:27:56.612,441.890
567,23 Dec 2021 06:56:22.490,23 Dec 2021 06:57:59.125,96.636
568,23 Dec 2021 14:31:31.824,23 Dec 2021 14:33:28.949,117.125
569,23 Dec 2021 16:01:45.429,23 Dec 2021 16:09:07.460,442.030
570,24 Dec 2021 04:57:50.520,24 Dec 2021 05:05:05.836,435.316
571,24 Dec 2021 06:32:23.670,24 Dec 2021 06:36:50.949,267.279
572,24 Dec 2021 15:39:05.861,24 Dec 2021 15:46:17.316,431.455
573,24 Dec 2021 17:14:26.642,24 Dec 2021 17:18:40.316,253.674
574,25 Dec 2021 04:35:13.675,25 Dec 2021 04:42:02.001,408.326
575,25 Dec 2021 06:09:05.992,25 Dec 2021 06:14:55.949,349.957
576,25 Dec 2021 15:16:38.349,25 Dec 2021 15:23:20.718,402.369
577,25 Dec 2021 16:50:40.719,25 Dec 2021 16:56:33.600,352.881
578,26 Dec 2021 04:12:47.118,26 Dec 2021 04:18:42.075,354.958
579,26 Dec 2021 05:46:01.202,26 Dec 2021 05:52:42.421,401.219
580,26 Dec 2021 14:54:24.378,26 Dec 2021 15:00:16.200,351.822
581,26 Dec 2021 16:27:20.242,26 Dec 2021 16:34:07.423,407.181
582,27 Dec 2021 03:50:39.541,27 Dec 2021 03:54:57.198,257.656
583,27 Dec 2021 05:23:04.406,27 Dec 2021 05:30:15.279,430.873
584,27 Dec 2021 14:32:28.691,27 Dec 2021 14:36:59.049,270.358
585,27 Dec 2021 16:04:15.996,27 Dec 2021 16:11:30.832,434.836
586,28 Dec 2021 05:00:14.076,28 Dec 2021 05:07:36.052,441.977
587,28 Dec 2021 06:35:56.461,28 Dec 2021 06:37:44.964,108.503
588,28 Dec 2021 14:11:17.149,28 Dec 2021 14:13:03.431,106.282
589,28 Dec 2021 15:41:24.857,28 Dec 2021 15:48:46.819,441.962
590,29 Dec 2021 04:37:30.116,29 Dec 2021 04:44:44.830,434.715
591,29 Dec 2021 06:12:01.560,29 Dec 2021 06:16:32.664,271.104
592,29 Dec 2021 15:18:45.718,29 Dec 2021 15:25:56.447,430.729
593,29 Dec 2021 16:54:03.143,29 Dec 2021 16:58:21.760,258.616
594,30 Dec 2021 04:14:53.579,30 Dec 2021 04:21:40.477,406.898
595,30 Dec 2021 05:48:44.532,30 Dec 2021 05:54:36.812,352.280
596,30 Dec 2021 14:56:18.663,30 Dec 2021 15:02:59.599,400.936
597,30 Dec 2021 16:30:18.513,30 Dec 2021 16:36:13.973,355.460
598,31 Dec 2021 03:52:27.494,31 Dec 2021 03:58:19.866,352.372
599,31 Dec 2021 05:25:40.085,31 Dec 2021 05:32:22.732,402.647
600,31 Dec 2021 14:34:05.241,31 Dec 2021 14:39:54.737,349.496
601,31 Dec 2021 16:06:58.723,31 Dec 2021 16:13:47.323,408.600
602,1 Jan 2022 03:30:20.997,1 Jan 2022 03:34:33.686,252.688
603,1 Jan 2022 05:02:43.540,1 Jan 2022 05:09:55.135,431.596
604,1 Jan 2022 14:12:10.414,1 Jan 2022 14:16:36.931,266.517
605,1 Jan 2022 15:43:54.991,1 Jan 2022 15:51:10.423,435.433
606,2 Jan 2022 04:39:53.436,2 Jan 2022 04:47:15.476,442.040
607,2 Jan 2022 06:15:31.047,2 Jan 2022 06:17:30.181,119.134
608,2 Jan 2022 13:51:03.135,2 Jan 2022 13:52:37.257,94.122
609,2 Jan 2022 15:21:04.300,2 Jan 2022 15:28:26.169,441.869
610,3 Jan 2022 04:17:09.717,3 Jan 2022 04:24:23.802,434.085
611,3 Jan 2022 05:51:39.485,3 Jan 2022 05:56:14.334,274.849
612,3 Jan 2022 14:58:25.591,3 Jan 2022 15:05:35.572,429.981
613,3 Jan 2022 16:33:39.720,3 Jan 2022 16:38:03.131,263.411
614,4 Jan 2022 03:54:33.492,4 Jan 2022 04:01:18.933,405.441
615,4 Jan 2022 05:28:23.086,4 Jan 2022 05:34:17.646,354.560
616,4 Jan 2022 14:35:58.994,4 Jan 2022 14:42:38.468,399.475
617,4 Jan 2022 16:09:56.338,4 Jan 2022 16:15:54.321,357.984
618,5 Jan 2022 03:32:07.894,5 Jan 2022 03:37:57.616,349.722
619,5 Jan 2022 05:05:18.977,5 Jan 2022 05:12:03.023,404.046
620,5 Jan 2022 14:13:46.125,5 Jan 2022 14:19:33.258,347.133
621,5 Jan 2022 15:46:37.224,5 Jan 2022 15:53:27.208,409.984
622,6 Jan 2022 03:10:02.521,6 Jan 2022 03:14:10.092,247.571
623,6 Jan 2022 04:42:22.680,6 Jan 2022 04:49:34.974,432.294
624,6 Jan 2022 13:51:52.182,6 Jan 2022 13:56:14.772,262.591
625,6 Jan 2022 15:23:34.002,6 Jan 2022 15:30:50.006,436.004
626,7 Jan 2022 04:19:32.805,7 Jan 2022 04:26:54.884,442.080
627,7 Jan 2022 05:55:06.089,7 Jan 2022 05:57:14.939,128.851
628,7 Jan 2022 13:30:50.068,7 Jan 2022 13:32:10.144,80.076
629,7 Jan 2022 15:00:43.758,7 Jan 2022 15:08:05.512,441.754
630,8 Jan 2022 03:56:49.331,8 Jan 2022 04:04:02.762,433.431
631,8 Jan 2022 05:31:17.444,8 Jan 2022 05:35:55.960,278.515
632,8 Jan 2022 14:38:05.481,8 Jan 2022 14:45:14.687,429.206
633,8 Jan 2022 16:13:16.371,8 Jan 2022 16:17:44.444,268.073
634,9 Jan 2022 03:34:13.421,9 Jan 2022 03:40:57.369,403.948
635,9 Jan 2022 05:08:01.657,9 Jan 2022 05:13:58.459,356.803
636,9 Jan 2022 14:15:39.343,9 Jan 2022 14:22:17.329,397.986
637,9 Jan 2022 15:49:34.192,9 Jan 2022 15:55:34.649,360.457
638,10 Jan 2022 03:11:48.320,10 Jan 2022 03:17:35.341,347.021
639,10 Jan 2022 04:44:57.881,10 Jan 2022 04:51:43.300,405.419
640,10 Jan 2022 13:53:27.036,10 Jan 2022 13:59:11.766,344.730
641,10 Jan 2022 15:26:15.747,10 Jan 2022 15:33:07.081,411.334
642,11 Jan 2022 02:49:44.126,11 Jan 2022 02:53:46.414,242.289
643,11 Jan 2022 04:22:01.831,11 Jan 2022 04:29:14.793,432.962
644,11 Jan 2022 13:31:33.999,11 Jan 2022 13:35:52.582,258.583
645,11 Jan 2022 15:03:13.034,11 Jan 2022 15:10:29.580,436.545
646,12 Jan 2022 03:59:12.183,12 Jan 2022 04:06:34.278,442.095
647,12 Jan 2022 05:34:41.491,12 Jan 2022 05:36:59.325,137.834
648,12 Jan 2022 13:10:38.592,12 Jan 2022 13:11:41.449,62.857
649,12 Jan 2022 14:40:23.233,12 Jan 2022 14:47:44.846,441.613
650,13 Jan 2022 03:36:28.956,13 Jan 2022 03:43:41.703,432.747
651,13 Jan 2022 05:10:55.439,13 Jan 2022 05:15:37.548,282.109
652,13 Jan 2022 14:17:45.388,13 Jan 2022 14:24:53.794,428.406
653,13 Jan 2022 15:52:53.089,13 Jan 2022 15:57:25.696,272.607
654,14 Jan 2022 03:13:53.363,14 Jan 2022 03:20:35.783,402.420
655,14 Jan 2022 04:47:40.243,14 Jan 2022 04:53:39.246,359.003
656,14 Jan 2022 13:55:19.710,14 Jan 2022 14:01:56.178,396.468
657,14 Jan 2022 15:29:12.077,14 Jan 2022 15:35:14.955,362.878
658,15 Jan 2022 02:51:28.769,15 Jan 2022 02:57:13.032,344.263
659,15 Jan 2022 04:24:36.798,15 Jan 2022 04:31:23.557,406.760
660,15 Jan 2022 13:33:07.972,15 Jan 2022 13:38:50.254,342.282
661,15 Jan 2022 15:05:54.289,15 Jan 2022 15:12:46.938,412.648
662,16 Jan 2022 02:29:25.812,16 Jan 2022 02:33:22.646,236.834
663,16 Jan 2022 04:01:40.989,16 Jan 2022 04:08:54.603,433.614
664,16 Jan 2022 13:11:15.865,16 Jan 2022 13:15:30.343,254.479
665,16 Jan 2022 14:42:52.079,16 Jan 2022 14:50:09.145,437.066
666,17 Jan 2022 03:38:51.568,17 Jan 2022 03:46:13.654,442.086
667,17 Jan 2022 05:14:17.184,17 Jan 2022 05:16:43.411,146.227
668,17 Jan 2022 12:50:30.714,17 Jan 2022 12:51:09.162,38.448
669,17 Jan 2022 14:20:02.723,17 Jan 2022 14:27:24.172,441.449
670,17 Jan 2022 15:57:36.728,17 Jan 2022 15:57:57.740,21.012
671,18 Jan 2022 03:16:08.589,18 Jan 2022 03:23:20.625,432.036
672,18 Jan 2022 04:50:33.464,18 Jan 2022 04:55:19.100,285.636
673,18 Jan 2022 13:57:25.310,18 Jan 2022 14:04:32.891,427.581
674,18 Jan 2022 15:32:29.870,18 Jan 2022 15:37:06.888,277.018
675,19 Jan 2022 02:53:33.319,19 Jan 2022 03:00:14.173,400.854
676,19 Jan 2022 04:27:18.842,19 Jan 2022 04:33:20.014,361.172
677,19 Jan 2022 13:35:00.095,19 Jan 2022 13:41:35.016,394.921
678,19 Jan 2022 15:08:49.988,19 Jan 2022 15:14:55.237,365.249
679,20 Jan 2022 02:31:09.244,20 Jan 2022 02:36:50.691,341.447
680,20 Jan 2022 04:04:15.720,20 Jan 2022 04:11:03.795,408.075
681,20 Jan 2022 13:12:48.928,20 Jan 2022 13:18:28.725,339.797
682,20 Jan 2022 14:45:32.852,20 Jan 2022 14:52:26.789,413.937
683,21 Jan 2022 02:09:07.588,21 Jan 2022 02:12:58.779,231.191
684,21 Jan 2022 03:41:20.156,21 Jan 2022 03:48:34.398,434.241
685,21 Jan 2022 12:50:57.781,21 Jan 2022 12:55:08.059,250.278
686,21 Jan 2022 14:22:31.141,21 Jan 2022 14:29:48.697,437.555
687,22 Jan 2022 03:18:30.963,22 Jan 2022 03:25:53.015,442.052
688,22 Jan 2022 04:53:53.121,22 Jan 2022 04:56:27.245,154.124
689,22 Jan 2022 13:59:42.229,22 Jan 2022 14:07:03.489,441.260
690,22 Jan 2022 15:36:56.247,22 Jan 2022 15:37:55.977,59.730
691,23 Jan 2022 02:55:48.234,23 Jan 2022 03:02:59.529,431.295
692,23 Jan 2022 04:30:11.520,23 Jan 2022 04:35:00.610,289.091
693,23 Jan 2022 13:37:05.246,23 Jan 2022 13:44:11.983,426.738
694,23 Jan 2022 15:12:06.716,23 Jan 2022 15:16:48.028,281.312
695,24 Jan 2022 02:33:13.291,24 Jan 2022 02:39:52.542,399.251
696,24 Jan 2022 04:06:57.459,24 Jan 2022 04:13:00.762,363.303
697,24 Jan 2022 13:14:40.499,24 Jan 2022 13:21:13.848,393.349
698,24 Jan 2022 14:48:27.930,24 Jan 2022 14:54:35.502,367.573
699,25 Jan 2022 02:10:49.746,25 Jan 2022 02:16:28.316,338.570
700,25 Jan 2022 03:43:54.654,25 Jan 2022 03:50:44.019,409.365
701,25 Jan 2022 12:52:29.912,25 Jan 2022 12:58:07.177,337.265
702,25 Jan 2022 14:25:11.436,25 Jan 2022 14:32:06.624,415.188
703,26 Jan 2022 01:48:49.460,26 Jan 2022 01:52:34.810,225.350
704,26 Jan 2022 03:20:59.338,26 Jan 2022 03:28:14.175,434.837
705,26 Jan 2022 12:30:39.754,26 Jan 2022 12:34:45.735,245.981
706,26 Jan 2022 14:02:10.221,26 Jan 2022 14:09:28.244,438.023
707,27 Jan 2022 02:58:10.366,27 Jan 2022 03:05:32.361,441.994
708,27 Jan 2022 04:33:29.272,27 Jan 2022 04:36:10.863,161.591
709,27 Jan 2022 13:39:21.751,27 Jan 2022 13:46:42.799,441.048
710,27 Jan 2022 15:16:24.162,27 Jan 2022 15:17:45.828,81.666
711,28 Jan 2022 02:35:27.888,28 Jan 2022 02:42:38.419,430.531
712,28 Jan 2022 04:09:49.607,28 Jan 2022 04:14:42.082,292.475
713,28 Jan 2022 13:16:45.200,28 Jan 2022 13:23:51.064,425.864
714,28 Jan 2022 14:51:43.619,28 Jan 2022 14:56:29.117,285.498
715,29 Jan 2022 02:12:53.274,29 Jan 2022 02:19:30.889,397.615
716,29 Jan 2022 03:46:36.088,29 Jan 2022 03:52:41.487,365.399
717,29 Jan 2022 12:54:20.923,29 Jan 2022 13:00:52.665,391.741
718,29 Jan 2022 14:28:05.898,29 Jan 2022 14:34:15.747,369.849
719,30 Jan 2022 01:50:30.274,30 Jan 2022 01:56:05.902,335.628
720,30 Jan 2022 03:23:33.596,30 Jan 2022 03:30:24.225,410.629
721,30 Jan 2022 12:32:10.921,30 Jan 2022 12:37:45.613,334.692
722,30 Jan 2022 14:04:50.038,30 Jan 2022 14:11:46.443,416.405
723,31 Jan 2022 01:28:31.434,31 Jan 2022 01:32:10.728,219.294
724,31 Jan 2022 03:00:38.517,31 Jan 2022 03:07:53.932,435.415
725,31 Jan 2022 12:10:21.782,31 Jan 2022 12:14:23.356,241.574
726,31 Jan 2022 13:41:49.318,31 Jan 2022 13:49:07.783,438.465
727,1 Feb 2022 02:37:49.776,1 Feb 2022 02:45:11.690,441.913
728,1 Feb 2022 04:13:05.602,1 Feb 2022 04:15:54.291,168.689
729,1 Feb 2022 13:19:01.287,1 Feb 2022 13:26:22.101,440.814
730,1 Feb 2022 14:55:54.527,1 Feb 2022 14:57:33.232,98.705
731,2 Feb 2022 02:15:07.552,2 Feb 2022 02:22:17.287,429.735
732,2 Feb 2022 03:49:27.719,2 Feb 2022 03:54:23.520,295.801
733,2 Feb 2022 12:56:25.169,2 Feb 2022 13:03:30.139,424.969
734,2 Feb 2022 14:31:20.579,2 Feb 2022 14:36:10.161,289.582
735,3 Feb 2022 01:52:33.273,3 Feb 2022 01:59:09.213,395.940
736,3 Feb 2022 03:26:14.730,3 Feb 2022 03:32:22.191,367.461
737,3 Feb 2022 12:34:01.363,3 Feb 2022 12:40:31.471,390.108
738,3 Feb 2022 14:07:43.895,3 Feb 2022 14:13:55.971,372.076
739,4 Feb 2022 01:30:10.832,4 Feb 2022 01:35:43.454,332.622
740,4 Feb 2022 03:03:12.548,4 Feb 2022 03:10:04.414,411.866
741,4 Feb 2022 12:11:51.956,4 Feb 2022 12:17:24.030,332.074
742,4 Feb 2022 13:44:28.664,4 Feb 2022 13:51:26.257,417.593
743,5 Feb 2022 01:08:13.524,5 Feb 2022 01:11:46.523,213.000
744,5 Feb 2022 02:40:17.710,5 Feb 2022 02:47:33.679,435.969
745,5 Feb 2022 11:50:03.872,5 Feb 2022 11:54:00.928,237.056
746,5 Feb 2022 13:21:28.430,5 Feb 2022 13:28:47.309,438.879
747,6 Feb 2022 02:17:29.197,6 Feb 2022 02:24:51.003,441.806
748,6 Feb 2022 03:52:42.092,6 Feb 2022 03:55:37.556,175.464
749,6 Feb 2022 12:58:40.841,6 Feb 2022 13:06:01.395,440.554
750,6 Feb 2022 14:35:26.228,6 Feb 2022 14:37:19.316,113.088
751,7 Feb 2022 01:54:47.225,7 Feb 2022 02:01:56.139,428.915
752,7 Feb 2022 03:29:05.865,7 Feb 2022 03:34:04.925,299.059
753,7 Feb 2022 12:36:05.156,7 Feb 2022 12:43:09.203,424.047
754,7 Feb 2022 14:10:57.594,7 Feb 2022 14:15:51.157,293.563
755,8 Feb 2022 01:32:13.288,8 Feb 2022 01:38:47.515,394.227
756,8 Feb 2022 03:05:53.387,8 Feb 2022 03:12:02.873,369.486
757,8 Feb 2022 12:13:41.823,8 Feb 2022 12:20:10.270,388.448
758,8 Feb 2022 13:47:21.919,8 Feb 2022 13:53:36.177,374.258
759,9 Feb 2022 01:09:51.418,9 Feb 2022 01:15:20.969,329.551
760,9 Feb 2022 02:42:51.511,9 Feb 2022 02:49:44.587,413.076
761,9 Feb 2022 11:51:33.018,9 Feb 2022 11:57:02.426,329.408
762,9 Feb 2022 13:24:07.307,9 Feb 2022 13:31:06.054,418.746
763,10 Feb 2022 00:47:55.735,10 Feb 2022 00:51:22.190,206.455
764,10 Feb 2022 02:19:56.911,10 Feb 2022 02:27:13.408,436.497
765,10 Feb 2022 11:29:46.022,10 Feb 2022 11:33:38.443,232.420
766,10 Feb 2022 13:01:07.565,10 Feb 2022 13:08:26.827,439.261
767,11 Feb 2022 01:57:08.626,11 Feb 2022 02:04:30.300,441.675
768,11 Feb 2022 03:32:18.722,11 Feb 2022 03:35:20.667,181.945
769,11 Feb 2022 12:38:20.409,11 Feb 2022 12:45:40.682,440.273
770,11 Feb 2022 14:14:58.799,11 Feb 2022 14:17:04.535,125.736
771,12 Feb 2022 01:34:26.909,12 Feb 2022 01:41:34.973,428.064
772,12 Feb 2022 03:08:44.031,12 Feb 2022 03:13:46.291,302.261
773,12 Feb 2022 12:15:45.159,12 Feb 2022 12:22:48.258,423.099
774,12 Feb 2022 13:50:34.660,12 Feb 2022 13:55:32.108,297.448
775,13 Feb 2022 01:11:53.317,13 Feb 2022 01:18:25.794,392.477
776,13 Feb 2022 02:45:32.056,13 Feb 2022 02:51:43.535,371.479
777,13 Feb 2022 11:53:22.302,13 Feb 2022 11:59:49.054,386.752
778,13 Feb 2022 13:26:59.969,13 Feb 2022 13:33:16.363,376.394
779,14 Feb 2022 00:49:32.033,14 Feb 2022 00:54:58.445,326.412
780,14 Feb 2022 02:22:30.482,14 Feb 2022 02:29:24.743,414.261
781,14 Feb 2022 11:31:14.106,14 Feb 2022 11:36:40.810,326.703
782,14 Feb 2022 13:03:45.968,14 Feb 2022 13:10:45.840,419.872
783,15 Feb 2022 00:27:38.084,15 Feb 2022 00:30:57.711,199.627
784,15 Feb 2022 01:59:36.120,15 Feb 2022 02:06:53.122,437.003
785,15 Feb 2022 11:09:28.238,15 Feb 2022 11:13:15.899,227.660
786,15 Feb 2022 12:40:46.707,15 Feb 2022 12:48:06.337,439.630
787,16 Feb 2022 01:36:48.062,16 Feb 2022 01:44:09.581,441.519
788,16 Feb 2022 03:11:55.471,16 Feb 2022 03:15:03.653,188.182
789,16 Feb 2022 12:17:59.993,16 Feb 2022 12:25:19.959,439.965
790,16 Feb 2022 13:54:32.006,16 Feb 2022 13:56:49.122,137.116
791,17 Feb 2022 01:14:06.605,17 Feb 2022 01:21:13.790,427.185
792,17 Feb 2022 02:48:22.224,17 Feb 2022 02:53:27.627,305.403
793,17 Feb 2022 11:55:25.177,17 Feb 2022 12:02:27.304,422.127
794,17 Feb 2022 13:30:11.778,17 Feb 2022 13:35:13.016,301.238
795,18 Feb 2022 00:51:33.362,18 Feb 2022 00:58:04.049,390.687
796,18 Feb 2022 02:25:10.739,18 Feb 2022 02:31:24.178,373.440
797,18 Feb 2022 11:33:02.798,18 Feb 2022 11:39:27.828,385.030
798,18 Feb 2022 13:06:38.046,18 Feb 2022 13:12:56.530,378.483
799,19 Feb 2022 00:29:12.680,19 Feb 2022 00:34:35.887,323.207
800,19 Feb 2022 02:02:09.463,19 Feb 2022 02:09:04.886,415.423
801,19 Feb 2022 11:10:55.226,19 Feb 2022 11:16:19.170,323.944
802,19 Feb 2022 12:43:24.650,19 Feb 2022 12:50:25.617,420.967
803,20 Feb 2022 00:07:20.587,20 Feb 2022 00:10:33.072,192.485
804,20 Feb 2022 01:39:15.338,20 Feb 2022 01:46:32.819,437.481
805,20 Feb 2022 10:49:10.526,20 Feb 2022 10:52:53.293,222.768
806,20 Feb 2022 12:20:25.871,20 Feb 2022 12:27:45.839,439.968
807,21 Feb 2022 01:16:27.509,21 Feb 2022 01:23:48.847,441.338
808,21 Feb 2022 02:51:32.339,21 Feb 2022 02:54:46.515,194.176
809,21 Feb 2022 11:57:39.594,21 Feb 2022 12:04:59.228,439.634
810,21 Feb 2022 13:34:05.701,21 Feb 2022 13:36:33.239,147.538
811,22 Feb 2022 00:53:46.312,22 Feb 2022 01:00:52.588,426.276
812,22 Feb 2022 02:28:00.444,22 Feb 2022 02:33:08.933,308.490
813,22 Feb 2022 11:35:05.213,22 Feb 2022 11:42:06.343,421.130
814,22 Feb 2022 13:09:48.945,22 Feb 2022 13:14:53.885,304.940
815,23 Feb 2022 00:31:13.424,23 Feb 2022 00:37:42.285,388.861
816,23 Feb 2022 02:04:49.436,23 Feb 2022 02:11:04.798,375.362
817,23 Feb 2022 11:12:43.314,23 Feb 2022 11:19:06.586,383.272
818,23 Feb 2022 12:46:16.150,23 Feb 2022 12:52:36.679,380.528
819,24 Feb 2022 00:08:53.361,24 Feb 2022 00:14:13.287,319.926
820,24 Feb 2022 01:41:48.450,24 Feb 2022 01:48:45.008,416.558
821,24 Feb 2022 10:50:36.367,24 Feb 2022 10:55:57.507,321.140
822,24 Feb 2022 12:23:03.350,24 Feb 2022 12:30:05.382,422.032
823,24 Feb 2022 23:47:03.251,24 Feb 2022 23:50:08.257,185.006
824,25 Feb 2022 01:18:54.564,25 Feb 2022 01:26:12.505,437.941
825,25 Feb 2022 10:28:52.889,25 Feb 2022 10:32:30.617,217.728
826,25 Feb 2022 12:00:05.050,25 Feb 2022 12:07:25.332,440.282
827,26 Feb 2022 00:56:06.963,26 Feb 2022 01:03:28.097,441.134
828,26 Feb 2022 02:31:09.311,26 Feb 2022 02:34:29.264,199.954
829,26 Feb 2022 11:37:19.209,26 Feb 2022 11:44:38.487,439.278
830,26 Feb 2022 13:13:39.785,26 Feb 2022 13:16:16.971,157.186
831,27 Feb 2022 00:33:26.032,27 Feb 2022 00:40:31.370,425.338
832,27 Feb 2022 02:07:38.687,27 Feb 2022 02:12:50.204,311.518
833,27 Feb 2022 11:14:45.261,27 Feb 2022 11:21:45.371,420.110
834,27 Feb 2022 12:49:26.158,27 Feb 2022 12:54:34.714,308.557
835,28 Feb 2022 00:10:53.501,28 Feb 2022 00:17:20.492,386.992
836,28 Feb 2022 01:44:28.144,28 Feb 2022 01:50:45.401,377.257
837,28 Feb 2022 10:52:23.849,28 Feb 2022 10:58:45.334,381.486
838,28 Feb 2022 12:25:54.277,28 Feb 2022 12:32:16.811,382.534
839,28 Feb 2022 23:48:34.073,28 Feb 2022 23:53:50.643,316.570
840,1 Mar 2022 01:21:27.449,1 Mar 2022 01:28:25.114,417.665
841,1 Mar 2022 10:30:17.542,1 Mar 2022 10:35:35.825,318.283
842,1 Mar 2022 12:02:42.068,1 Mar 2022 12:09:45.135,423.067
843,1 Mar 2022 23:26:46.117,1 Mar 2022 23:29:43.239,177.122
844,2 Mar 2022 00:58:33.797,2 Mar 2022 01:05:52.171,438.373
845,2 Mar 2022 10:08:35.330,2 Mar 2022 10:12:07.875,212.545
846,2 Mar 2022 11:39:44.246,2 Mar 2022 11:47:04.812,440.566
847,3 Mar 2022 00:35:46.426,3 Mar 2022 00:43:07.330,440.904
848,3 Mar 2022 02:10:46.373,3 Mar 2022 02:14:11.911,205.538
849,3 Mar 2022 11:16:58.840,3 Mar 2022 11:24:17.739,438.899
850,3 Mar 2022 12:53:14.197,3 Mar 2022 12:56:00.381,166.184
851,4 Mar 2022 00:13:05.760,4 Mar 2022 00:20:10.131,424.371
852,4 Mar 2022 01:47:16.954,4 Mar 2022 01:52:31.446,314.493
853,4 Mar 2022 10:54:25.329,4 Mar 2022 11:01:24.392,419.063
854,4 Mar 2022 12:29:03.418,4 Mar 2022 12:34:15.506,312.088
855,4 Mar 2022 23:50:33.595,4 Mar 2022 23:56:58.677,385.082
856,5 Mar 2022 01:24:06.866,5 Mar 2022 01:30:25.982,379.116
857,5 Mar 2022 10:32:04.404,5 Mar 2022 10:38:24.075,379.671
858,5 Mar 2022 12:05:32.431,5 Mar 2022 12:11:56.927,384.496
859,5 Mar 2022 23:28:14.817,5 Mar 2022 23:33:27.959,313.142
860,6 Mar 2022 01:01:06.458,6 Mar 2022 01:08:05.199,418.741
861,6 Mar 2022 10:09:58.743,6 Mar 2022 10:15:14.120,315.377
862,6 Mar 2022 11:42:20.803,6 Mar 2022 11:49:24.879,424.076
863,6 Mar 2022 23:06:29.192,6 Mar 2022 23:09:17.994,168.802
864,7 Mar 2022 00:38:13.041,7 Mar 2022 00:45:31.824,438.784
865,7 Mar 2022 09:48:17.858,7 Mar 2022 09:51:45.049,207.191
866,7 Mar 2022 11:19:23.459,7 Mar 2022 11:26:44.288,440.829
867,8 Mar 2022 00:15:25.899,8 Mar 2022 00:22:46.547,440.648
868,8 Mar 2022 01:50:23.527,8 Mar 2022 01:53:54.469,210.942
869,8 Mar 2022 10:56:38.488,8 Mar 2022 11:03:56.986,438.498
870,8 Mar 2022 12:32:48.881,8 Mar 2022 12:35:43.534,174.653
871,8 Mar 2022 23:52:45.499,8 Mar 2022 23:59:48.874,423.374
872,9 Mar 2022 01:26:55.246,9 Mar 2022 01:32:12.654,317.407
873,9 Mar 2022 10:34:05.414,9 Mar 2022 10:41:03.404,417.990
874,9 Mar 2022 12:08:40.724,9 Mar 2022 12:13:56.263,315.539
875,9 Mar 2022 23:30:13.706,9 Mar 2022 23:36:36.838,383.132
876,10 Mar 2022 01:03:45.600,10 Mar 2022 01:10:06.541,380.940
877,10 Mar 2022 10:11:44.979,10 Mar 2022 10:18:02.802,377.824
878,10 Mar 2022 11:45:10.608,10 Mar 2022 11:51:37.026,386.418
879,10 Mar 2022 23:07:55.600,10 Mar 2022 23:13:05.232,309.632
880,11 Mar 2022 00:40:45.479,11 Mar 2022 00:47:45.272,419.793
881,11 Mar 2022 09:49:39.977,11 Mar 2022 09:54:52.396,312.420
882,11 Mar 2022 11:21:59.559,11 Mar 2022 11:29:04.611,425.052
883,11 Mar 2022 22:46:12.522,11 Mar 2022 22:48:52.493,159.971
884,12 Mar 2022 00:17:52.291,12 Mar 2022 00:25:11.456,439.165
885,12 Mar 2022 09:28:00.478,12 Mar 2022 09:31:22.144,201.666
886,12 Mar 2022 10:59:02.687,12 Mar 2022 11:06:23.755,441.067
887,12 Mar 2022 23:55:05.379,13 Mar 2022 00:02:25.750,440.371
888,13 Mar 2022 01:30:00.758,13 Mar 2022 01:33:36.934,216.175
889,13 Mar 2022 10:36:18.150,13 Mar 2022 10:43:36.224,438.075
890,13 Mar 2022 12:12:23.801,13 Mar 2022 12:15:26.458,182.658
891,13 Mar 2022 23:32:25.249,13 Mar 2022 23:39:27.597,422.348
892,14 Mar 2022 01:06:33.556,14 Mar 2022 01:11:53.835,320.280
893,14 Mar 2022 10:13:45.514,14 Mar 2022 10:20:42.407,416.893
894,14 Mar 2022 11:48:18.067,14 Mar 2022 11:53:36.982,318.915
895,14 Mar 2022 23:09:53.834,14 Mar 2022 23:16:14.972,381.138
896,15 Mar 2022 00:43:24.346,15 Mar 2022 00:49:47.080,382.734
897,15 Mar 2022 09:51:25.573,15 Mar 2022 09:57:41.514,375.942
898,15 Mar 2022 11:24:48.810,15 Mar 2022 11:31:17.108,388.298
899,15 Mar 2022 22:47:36.417,15 Mar 2022 22:52:42.458,306.041
900,16 Mar 2022 00:20:24.505,16 Mar 2022 00:27:25.329,420.824
901,16 Mar 2022 09:29:21.234,16 Mar 2022 09:34:30.647,309.413
902,16 Mar 2022 11:01:38.334,16 Mar 2022 11:08:44.328,425.995
903,16 Mar 2022 22:25:56.158,16 Mar 2022 22:28:26.679,150.522
904,16 Mar 2022 23:57:31.549,17 Mar 2022 00:04:51.078,439.528
905,17 Mar 2022 09:07:43.195,17 Mar 2022 09:10:59.147,195.952
906,17 Mar 2022 10:38:41.932,17 Mar 2022 10:46:03.210,441.278
907,17 Mar 2022 23:34:44.873,17 Mar 2022 23:42:04.934,440.061
908,18 Mar 2022 01:09:38.062,18 Mar 2022 01:13:19.324,221.262
909,18 Mar 2022 10:15:57.828,18 Mar 2022 10:23:15.454,437.626
910,18 Mar 2022 11:51:58.928,18 Mar 2022 11:55:09.180,190.252
911,18 Mar 2022 23:12:05.011,18 Mar 2022 23:19:06.303,421.291
912,19 Mar 2022 00:46:11.887,19 Mar 2022 00:51:34.992,323.104
913,19 Mar 2022 09:53:25.632,19 Mar 2022 10:00:21.404,415.772
914,19 Mar 2022 11:27:55.455,19 Mar 2022 11:33:17.672,322.218
915,19 Mar 2022 22:49:33.979,19 Mar 2022 22:55:53.084,379.105
916,20 Mar 2022 00:23:03.105,20 Mar 2022 00:29:27.605,384.500
917,20 Mar 2022 09:31:06.188,20 Mar 2022 09:37:20.213,374.026
918,20 Mar 2022 11:04:27.037,20 Mar 2022 11:10:57.175,390.138
919,20 Mar 2022 22:27:17.275,20 Mar 2022 22:32:19.639,302.364
920,21 Mar 2022 00:00:03.541,21 Mar 2022 00:07:05.370,421.829
921,21 Mar 2022 09:09:02.528,21 Mar 2022 09:14:08.873,306.345
922,21 Mar 2022 10:41:17.128,21 Mar 2022 10:48:24.040,426.912
923,21 Mar 2022 22:05:40.146,21 Mar 2022 22:08:00.499,140.353
924,21 Mar 2022 23:37:10.817,21 Mar 2022 23:44:30.684,439.867
925,22 Mar 2022 08:47:26.022,22 Mar 2022 08:50:36.049,190.026
926,22 Mar 2022 10:18:21.194,22 Mar 2022 10:25:42.660,441.467
927,22 Mar 2022 23:14:24.368,22 Mar 2022 23:21:44.102,439.734
928,23 Mar 2022 00:49:15.438,23 Mar 2022 00:53:01.635,226.198
929,23 Mar 2022 09:55:37.522,23 Mar 2022 10:02:54.674,437.152
930,23 Mar 2022 11:31:34.237,23 Mar 2022 11:34:51.725,197.489
931,23 Mar 2022 22:51:44.784,23 Mar 2022 22:58:44.989,420.206
932,24 Mar 2022 00:25:50.239,24 Mar 2022 00:31:16.117,325.878
933,24 Mar 2022 09:33:05.769,24 Mar 2022 09:40:00.388,414.618
934,24 Mar 2022 11:07:32.880,24 Mar 2022 11:12:58.326,325.446
935,24 Mar 2022 22:29:14.142,24 Mar 2022 22:35:31.171,377.029
936,25 Mar 2022 00:02:41.873,25 Mar 2022 00:09:08.111,386.238
937,25 Mar 2022 09:10:46.823,25 Mar 2022 09:16:58.902,372.079
938,25 Mar 2022 10:44:05.286,25 Mar 2022 10:50:37.223,391.937
939,25 Mar 2022 22:06:58.171,25 Mar 2022 22:11:56.771,298.600
940,25 Mar 2022 23:39:42.585,25 Mar 2022 23:46:45.394,422.809
941,26 Mar 2022 08:48:43.853,26 Mar 2022 08:53:47.075,303.222
942,26 Mar 2022 10:20:55.938,26 Mar 2022 10:28:03.737,427.799
943,26 Mar 2022 21:45:24.582,26 Mar 2022 21:47:33.865,129.283
944,26 Mar 2022 23:16:50.091,26 Mar 2022 23:24:10.274,440.182
945,27 Mar 2022 08:27:08.969,27 Mar 2022 08:30:12.839,183.869
946,27 Mar 2022 09:58:00.470,27 Mar 2022 10:05:22.100,441.630
947,27 Mar 2022 22:54:03.875,27 Mar 2022 23:01:23.252,439.377
948,28 Mar 2022 00:28:52.875,28 Mar 2022 00:32:43.875,230.999
949,28 Mar 2022 09:35:17.231,28 Mar 2022 09:42:33.883,436.652
950,28 Mar 2022 11:11:09.712,28 Mar 2022 11:14:34.118,204.406
951,28 Mar 2022 22:31:24.567,28 Mar 2022 22:38:23.656,419.089
952,29 Mar 2022 00:05:28.611,29 Mar 2022 00:10:57.214,328.603
953,29 Mar 2022 09:12:45.919,29 Mar 2022 09:19:39.359,413.440
954,29 Mar 2022 10:47:10.347,29 Mar 2022 10:52:38.950,328.604
955,29 Mar 2022 22:08:54.323,29 Mar 2022 22:15:09.229,374.905
956,29 Mar 2022 23:42:20.653,29 Mar 2022 23:48:48.595,387.941
957,30 Mar 2022 08:50:27.478,30 Mar 2022 08:56:37.575,370.097
958,30 Mar 2022 10:23:43.560,30 Mar 2022 10:30:17.258,393.698
959,30 Mar 2022 21:46:39.111,30 Mar 2022 21:51:33.853,294.742
960,30 Mar 2022 23:19:21.638,30 Mar 2022 23:26:25.402,423.764
961,31 Mar 2022 08:28:25.211,31 Mar 2022 08:33:25.254,300.043
962,31 Mar 2022 10:00:34.770,31 Mar 2022 10:07:43.427,428.657
963,31 Mar 2022 21:25:09.596,31 Mar 2022 21:27:06.646,117.050
964,31 Mar 2022 22:56:29.375,31 Mar 2022 23:03:49.849,440.473
965,1 Apr 2022 08:06:52.038,1 Apr 2022 08:09:49.509,177.471
966,1 Apr 2022 09:37:39.763,1 Apr 2022 09:45:01.532,441.769
967,1 Apr 2022 22:33:43.392,1 Apr 2022 22:41:02.387,438.995
968,2 Apr 2022 00:08:30.371,2 Apr 2022 00:12:26.047,235.676
969,2 Apr 2022 09:14:56.957,2 Apr 2022 09:22:13.088,436.132
970,2 Apr 2022 10:50:45.334,2 Apr 2022 10:54:16.370,211.036
971,2 Apr 2022 22:11:04.361,2 Apr 2022 22:18:02.308,417.947
972,2 Apr 2022 23:45:07.005,2 Apr 2022 23:50:38.280,331.276
973,3 Apr 2022 08:52:26.088,3 Apr 2022 08:59:18.326,412.238
974,3 Apr 2022 10:26:47.852,3 Apr 2022 10:32:19.548,331.695
975,3 Apr 2022 21:48:34.524,3 Apr 2022 21:54:47.259,372.736
976,3 Apr 2022 23:21:59.447,3 Apr 2022 23:28:29.061,389.614
977,4 Apr 2022 08:30:08.155,4 Apr 2022 08:36:16.238,368.082
978,4 Apr 2022 10:03:21.857,4 Apr 2022 10:09:57.279,395.422
