csvfiles/Facility-Facility1-To-Satellite-SSO530_Access.csv

"Access","Start Time (UTCG)","Stop Time (UTCG)","Duration (sec)"
1,4 Aug 2021 13:41:10.132,4 Aug 2021 13:47:37.586,387.454
2,4 Aug 2021 15:15:07.367,4 Aug 2021 15:22:03.467,416.101
3,5 Aug 2021 00:26:48.021,5 Aug 2021 00:33:23.038,395.017
4,5 Aug 2021 02:00:44.438,5 Aug 2021 02:07:36.750,412.312
5,5 Aug 2021 13:27:49.492,5 Aug 2021 13:33:40.271,350.779
6,5 Aug 2021 15:01:26.438,5 Aug 2021 15:08:41.142,434.704
7,6 Aug 2021 00:13:32.584,6 Aug 2021 00:19:38.011,365.427
8,6 Aug 2021 01:46:56.410,6 Aug 2021 01:54:09.765,433.355
9,6 Aug 2021 13:14:34.375,6 Aug 2021 13:19:35.839,301.464
10,6 Aug 2021 14:47:47.245,6 Aug 2021 14:55:15.595,448.351
11,7 Aug 2021 00:00:21.676,7 Aug 2021 00:05:49.951,328.275
12,7 Aug 2021 01:33:12.263,7 Aug 2021 01:40:40.426,448.162
13,7 Aug 2021 13:01:28.865,7 Aug 2021 13:05:20.169,231.304
14,7 Aug 2021 14:34:09.653,7 Aug 2021 14:41:46.971,457.319
15,7 Aug 2021 23:47:16.618,7 Aug 2021 23:51:57.537,280.919
16,8 Aug 2021 01:19:31.608,8 Aug 2021 01:27:09.099,457.491
17,8 Aug 2021 12:48:51.149,8 Aug 2021 12:50:35.035,103.885
18,8 Aug 2021 14:20:33.600,8 Aug 2021 14:28:15.323,461.723
19,8 Aug 2021 15:56:48.288,8 Aug 2021 15:59:00.026,131.739
20,8 Aug 2021 23:34:20.465,8 Aug 2021 23:37:57.711,217.246
21,9 Aug 2021 01:05:54.207,9 Aug 2021 01:13:36.023,461.815
22,9 Aug 2021 14:06:59.106,9 Aug 2021 14:14:40.638,461.532
23,9 Aug 2021 15:42:33.475,9 Aug 2021 15:46:20.173,226.698
24,9 Aug 2021 23:21:45.211,9 Aug 2021 23:23:38.494,113.283
25,10 Aug 2021 00:52:19.912,10 Aug 2021 01:00:01.327,461.415
26,10 Aug 2021 02:29:46.713,10 Aug 2021 02:31:55.322,128.609
27,10 Aug 2021 13:53:26.245,10 Aug 2021 14:01:02.832,456.587
28,10 Aug 2021 15:28:34.899,10 Aug 2021 15:33:22.579,287.680
29,11 Aug 2021 00:38:48.649,11 Aug 2021 00:46:25.085,456.436
30,11 Aug 2021 02:15:08.703,11 Aug 2021 02:19:10.700,241.998
31,11 Aug 2021 13:39:55.160,11 Aug 2021 13:47:21.749,446.590
32,11 Aug 2021 15:14:43.155,11 Aug 2021 15:20:16.664,333.509
33,12 Aug 2021 00:25:20.416,12 Aug 2021 00:32:47.290,446.874
34,12 Aug 2021 02:00:54.887,12 Aug 2021 02:06:03.546,308.658
35,12 Aug 2021 13:26:26.096,12 Aug 2021 13:33:37.131,431.035
36,12 Aug 2021 15:00:55.534,12 Aug 2021 15:07:05.120,369.587
37,13 Aug 2021 00:11:55.273,13 Aug 2021 00:19:07.886,432.614
38,13 Aug 2021 01:46:51.514,13 Aug 2021 01:52:47.575,356.061
39,13 Aug 2021 13:12:59.446,13 Aug 2021 13:19:48.571,409.126
40,13 Aug 2021 14:47:10.845,13 Aug 2021 14:53:49.169,398.325
41,13 Aug 2021 23:58:33.368,14 Aug 2021 00:05:26.717,413.349
42,14 Aug 2021 01:32:54.957,14 Aug 2021 01:39:26.382,391.425
43,14 Aug 2021 12:59:35.824,14 Aug 2021 13:05:55.437,379.613
44,14 Aug 2021 14:33:28.430,14 Aug 2021 14:40:29.451,421.021
45,14 Aug 2021 23:45:14.975,14 Aug 2021 23:51:43.526,388.551
46,15 Aug 2021 01:19:03.597,15 Aug 2021 01:26:01.556,417.959
47,15 Aug 2021 12:46:16.297,15 Aug 2021 12:51:56.630,340.333
48,15 Aug 2021 14:19:47.934,15 Aug 2021 14:27:06.333,438.399
49,15 Aug 2021 23:32:00.545,15 Aug 2021 23:37:57.857,357.312
50,16 Aug 2021 01:05:16.542,16 Aug 2021 01:12:33.962,437.420
51,16 Aug 2021 12:33:02.946,16 Aug 2021 12:37:50.045,287.099
52,16 Aug 2021 14:06:09.130,16 Aug 2021 14:13:40.047,450.917
53,16 Aug 2021 23:18:50.875,16 Aug 2021 23:24:08.911,318.036
54,17 Aug 2021 00:51:33.256,17 Aug 2021 00:59:04.123,450.867
55,17 Aug 2021 12:20:01.085,17 Aug 2021 12:23:30.336,209.251
56,17 Aug 2021 13:52:31.908,17 Aug 2021 14:00:10.699,458.791
57,17 Aug 2021 23:05:47.552,17 Aug 2021 23:10:15.118,267.567
58,18 Aug 2021 00:37:53.400,18 Aug 2021 00:45:32.365,458.965
59,18 Aug 2021 13:38:56.228,18 Aug 2021 13:46:38.327,462.100
60,18 Aug 2021 15:14:58.522,18 Aug 2021 15:17:38.891,160.370
61,18 Aug 2021 22:52:54.505,18 Aug 2021 22:56:12.543,198.038
62,19 Aug 2021 00:24:16.747,19 Aug 2021 00:31:58.890,462.143
63,19 Aug 2021 13:25:22.117,19 Aug 2021 13:33:02.904,460.787
64,19 Aug 2021 15:00:49.601,19 Aug 2021 15:04:52.789,243.187
65,19 Aug 2021 22:40:33.841,19 Aug 2021 22:41:39.098,65.257
66,20 Aug 2021 00:10:43.180,20 Aug 2021 00:18:23.819,460.639
67,20 Aug 2021 01:47:49.820,20 Aug 2021 01:50:34.345,164.525
68,20 Aug 2021 13:11:49.661,20 Aug 2021 13:19:24.336,454.675
69,20 Aug 2021 14:46:53.069,20 Aug 2021 14:51:52.793,299.724
70,20 Aug 2021 23:57:12.641,21 Aug 2021 00:04:47.210,454.569
71,21 Aug 2021 01:33:20.768,21 Aug 2021 01:37:41.168,260.399
72,21 Aug 2021 12:58:19.032,21 Aug 2021 13:05:42.435,443.403
73,21 Aug 2021 14:33:02.470,21 Aug 2021 14:38:45.371,342.901
74,21 Aug 2021 23:43:45.134,21 Aug 2021 23:51:09.040,443.907
75,22 Aug 2021 01:19:10.002,22 Aug 2021 01:24:31.351,321.349
76,22 Aug 2021 12:44:50.507,22 Aug 2021 12:51:56.917,426.410
77,22 Aug 2021 14:19:15.633,22 Aug 2021 14:25:32.692,377.059
78,22 Aug 2021 23:30:20.748,22 Aug 2021 23:37:29.229,428.481
79,23 Aug 2021 01:05:08.473,23 Aug 2021 01:11:13.917,365.444
80,23 Aug 2021 12:31:24.507,23 Aug 2021 12:38:07.336,402.829
81,23 Aug 2021 14:05:31.531,23 Aug 2021 14:12:15.796,404.265
82,23 Aug 2021 23:16:59.654,23 Aug 2021 23:23:47.607,407.954
83,24 Aug 2021 00:51:13.268,24 Aug 2021 00:57:51.748,398.480
84,24 Aug 2021 12:18:01.743,24 Aug 2021 12:24:12.969,371.226
85,24 Aug 2021 13:51:49.604,24 Aug 2021 13:58:55.238,425.634
86,24 Aug 2021 23:03:42.155,24 Aug 2021 23:10:03.874,381.719
87,25 Aug 2021 00:37:23.002,25 Aug 2021 00:44:26.203,423.201
88,25 Aug 2021 12:04:43.448,25 Aug 2021 12:10:12.560,329.112
89,25 Aug 2021 13:38:09.526,25 Aug 2021 13:45:31.348,441.822
90,25 Aug 2021 22:50:28.768,25 Aug 2021 22:56:17.515,348.747
91,26 Aug 2021 00:23:36.886,26 Aug 2021 00:30:58.034,441.149
92,26 Aug 2021 11:51:32.123,26 Aug 2021 11:56:03.555,271.432
93,26 Aug 2021 13:24:31.112,26 Aug 2021 13:32:04.321,453.209
94,26 Aug 2021 22:37:20.427,26 Aug 2021 22:42:27.602,307.175
95,27 Aug 2021 00:09:54.445,27 Aug 2021 00:17:27.713,453.268
96,27 Aug 2021 11:38:34.981,27 Aug 2021 11:41:38.727,183.747
97,27 Aug 2021 13:10:54.256,27 Aug 2021 13:18:34.251,459.995
98,27 Aug 2021 22:24:19.037,27 Aug 2021 22:28:32.233,253.196
99,27 Aug 2021 23:56:15.367,28 Aug 2021 00:03:55.529,460.162
100,28 Aug 2021 12:57:18.945,28 Aug 2021 13:05:01.157,462.212
101,28 Aug 2021 14:33:11.101,28 Aug 2021 14:36:15.326,184.225
102,28 Aug 2021 22:11:29.835,28 Aug 2021 22:14:26.173,176.338
103,28 Aug 2021 23:42:39.463,28 Aug 2021 23:50:21.665,462.202
104,29 Aug 2021 12:43:45.217,29 Aug 2021 12:51:24.994,459.777
105,29 Aug 2021 14:19:06.362,29 Aug 2021 14:23:24.685,258.323
106,29 Aug 2021 23:29:06.621,29 Aug 2021 23:36:46.225,459.604
107,30 Aug 2021 01:05:56.648,30 Aug 2021 01:09:09.744,193.096
108,30 Aug 2021 12:30:13.181,30 Aug 2021 12:37:45.650,452.469
109,30 Aug 2021 14:05:11.566,30 Aug 2021 14:10:22.594,311.028
110,30 Aug 2021 23:15:36.804,30 Aug 2021 23:23:09.247,452.443
111,31 Aug 2021 00:51:33.754,31 Aug 2021 00:56:10.800,277.046
112,31 Aug 2021 12:16:43.025,31 Aug 2021 12:24:02.914,439.889
113,31 Aug 2021 13:51:22.004,31 Aug 2021 13:57:13.782,351.778
114,31 Aug 2021 23:02:10.032,31 Aug 2021 23:09:30.694,440.662
115,1 Sep 2021 00:37:25.627,1 Sep 2021 00:42:58.738,333.112
116,1 Sep 2021 12:03:15.055,1 Sep 2021 12:10:16.476,421.421
117,1 Sep 2021 13:37:35.887,1 Sep 2021 13:44:00.026,384.139
118,1 Sep 2021 22:48:46.412,1 Sep 2021 22:55:50.469,424.057
119,2 Sep 2021 00:23:25.789,2 Sep 2021 00:29:39.997,374.208
120,2 Sep 2021 11:49:49.753,2 Sep 2021 11:56:25.833,396.080
121,2 Sep 2021 13:23:52.346,2 Sep 2021 13:30:42.212,409.865
122,2 Sep 2021 22:35:26.145,2 Sep 2021 22:42:08.376,402.231
123,3 Sep 2021 00:09:31.858,3 Sep 2021 00:16:16.928,405.071
124,3 Sep 2021 11:36:27.913,3 Sep 2021 11:42:30.162,362.249
125,3 Sep 2021 13:10:10.882,3 Sep 2021 13:17:20.835,429.953
126,3 Sep 2021 22:22:09.566,3 Sep 2021 22:28:24.073,374.507
127,3 Sep 2021 23:55:42.636,4 Sep 2021 00:02:50.700,428.065
128,4 Sep 2021 11:23:10.972,4 Sep 2021 11:28:28.012,317.040
129,4 Sep 2021 12:56:31.215,4 Sep 2021 13:03:56.186,444.971
130,4 Sep 2021 22:08:57.281,4 Sep 2021 22:14:36.974,339.693
131,4 Sep 2021 23:41:57.437,4 Sep 2021 23:49:21.983,444.545
132,5 Sep 2021 11:10:02.029,5 Sep 2021 11:14:16.241,254.212
133,5 Sep 2021 12:42:53.175,5 Sep 2021 12:50:28.423,455.248
134,5 Sep 2021 21:55:50.365,5 Sep 2021 22:00:45.990,295.625
135,5 Sep 2021 23:28:15.824,5 Sep 2021 23:35:51.196,455.372
136,6 Sep 2021 10:57:11.408,6 Sep 2021 10:59:44.493,153.085
137,6 Sep 2021 12:29:16.691,6 Sep 2021 12:36:57.630,460.940
138,6 Sep 2021 14:05:52.189,6 Sep 2021 14:07:17.406,85.217
139,6 Sep 2021 21:42:51.166,6 Sep 2021 21:46:48.790,237.624
140,6 Sep 2021 23:14:37.518,6 Sep 2021 23:22:18.597,461.079
141,7 Sep 2021 12:15:41.752,7 Sep 2021 12:23:23.811,462.059
142,7 Sep 2021 13:51:25.191,7 Sep 2021 13:54:50.169,204.978
143,7 Sep 2021 21:30:06.983,7 Sep 2021 21:32:38.072,151.089
144,7 Sep 2021 23:01:02.353,7 Sep 2021 23:08:44.351,461.999
145,8 Sep 2021 00:39:05.713,8 Sep 2021 00:40:06.113,60.401
146,8 Sep 2021 12:02:08.415,8 Sep 2021 12:09:46.903,458.488
147,8 Sep 2021 13:37:23.643,8 Sep 2021 13:41:55.969,272.327
148,8 Sep 2021 22:47:30.234,8 Sep 2021 22:55:08.542,458.308
149,9 Sep 2021 00:24:05.730,9 Sep 2021 00:27:42.978,217.248
150,9 Sep 2021 11:48:36.808,9 Sep 2021 11:56:06.769,449.961
151,9 Sep 2021 13:23:30.350,9 Sep 2021 13:28:52.024,321.674
152,9 Sep 2021 22:34:01.139,9 Sep 2021 22:41:31.192,450.053
153,10 Sep 2021 00:09:47.521,10 Sep 2021 00:14:39.751,292.230
154,10 Sep 2021 11:35:07.140,10 Sep 2021 11:42:23.183,436.044
155,10 Sep 2021 13:09:41.723,10 Sep 2021 13:15:41.916,360.193
156,10 Sep 2021 22:20:35.109,10 Sep 2021 22:27:52.257,437.149
157,10 Sep 2021 23:55:41.712,11 Sep 2021 00:01:25.760,344.048
158,11 Sep 2021 11:21:39.759,11 Sep 2021 11:28:35.796,416.037
159,11 Sep 2021 12:55:56.285,11 Sep 2021 13:02:27.130,390.845
160,11 Sep 2021 22:07:12.264,11 Sep 2021 22:14:11.610,419.345
161,11 Sep 2021 23:41:43.436,11 Sep 2021 23:48:05.835,382.398
162,12 Sep 2021 11:08:15.193,12 Sep 2021 11:14:44.043,388.850
163,12 Sep 2021 12:42:13.272,12 Sep 2021 12:49:08.427,415.155
164,12 Sep 2021 21:53:52.843,12 Sep 2021 22:00:29.027,396.184
165,12 Sep 2021 23:27:50.716,12 Sep 2021 23:34:41.929,411.213
166,13 Sep 2021 10:54:54.358,13 Sep 2021 11:00:46.995,352.637
167,13 Sep 2021 12:28:32.262,13 Sep 2021 12:35:46.250,433.988
168,13 Sep 2021 21:40:37.223,13 Sep 2021 21:46:44.117,366.894
169,13 Sep 2021 23:14:02.504,13 Sep 2021 23:21:15.061,432.557
170,14 Sep 2021 10:41:38.938,14 Sep 2021 10:46:42.937,303.999
171,14 Sep 2021 12:14:52.996,14 Sep 2021 12:22:20.842,447.846
172,14 Sep 2021 21:27:26.095,14 Sep 2021 21:32:56.215,330.120
173,14 Sep 2021 23:00:18.194,14 Sep 2021 23:07:45.817,447.623
174,15 Sep 2021 10:28:32.836,15 Sep 2021 10:32:27.932,235.096
175,15 Sep 2021 12:01:15.334,15 Sep 2021 12:08:52.353,457.019
176,15 Sep 2021 21:14:20.729,15 Sep 2021 21:19:04.036,283.307
177,15 Sep 2021 22:46:37.392,15 Sep 2021 22:54:14.576,457.184
178,16 Sep 2021 10:15:52.428,16 Sep 2021 10:17:45.565,113.137
179,16 Sep 2021 11:47:39.214,16 Sep 2021 11:55:20.838,461.624
180,16 Sep 2021 13:23:56.571,16 Sep 2021 13:26:02.225,125.654
181,16 Sep 2021 21:01:24.058,16 Sep 2021 21:05:04.667,220.609
182,16 Sep 2021 22:32:59.847,16 Sep 2021 22:40:41.572,461.724
183,17 Sep 2021 11:34:04.650,17 Sep 2021 11:41:46.287,461.637
184,17 Sep 2021 13:09:40.364,17 Sep 2021 13:13:23.839,223.474
185,17 Sep 2021 20:48:47.056,17 Sep 2021 20:50:47.125,120.069
186,17 Sep 2021 22:19:25.416,17 Sep 2021 22:27:06.947,461.531
187,17 Sep 2021 23:56:56.619,17 Sep 2021 23:58:57.218,120.599
188,18 Sep 2021 11:20:31.714,18 Sep 2021 11:28:08.626,456.912
189,18 Sep 2021 12:55:41.368,18 Sep 2021 13:00:26.728,285.360
190,18 Sep 2021 22:05:54.018,18 Sep 2021 22:13:30.769,456.751
191,18 Sep 2021 23:42:16.394,18 Sep 2021 23:46:14.733,238.339
192,19 Sep 2021 11:07:00.546,19 Sep 2021 11:14:27.690,447.144
193,19 Sep 2021 12:41:49.394,19 Sep 2021 12:47:21.104,331.710
194,19 Sep 2021 21:52:25.650,19 Sep 2021 21:59:53.049,447.399
195,19 Sep 2021 23:28:01.952,19 Sep 2021 23:33:08.133,306.181
196,20 Sep 2021 10:53:31.385,20 Sep 2021 11:00:43.235,431.849
197,20 Sep 2021 12:28:01.624,20 Sep 2021 12:34:09.781,368.158
198,20 Sep 2021 21:39:00.366,20 Sep 2021 21:46:13.720,433.354
199,20 Sep 2021 23:13:58.215,20 Sep 2021 23:19:52.455,354.239
200,21 Sep 2021 10:40:04.618,21 Sep 2021 10:46:54.864,410.246
201,21 Sep 2021 12:14:16.821,21 Sep 2021 12:20:54.009,397.188
202,21 Sep 2021 21:25:38.313,21 Sep 2021 21:32:32.633,414.321
203,21 Sep 2021 23:00:01.397,21 Sep 2021 23:06:31.451,390.055
204,22 Sep 2021 10:26:40.844,22 Sep 2021 10:33:01.952,381.108
205,22 Sep 2021 12:00:34.316,22 Sep 2021 12:07:34.447,420.131
206,22 Sep 2021 21:12:19.757,22 Sep 2021 21:18:49.541,389.784
207,22 Sep 2021 22:46:09.828,22 Sep 2021 22:53:06.765,416.937
208,23 Sep 2021 10:13:21.103,23 Sep 2021 10:19:03.429,342.325
209,23 Sep 2021 11:46:53.741,23 Sep 2021 11:54:11.475,437.735
210,23 Sep 2021 20:59:05.136,23 Sep 2021 21:05:03.996,358.860
211,23 Sep 2021 22:32:22.596,23 Sep 2021 22:39:39.285,436.690
212,24 Sep 2021 10:00:07.406,24 Sep 2021 10:04:57.266,289.859
213,24 Sep 2021 11:33:14.865,24 Sep 2021 11:40:45.324,450.459
214,24 Sep 2021 20:45:55.229,24 Sep 2021 20:51:15.217,319.988
215,24 Sep 2021 22:18:39.150,24 Sep 2021 22:26:09.537,450.386
216,25 Sep 2021 09:47:04.801,25 Sep 2021 09:50:38.370,213.570
217,25 Sep 2021 11:19:37.575,25 Sep 2021 11:27:16.113,458.538
218,25 Sep 2021 20:32:51.569,25 Sep 2021 20:37:21.696,270.128
219,25 Sep 2021 22:04:59.147,25 Sep 2021 22:12:37.856,458.710
220,26 Sep 2021 09:34:48.471,26 Sep 2021 09:35:31.521,43.050
221,26 Sep 2021 11:06:01.826,26 Sep 2021 11:13:43.876,462.050
222,26 Sep 2021 12:42:06.211,26 Sep 2021 12:44:41.705,155.494
223,26 Sep 2021 20:19:57.897,26 Sep 2021 20:23:19.687,201.790
224,26 Sep 2021 21:51:22.355,26 Sep 2021 21:59:04.457,462.102
225,27 Sep 2021 10:52:27.645,27 Sep 2021 11:00:08.590,460.944
226,27 Sep 2021 12:27:56.361,27 Sep 2021 12:31:56.599,240.237
227,27 Sep 2021 20:07:33.400,27 Sep 2021 20:08:50.002,76.602
228,27 Sep 2021 21:37:48.653,27 Sep 2021 21:45:29.457,460.804
229,27 Sep 2021 23:14:58.714,27 Sep 2021 23:17:37.234,158.520
230,28 Sep 2021 10:38:55.112,28 Sep 2021 10:46:30.165,455.053
231,28 Sep 2021 12:13:59.475,28 Sep 2021 12:18:57.023,297.547
232,28 Sep 2021 21:24:17.981,28 Sep 2021 21:31:52.914,454.933
233,28 Sep 2021 23:00:28.261,28 Sep 2021 23:04:45.380,257.119
234,29 Sep 2021 10:25:24.398,29 Sep 2021 10:32:48.417,444.019
235,29 Sep 2021 12:00:08.676,29 Sep 2021 12:05:49.870,341.194
236,29 Sep 2021 21:10:50.336,29 Sep 2021 21:18:14.817,444.481
237,29 Sep 2021 22:46:16.966,29 Sep 2021 22:51:36.024,319.058
238,30 Sep 2021 10:11:55.771,30 Sep 2021 10:19:03.067,427.296
239,30 Sep 2021 11:46:21.696,30 Sep 2021 11:52:37.397,375.701
240,30 Sep 2021 20:57:25.809,30 Sep 2021 21:04:35.082,429.273
241,30 Sep 2021 22:32:15.105,30 Sep 2021 22:38:18.848,363.742
242,1 Oct 2021 09:58:29.647,1 Oct 2021 10:05:13.680,404.032
243,1 Oct 2021 11:32:37.486,1 Oct 2021 11:39:20.674,403.188
244,1 Oct 2021 20:44:04.563,1 Oct 2021 20:50:53.545,408.983
245,1 Oct 2021 22:18:19.655,1 Oct 2021 22:24:56.857,397.203
246,2 Oct 2021 09:45:06.722,2 Oct 2021 09:51:19.545,372.823
247,2 Oct 2021 11:18:55.471,2 Oct 2021 11:26:00.271,424.800
248,2 Oct 2021 20:30:46.895,2 Oct 2021 20:37:09.915,383.020
249,2 Oct 2021 22:04:29.186,2 Oct 2021 22:11:31.443,422.256
250,3 Oct 2021 09:31:48.185,3 Oct 2021 09:37:19.444,331.259
251,3 Oct 2021 11:05:15.316,3 Oct 2021 11:12:36.523,441.207
252,3 Oct 2021 20:17:33.309,3 Oct 2021 20:23:23.688,350.379
253,3 Oct 2021 21:50:42.899,3 Oct 2021 21:58:03.379,440.479
254,4 Oct 2021 09:18:36.462,4 Oct 2021 09:23:10.912,274.450
255,4 Oct 2021 10:51:36.831,4 Oct 2021 10:59:09.635,452.805
256,4 Oct 2021 20:04:24.714,4 Oct 2021 20:09:33.959,309.246
257,4 Oct 2021 21:37:00.303,4 Oct 2021 21:44:33.148,452.844
258,5 Oct 2021 09:05:38.339,5 Oct 2021 09:08:47.142,188.803
259,5 Oct 2021 10:37:59.906,5 Oct 2021 10:45:39.696,459.790
260,5 Oct 2021 19:51:22.946,5 Oct 2021 19:55:38.906,255.960
261,5 Oct 2021 21:23:21.080,5 Oct 2021 21:31:01.040,459.960
262,6 Oct 2021 10:24:24.527,6 Oct 2021 10:32:06.738,462.211
263,6 Oct 2021 12:00:18.440,6 Oct 2021 12:03:18.510,180.070
264,6 Oct 2021 19:38:32.956,6 Oct 2021 19:41:33.568,180.612
265,6 Oct 2021 21:09:45.039,6 Oct 2021 21:17:27.250,462.211
266,7 Oct 2021 10:10:50.727,7 Oct 2021 10:18:30.713,459.986
267,7 Oct 2021 11:46:13.013,7 Oct 2021 11:50:28.618,255.605
268,7 Oct 2021 20:56:12.062,7 Oct 2021 21:03:51.879,459.817
269,7 Oct 2021 22:33:04.997,7 Oct 2021 22:36:13.161,188.164
270,8 Oct 2021 09:57:18.612,8 Oct 2021 10:04:51.514,452.901
271,8 Oct 2021 11:32:17.915,8 Oct 2021 11:37:26.895,308.981
272,8 Oct 2021 20:42:42.110,8 Oct 2021 20:50:14.968,452.858
273,8 Oct 2021 22:18:41.092,8 Oct 2021 22:23:15.156,274.065
274,9 Oct 2021 09:43:48.368,9 Oct 2021 09:51:08.934,440.566
275,9 Oct 2021 11:18:28.165,9 Oct 2021 11:24:18.335,350.170
276,9 Oct 2021 20:29:15.201,9 Oct 2021 20:36:36.488,441.287
277,9 Oct 2021 22:04:32.504,9 Oct 2021 22:10:03.488,330.984
278,10 Oct 2021 09:30:20.292,10 Oct 2021 09:37:22.672,422.379
279,10 Oct 2021 11:04:41.921,10 Oct 2021 11:11:04.774,382.853
280,10 Oct 2021 20:15:51.438,10 Oct 2021 20:22:56.345,424.907
281,10 Oct 2021 21:50:32.360,10 Oct 2021 21:56:44.978,372.619
282,11 Oct 2021 09:16:54.858,11 Oct 2021 09:23:32.226,397.368
283,11 Oct 2021 10:50:58.277,11 Oct 2021 10:57:47.128,408.851
284,11 Oct 2021 20:02:31.014,11 Oct 2021 20:09:14.341,403.327
285,11 Oct 2021 21:36:38.194,11 Oct 2021 21:43:22.072,403.878
286,12 Oct 2021 09:03:32.840,12 Oct 2021 09:09:36.805,363.964
287,12 Oct 2021 10:37:16.730,12 Oct 2021 10:44:25.901,429.171
288,12 Oct 2021 19:49:14.263,12 Oct 2021 19:55:30.142,375.879
289,12 Oct 2021 21:22:48.780,12 Oct 2021 21:29:55.967,427.187
290,13 Oct 2021 08:50:15.635,13 Oct 2021 08:55:34.989,319.354
291,13 Oct 2021 10:23:36.988,13 Oct 2021 10:31:01.393,444.405
292,13 Oct 2021 19:36:01.767,13 Oct 2021 19:41:43.185,341.418
293,13 Oct 2021 21:09:03.413,13 Oct 2021 21:16:27.354,443.941
294,14 Oct 2021 08:37:06.219,14 Oct 2021 08:41:23.764,257.544
295,14 Oct 2021 10:09:58.877,14 Oct 2021 10:17:33.769,454.893
296,14 Oct 2021 19:22:54.579,14 Oct 2021 19:27:52.408,297.829
297,14 Oct 2021 20:55:21.647,14 Oct 2021 21:02:56.650,455.003
298,15 Oct 2021 08:24:14.192,15 Oct 2021 08:26:53.494,159.303
299,15 Oct 2021 09:56:22.324,15 Oct 2021 10:04:03.107,460.783
300,15 Oct 2021 11:33:02.407,15 Oct 2021 11:34:17.651,75.244
301,15 Oct 2021 19:09:54.950,15 Oct 2021 19:13:55.572,240.622
302,15 Oct 2021 20:41:43.197,15 Oct 2021 20:49:24.126,460.928
303,16 Oct 2021 09:42:47.317,16 Oct 2021 09:50:29.424,462.107
304,16 Oct 2021 11:18:32.288,16 Oct 2021 11:21:53.601,201.314
305,16 Oct 2021 18:57:09.709,16 Oct 2021 18:59:45.843,156.133
306,16 Oct 2021 20:28:07.895,16 Oct 2021 20:35:49.952,462.057
307,16 Oct 2021 22:06:21.906,16 Oct 2021 22:07:01.742,39.836
308,17 Oct 2021 09:29:13.906,17 Oct 2021 09:36:52.655,458.749
309,17 Oct 2021 11:04:30.205,17 Oct 2021 11:09:00.009,269.804
310,17 Oct 2021 20:14:35.642,17 Oct 2021 20:22:14.214,458.571
311,17 Oct 2021 21:51:13.720,17 Oct 2021 21:54:46.738,213.018
312,18 Oct 2021 09:15:42.219,18 Oct 2021 09:23:12.669,450.450
313,18 Oct 2021 10:50:36.648,18 Oct 2021 10:55:56.390,319.742
314,18 Oct 2021 20:01:06.412,18 Oct 2021 20:08:36.931,450.519
315,18 Oct 2021 21:36:54.721,18 Oct 2021 21:41:44.227,289.505
316,19 Oct 2021 09:02:12.460,19 Oct 2021 09:09:29.245,436.785
317,19 Oct 2021 10:36:47.854,19 Oct 2021 10:42:46.518,358.664
318,19 Oct 2021 19:47:40.244,19 Oct 2021 19:54:58.068,437.824
319,19 Oct 2021 21:22:48.501,19 Oct 2021 21:28:30.572,342.071
320,20 Oct 2021 08:48:44.965,20 Oct 2021 08:55:42.035,417.070
321,20 Oct 2021 10:23:02.293,20 Oct 2021 10:29:31.919,389.626
322,20 Oct 2021 19:34:17.254,20 Oct 2021 19:41:17.501,420.247
323,20 Oct 2021 21:08:49.944,20 Oct 2021 21:15:10.861,380.917
324,21 Oct 2021 08:35:20.260,21 Oct 2021 08:41:50.490,390.230
325,21 Oct 2021 10:09:19.184,21 Oct 2021 10:16:13.380,414.196
326,21 Oct 2021 19:20:57.674,21 Oct 2021 19:27:35.009,397.335
327,21 Oct 2021 20:54:57.003,21 Oct 2021 21:01:47.105,410.102
328,22 Oct 2021 08:21:59.232,22 Oct 2021 08:27:53.707,354.476
329,22 Oct 2021 09:55:38.091,22 Oct 2021 10:02:51.348,433.257
330,22 Oct 2021 19:07:41.874,22 Oct 2021 19:13:50.214,368.341
331,22 Oct 2021 20:41:08.605,22 Oct 2021 20:48:20.351,431.746
332,23 Oct 2021 08:08:43.515,23 Oct 2021 08:13:50.017,306.503
333,23 Oct 2021 09:41:58.750,23 Oct 2021 09:49:26.082,447.332
334,23 Oct 2021 18:54:30.523,23 Oct 2021 19:00:02.468,331.945
335,23 Oct 2021 20:27:24.132,23 Oct 2021 20:34:51.206,447.074
336,24 Oct 2021 07:55:36.842,24 Oct 2021 07:59:35.657,238.815
337,24 Oct 2021 09:28:21.020,24 Oct 2021 09:35:57.727,456.707
338,24 Oct 2021 18:41:24.862,24 Oct 2021 18:46:10.523,285.662
339,24 Oct 2021 20:13:43.178,24 Oct 2021 20:21:20.051,456.873
340,25 Oct 2021 07:42:54.067,25 Oct 2021 07:44:55.731,121.664
341,25 Oct 2021 09:14:44.832,25 Oct 2021 09:22:26.348,461.516
342,25 Oct 2021 10:51:05.030,25 Oct 2021 10:53:04.250,119.219
343,25 Oct 2021 18:28:27.689,25 Oct 2021 18:32:11.586,223.897
344,25 Oct 2021 20:00:05.495,25 Oct 2021 20:07:47.119,461.624
345,26 Oct 2021 09:01:10.198,26 Oct 2021 09:08:51.934,461.736
346,26 Oct 2021 10:36:47.284,26 Oct 2021 10:40:27.464,220.181
347,26 Oct 2021 18:15:49.105,26 Oct 2021 18:17:55.561,126.455
348,26 Oct 2021 19:46:30.927,26 Oct 2021 19:54:12.565,461.638
349,26 Oct 2021 21:24:06.825,26 Oct 2021 21:25:58.818,111.993
350,27 Oct 2021 08:47:37.186,27 Oct 2021 08:55:14.410,457.224
351,27 Oct 2021 10:22:47.855,27 Oct 2021 10:27:30.858,283.003
352,27 Oct 2021 19:32:59.395,27 Oct 2021 19:40:36.457,457.062
353,27 Oct 2021 21:09:24.123,27 Oct 2021 21:13:18.735,234.612
354,28 Oct 2021 08:34:05.935,28 Oct 2021 08:41:33.628,447.692
355,28 Oct 2021 10:08:55.651,28 Oct 2021 10:14:25.535,329.884
356,28 Oct 2021 19:19:30.891,28 Oct 2021 19:26:58.805,447.914
357,28 Oct 2021 20:55:09.034,28 Oct 2021 21:00:12.708,303.674
358,29 Oct 2021 08:20:36.678,29 Oct 2021 08:27:49.339,432.660
359,29 Oct 2021 09:55:07.723,29 Oct 2021 10:01:14.429,366.707
360,29 Oct 2021 19:06:05.468,29 Oct 2021 19:13:19.548,434.080
361,29 Oct 2021 20:41:04.928,29 Oct 2021 20:46:57.327,352.399
362,30 Oct 2021 08:07:09.794,30 Oct 2021 08:14:01.150,411.355
363,30 Oct 2021 09:41:22.805,30 Oct 2021 09:47:58.840,396.035
364,30 Oct 2021 18:52:43.266,30 Oct 2021 18:59:38.544,415.278
365,30 Oct 2021 20:27:07.846,30 Oct 2021 20:33:36.517,388.671
366,31 Oct 2021 07:53:45.869,31 Oct 2021 08:00:08.456,382.587
367,31 Oct 2021 09:27:40.206,31 Oct 2021 09:34:39.435,419.228
368,31 Oct 2021 18:39:24.547,31 Oct 2021 18:45:55.548,391.001
369,31 Oct 2021 20:13:16.067,31 Oct 2021 20:20:11.972,415.904
370,1 Nov 2021 07:40:25.917,1 Nov 2021 07:46:10.217,344.300
371,1 Nov 2021 09:13:59.551,1 Nov 2021 09:21:16.608,437.057
372,1 Nov 2021 18:26:09.737,1 Nov 2021 18:32:10.123,360.386
373,1 Nov 2021 19:59:28.655,1 Nov 2021 20:06:44.600,435.945
374,2 Nov 2021 07:27:11.882,2 Nov 2021 07:32:04.461,292.578
375,2 Nov 2021 09:00:20.604,2 Nov 2021 09:07:50.600,449.996
376,2 Nov 2021 18:12:59.598,2 Nov 2021 18:18:21.519,321.921
377,2 Nov 2021 19:45:45.051,2 Nov 2021 19:53:14.948,449.897
378,3 Nov 2021 07:14:08.565,3 Nov 2021 07:17:46.352,217.787
379,3 Nov 2021 08:46:43.244,3 Nov 2021 08:54:21.520,458.277
380,3 Nov 2021 17:59:55.608,3 Nov 2021 18:04:28.256,272.648
381,3 Nov 2021 19:32:04.899,3 Nov 2021 19:39:43.350,458.451
382,4 Nov 2021 07:01:44.629,4 Nov 2021 07:02:47.185,62.557
383,4 Nov 2021 08:33:07.427,4 Nov 2021 08:40:49.417,461.990
384,4 Nov 2021 10:09:13.994,4 Nov 2021 10:11:44.420,150.427
385,4 Nov 2021 17:47:01.335,4 Nov 2021 17:50:26.781,205.446
386,4 Nov 2021 19:18:27.969,4 Nov 2021 19:26:10.021,462.052
387,5 Nov 2021 08:19:33.176,5 Nov 2021 08:27:14.269,461.093
388,5 Nov 2021 09:55:03.146,5 Nov 2021 09:59:00.378,237.231
389,5 Nov 2021 17:34:33.731,5 Nov 2021 17:36:00.139,86.409
390,5 Nov 2021 19:04:54.131,5 Nov 2021 19:12:35.091,460.959
391,5 Nov 2021 20:42:07.737,5 Nov 2021 20:44:40.002,152.265
392,6 Nov 2021 08:06:00.565,6 Nov 2021 08:13:35.985,455.420
393,6 Nov 2021 09:41:05.895,6 Nov 2021 09:46:01.230,295.335
394,6 Nov 2021 18:51:23.321,6 Nov 2021 18:58:58.615,455.295
395,6 Nov 2021 20:27:35.786,6 Nov 2021 20:31:49.566,253.780
396,7 Nov 2021 07:52:29.765,7 Nov 2021 07:59:54.388,444.623
397,7 Nov 2021 09:27:14.886,7 Nov 2021 09:32:54.352,339.466
398,7 Nov 2021 18:37:55.546,7 Nov 2021 18:45:20.585,445.039
399,7 Nov 2021 20:13:23.944,7 Nov 2021 20:18:40.685,316.741
400,8 Nov 2021 07:39:01.033,8 Nov 2021 07:46:09.210,428.176
401,8 Nov 2021 09:13:27.762,8 Nov 2021 09:19:42.091,374.329
402,8 Nov 2021 18:24:30.876,8 Nov 2021 18:31:40.926,430.051
403,8 Nov 2021 19:59:21.747,8 Nov 2021 20:05:23.775,362.027
404,9 Nov 2021 07:25:34.790,9 Nov 2021 07:32:20.013,405.223
405,9 Nov 2021 08:59:43.446,9 Nov 2021 09:06:25.543,402.097
406,9 Nov 2021 18:11:09.479,9 Nov 2021 18:17:59.477,409.998
407,9 Nov 2021 19:45:26.049,9 Nov 2021 19:52:01.962,395.913
408,10 Nov 2021 07:12:11.702,10 Nov 2021 07:18:26.111,374.408
409,10 Nov 2021 08:46:01.341,10 Nov 2021 08:53:05.294,423.953
410,10 Nov 2021 17:57:51.643,10 Nov 2021 18:04:15.947,384.304
411,10 Nov 2021 19:31:35.379,10 Nov 2021 19:38:36.677,421.298
412,11 Nov 2021 06:58:52.932,11 Nov 2021 07:04:26.311,333.378
413,11 Nov 2021 08:32:21.108,11 Nov 2021 08:39:41.689,440.581
414,11 Nov 2021 17:44:37.861,11 Nov 2021 17:50:29.850,351.989
415,11 Nov 2021 19:17:48.918,11 Nov 2021 19:25:08.719,439.801
416,12 Nov 2021 06:45:40.818,12 Nov 2021 06:50:18.241,277.422
417,12 Nov 2021 08:18:42.549,12 Nov 2021 08:26:14.939,452.390
418,12 Nov 2021 17:31:29.015,12 Nov 2021 17:36:40.305,311.290
419,12 Nov 2021 19:04:06.166,12 Nov 2021 19:11:38.572,452.405
420,13 Nov 2021 06:32:41.764,13 Nov 2021 06:35:55.477,193.713
421,13 Nov 2021 08:05:05.557,13 Nov 2021 08:12:45.133,459.576
422,13 Nov 2021 17:18:26.879,13 Nov 2021 17:22:45.552,258.673
423,13 Nov 2021 18:50:26.798,13 Nov 2021 18:58:06.547,459.749
424,14 Nov 2021 07:51:30.109,14 Nov 2021 07:59:12.311,462.201
425,14 Nov 2021 09:27:25.835,14 Nov 2021 09:30:21.623,175.788
426,14 Nov 2021 17:05:36.140,14 Nov 2021 17:08:40.896,184.756
427,14 Nov 2021 18:36:50.618,14 Nov 2021 18:44:32.829,462.211
428,15 Nov 2021 07:37:56.239,15 Nov 2021 07:45:36.424,460.186
429,15 Nov 2021 09:13:19.685,15 Nov 2021 09:17:32.523,252.839
430,15 Nov 2021 18:23:17.507,15 Nov 2021 18:30:57.528,460.021
431,15 Nov 2021 20:00:13.420,15 Nov 2021 20:03:16.503,183.083
432,16 Nov 2021 07:24:24.047,16 Nov 2021 07:31:57.368,453.321
433,16 Nov 2021 08:59:24.274,16 Nov 2021 09:04:31.181,306.906
434,16 Nov 2021 18:09:47.419,16 Nov 2021 18:17:20.684,453.265
435,16 Nov 2021 19:45:48.450,16 Nov 2021 19:50:19.489,271.039
436,17 Nov 2021 07:10:53.712,17 Nov 2021 07:18:14.946,441.234
437,17 Nov 2021 08:45:34.336,17 Nov 2021 08:51:22.872,348.536
438,17 Nov 2021 17:56:20.375,17 Nov 2021 18:03:42.276,441.901
439,17 Nov 2021 19:31:39.386,17 Nov 2021 19:37:08.223,328.837
440,18 Nov 2021 06:57:25.531,18 Nov 2021 07:04:28.856,423.324
441,18 Nov 2021 08:31:47.961,18 Nov 2021 08:38:09.512,381.551
442,18 Nov 2021 17:42:56.469,18 Nov 2021 17:50:02.208,425.739
443,18 Nov 2021 19:17:38.933,18 Nov 2021 19:23:49.951,371.018
444,19 Nov 2021 06:43:59.966,19 Nov 2021 06:50:38.608,398.643
445,19 Nov 2021 08:18:04.213,19 Nov 2021 08:24:52.034,407.821
446,19 Nov 2021 17:29:35.891,19 Nov 2021 17:36:20.294,404.403
447,19 Nov 2021 19:03:44.536,19 Nov 2021 19:10:27.209,402.673
448,20 Nov 2021 06:30:37.773,20 Nov 2021 06:36:43.434,365.661
449,20 Nov 2021 08:04:22.581,20 Nov 2021 08:11:30.959,428.378
450,20 Nov 2021 17:16:18.967,20 Nov 2021 17:22:36.202,377.235
451,20 Nov 2021 18:49:54.929,20 Nov 2021 18:57:01.231,426.302
452,21 Nov 2021 06:17:20.309,21 Nov 2021 06:22:41.949,321.640
453,21 Nov 2021 07:50:42.763,21 Nov 2021 07:58:06.592,443.830
454,21 Nov 2021 17:03:06.265,21 Nov 2021 17:08:49.380,343.115
455,21 Nov 2021 18:36:09.393,21 Nov 2021 18:43:32.716,443.323
456,22 Nov 2021 06:04:10.439,22 Nov 2021 06:08:31.254,260.815
457,22 Nov 2021 07:37:04.580,22 Nov 2021 07:44:39.105,454.525
458,22 Nov 2021 16:49:58.808,22 Nov 2021 16:54:58.809,300.002
459,22 Nov 2021 18:22:27.473,22 Nov 2021 18:30:02.099,454.626
460,23 Nov 2021 05:51:17.098,23 Nov 2021 05:54:02.369,165.271
461,23 Nov 2021 07:23:27.960,23 Nov 2021 07:31:08.580,460.621
462,23 Nov 2021 09:00:13.430,23 Nov 2021 09:01:17.092,63.662
463,23 Nov 2021 16:36:58.762,23 Nov 2021 16:41:02.325,243.563
464,23 Nov 2021 18:08:48.881,23 Nov 2021 18:16:29.650,460.769
465,24 Nov 2021 07:09:52.882,24 Nov 2021 07:17:35.029,462.147
466,24 Nov 2021 08:45:39.429,24 Nov 2021 08:48:56.987,197.558
467,24 Nov 2021 16:24:12.529,24 Nov 2021 16:26:53.519,160.989
468,24 Nov 2021 17:55:13.442,24 Nov 2021 18:02:55.548,462.106
469,25 Nov 2021 06:56:19.398,25 Nov 2021 07:03:58.395,458.997
470,25 Nov 2021 08:31:36.784,25 Nov 2021 08:36:04.022,267.238
471,25 Nov 2021 17:41:41.054,25 Nov 2021 17:49:19.876,458.821
472,25 Nov 2021 19:18:21.762,25 Nov 2021 19:21:50.442,208.680
473,26 Nov 2021 06:42:47.630,26 Nov 2021 06:50:18.558,450.928
474,26 Nov 2021 08:17:42.955,26 Nov 2021 08:23:00.740,317.785
475,26 Nov 2021 17:28:11.689,26 Nov 2021 17:35:42.665,450.975
476,26 Nov 2021 19:04:01.939,26 Nov 2021 19:08:48.682,286.742
477,27 Nov 2021 06:29:17.779,27 Nov 2021 06:36:35.292,437.513
478,27 Nov 2021 08:03:53.989,27 Nov 2021 08:09:51.106,357.116
479,27 Nov 2021 17:14:45.384,27 Nov 2021 17:22:03.872,438.488
480,27 Nov 2021 18:49:55.302,27 Nov 2021 18:55:35.373,340.070
481,28 Nov 2021 06:15:50.174,28 Nov 2021 06:22:48.262,418.088
482,28 Nov 2021 07:50:08.305,28 Nov 2021 07:56:36.697,388.392
483,28 Nov 2021 17:01:22.249,28 Nov 2021 17:08:23.384,421.135
484,28 Nov 2021 18:35:56.458,28 Nov 2021 18:42:15.876,379.418
485,29 Nov 2021 06:02:25.329,29 Nov 2021 06:08:56.926,391.597
486,29 Nov 2021 07:36:25.097,29 Nov 2021 07:43:18.322,413.225
487,29 Nov 2021 16:48:02.511,29 Nov 2021 16:54:40.982,398.471
488,29 Nov 2021 18:22:03.294,29 Nov 2021 18:28:52.275,408.981
489,30 Nov 2021 05:49:04.111,30 Nov 2021 05:55:00.403,356.291
490,30 Nov 2021 07:22:43.921,30 Nov 2021 07:29:56.441,432.520
491,30 Nov 2021 16:34:46.531,30 Nov 2021 16:40:56.304,369.773
492,30 Nov 2021 18:08:14.711,30 Nov 2021 18:15:25.640,430.930
493,1 Dec 2021 05:35:48.104,1 Dec 2021 05:40:57.075,308.971
494,1 Dec 2021 07:09:04.506,1 Dec 2021 07:16:31.315,446.809
495,1 Dec 2021 16:21:34.963,1 Dec 2021 16:27:08.706,333.743
496,1 Dec 2021 17:54:30.073,1 Dec 2021 18:01:56.591,446.517
497,2 Dec 2021 05:22:40.880,2 Dec 2021 05:26:43.338,242.458
498,2 Dec 2021 06:55:26.706,2 Dec 2021 07:03:03.095,456.390
499,2 Dec 2021 16:08:29.008,2 Dec 2021 16:13:16.985,287.976
500,2 Dec 2021 17:40:48.969,2 Dec 2021 17:48:25.515,456.546
501,3 Dec 2021 05:09:56.000,3 Dec 2021 05:12:05.593,129.593
502,3 Dec 2021 06:41:50.450,3 Dec 2021 06:49:31.851,461.402
503,3 Dec 2021 08:18:13.683,3 Dec 2021 08:20:06.072,112.390
504,3 Dec 2021 15:55:31.351,3 Dec 2021 15:59:18.467,227.117
505,3 Dec 2021 17:27:11.144,3 Dec 2021 17:34:52.660,461.515
506,4 Dec 2021 06:28:15.746,4 Dec 2021 06:35:57.571,461.826
507,4 Dec 2021 08:03:54.236,4 Dec 2021 08:07:31.053,216.818
508,4 Dec 2021 15:42:51.320,4 Dec 2021 15:45:03.826,132.506
509,4 Dec 2021 17:13:36.440,4 Dec 2021 17:21:18.176,461.736
510,4 Dec 2021 18:51:17.413,4 Dec 2021 18:53:00.035,102.622
511,5 Dec 2021 06:14:42.658,5 Dec 2021 06:22:20.189,457.531
512,5 Dec 2021 07:49:54.353,5 Dec 2021 07:54:34.967,280.614
513,5 Dec 2021 17:00:04.775,5 Dec 2021 17:07:42.134,457.359
514,5 Dec 2021 18:36:31.889,5 Dec 2021 18:40:22.696,230.806
515,6 Dec 2021 06:01:11.325,6 Dec 2021 06:08:39.555,448.230
516,6 Dec 2021 07:36:01.906,6 Dec 2021 07:41:29.948,328.043
517,6 Dec 2021 16:46:36.135,6 Dec 2021 16:54:04.552,448.418
518,6 Dec 2021 18:22:16.131,6 Dec 2021 18:27:17.264,301.132
519,7 Dec 2021 05:47:41.972,7 Dec 2021 05:54:55.423,433.451
520,7 Dec 2021 07:22:13.825,7 Dec 2021 07:28:19.066,365.241
521,7 Dec 2021 16:33:10.573,7 Dec 2021 16:40:25.369,434.796
522,7 Dec 2021 18:08:11.649,7 Dec 2021 18:14:02.185,350.536
523,8 Dec 2021 05:34:14.973,8 Dec 2021 05:41:07.423,412.450
524,8 Dec 2021 07:08:28.790,8 Dec 2021 07:15:03.658,394.869
525,8 Dec 2021 16:19:48.223,8 Dec 2021 16:26:44.447,416.224
526,8 Dec 2021 17:54:14.301,8 Dec 2021 18:00:41.572,387.271
527,9 Dec 2021 05:20:50.897,9 Dec 2021 05:27:14.947,384.050
528,9 Dec 2021 06:54:46.097,9 Dec 2021 07:01:44.413,418.315
529,9 Dec 2021 16:06:29.342,9 Dec 2021 16:13:01.545,392.203
530,9 Dec 2021 17:40:22.311,9 Dec 2021 17:47:17.169,414.858
531,10 Dec 2021 05:07:30.738,10 Dec 2021 05:13:16.988,346.250
532,10 Dec 2021 06:41:05.362,10 Dec 2021 06:48:21.737,436.375
533,10 Dec 2021 15:53:14.345,10 Dec 2021 15:59:16.241,361.896
534,10 Dec 2021 17:26:34.718,10 Dec 2021 17:33:49.912,435.194
535,11 Dec 2021 04:54:16.373,11 Dec 2021 04:59:11.630,295.257
536,11 Dec 2021 06:27:26.342,11 Dec 2021 06:34:55.861,449.520
537,11 Dec 2021 15:40:03.975,11 Dec 2021 15:45:27.797,323.821
538,11 Dec 2021 17:12:50.953,11 Dec 2021 17:20:20.350,449.397
539,12 Dec 2021 04:41:12.374,12 Dec 2021 04:44:54.276,221.901
540,12 Dec 2021 06:13:48.912,12 Dec 2021 06:21:26.918,458.006
541,12 Dec 2021 15:26:59.662,12 Dec 2021 15:31:34.794,275.131
542,12 Dec 2021 16:59:10.653,12 Dec 2021 17:06:48.833,458.180
543,13 Dec 2021 04:28:43.204,13 Dec 2021 04:30:00.420,77.216
544,13 Dec 2021 06:00:13.026,13 Dec 2021 06:07:54.948,461.922
545,13 Dec 2021 07:36:21.869,13 Dec 2021 07:38:47.033,145.164
546,13 Dec 2021 15:14:04.810,13 Dec 2021 15:17:33.833,209.022
547,13 Dec 2021 16:45:33.584,13 Dec 2021 16:53:15.577,461.993
548,14 Dec 2021 05:46:38.700,14 Dec 2021 05:54:19.938,461.237
549,14 Dec 2021 07:22:09.950,14 Dec 2021 07:26:04.126,234.177
550,14 Dec 2021 15:01:34.571,14 Dec 2021 15:03:09.756,95.185
551,14 Dec 2021 16:31:59.611,14 Dec 2021 16:39:40.717,461.106
552,14 Dec 2021 18:09:16.901,14 Dec 2021 18:11:42.613,145.712
553,15 Dec 2021 05:33:06.018,15 Dec 2021 05:40:41.795,455.778
554,15 Dec 2021 07:08:12.322,15 Dec 2021 07:13:05.423,293.101
555,15 Dec 2021 16:18:28.667,15 Dec 2021 16:26:04.310,455.643
556,15 Dec 2021 17:54:43.342,15 Dec 2021 17:58:53.718,250.376
557,16 Dec 2021 05:19:35.133,16 Dec 2021 05:27:00.351,445.218
558,16 Dec 2021 06:54:21.099,16 Dec 2021 06:59:58.826,337.727
559,16 Dec 2021 16:05:00.757,16 Dec 2021 16:12:26.350,445.594
560,16 Dec 2021 17:40:30.936,16 Dec 2021 17:45:45.327,314.390
561,17 Dec 2021 05:06:06.302,17 Dec 2021 05:13:15.340,429.038
562,17 Dec 2021 06:40:33.832,17 Dec 2021 06:46:46.774,372.942
563,17 Dec 2021 15:51:35.946,17 Dec 2021 15:58:46.768,430.822
564,17 Dec 2021 17:26:28.399,17 Dec 2021 17:32:28.686,360.288
565,18 Dec 2021 04:52:39.937,18 Dec 2021 04:59:26.334,406.397
566,18 Dec 2021 06:26:49.406,18 Dec 2021 06:33:30.397,400.991
567,18 Dec 2021 15:38:14.401,18 Dec 2021 15:45:05.401,411.000
568,18 Dec 2021 17:12:32.450,18 Dec 2021 17:19:07.055,394.605
569,19 Dec 2021 04:39:16.685,19 Dec 2021 04:45:32.661,375.975
570,19 Dec 2021 06:13:07.212,19 Dec 2021 06:20:10.307,423.096
571,19 Dec 2021 15:24:56.396,19 Dec 2021 15:31:21.970,385.574
572,19 Dec 2021 16:58:41.577,19 Dec 2021 17:05:41.904,420.327
573,20 Dec 2021 04:25:57.686,20 Dec 2021 04:31:33.162,335.476
574,20 Dec 2021 05:59:26.900,20 Dec 2021 06:06:46.846,439.946
575,20 Dec 2021 15:11:42.419,20 Dec 2021 15:17:36.001,353.582
576,20 Dec 2021 16:44:54.942,20 Dec 2021 16:52:14.052,439.110
577,21 Dec 2021 04:12:45.196,21 Dec 2021 04:17:25.544,280.348
578,21 Dec 2021 05:45:48.267,21 Dec 2021 05:53:20.234,451.967
579,21 Dec 2021 14:58:33.327,21 Dec 2021 15:03:46.638,313.311
580,21 Dec 2021 16:31:12.033,21 Dec 2021 16:38:43.999,451.966
581,22 Dec 2021 03:59:45.260,22 Dec 2021 04:03:03.733,198.472
582,22 Dec 2021 05:32:11.209,22 Dec 2021 05:39:50.562,459.353
583,22 Dec 2021 14:45:30.831,22 Dec 2021 14:49:52.178,261.347
584,22 Dec 2021 16:17:32.519,22 Dec 2021 16:25:12.048,459.530
585,23 Dec 2021 05:18:35.692,23 Dec 2021 05:26:17.874,462.182
586,23 Dec 2021 06:54:33.287,23 Dec 2021 06:57:24.672,171.384
587,23 Dec 2021 14:32:39.377,23 Dec 2021 14:35:48.173,188.795
588,23 Dec 2021 16:03:56.200,23 Dec 2021 16:11:38.401,462.201
589,24 Dec 2021 05:05:01.750,24 Dec 2021 05:12:42.126,460.376
590,24 Dec 2021 06:40:26.371,24 Dec 2021 06:44:36.405,250.033
591,24 Dec 2021 14:20:36.484,24 Dec 2021 14:20:57.112,20.628
592,24 Dec 2021 15:50:22.954,24 Dec 2021 15:58:03.170,460.216
593,24 Dec 2021 17:27:21.929,24 Dec 2021 17:30:19.753,177.824
594,25 Dec 2021 04:51:29.479,25 Dec 2021 04:59:03.210,453.731
595,25 Dec 2021 06:26:30.640,25 Dec 2021 06:31:35.448,304.808
596,25 Dec 2021 15:36:52.733,25 Dec 2021 15:44:26.393,453.661
597,25 Dec 2021 17:12:55.834,25 Dec 2021 17:17:23.793,267.959
598,26 Dec 2021 04:37:59.057,26 Dec 2021 04:45:20.946,441.889
599,26 Dec 2021 06:12:40.510,26 Dec 2021 06:18:27.396,346.886
600,26 Dec 2021 15:23:25.551,26 Dec 2021 15:30:48.057,442.505
601,26 Dec 2021 16:58:46.282,26 Dec 2021 17:04:12.940,326.658
602,27 Dec 2021 04:24:30.772,27 Dec 2021 04:31:35.026,424.254
603,27 Dec 2021 05:58:54.000,27 Dec 2021 06:05:14.238,380.238
604,27 Dec 2021 15:10:01.503,27 Dec 2021 15:17:08.067,426.564
605,27 Dec 2021 16:44:45.517,27 Dec 2021 16:50:54.910,369.393
606,28 Dec 2021 04:11:05.078,28 Dec 2021 04:17:44.978,399.901
607,28 Dec 2021 05:45:10.149,28 Dec 2021 05:51:56.934,406.784
608,28 Dec 2021 14:56:40.772,28 Dec 2021 15:03:26.237,405.465
609,28 Dec 2021 16:30:50.884,28 Dec 2021 16:37:32.335,401.450
610,29 Dec 2021 03:57:42.713,29 Dec 2021 04:03:50.045,367.332
611,29 Dec 2021 05:31:28.430,29 Dec 2021 05:38:36.010,427.580
612,29 Dec 2021 14:43:23.678,29 Dec 2021 14:49:42.254,378.576
613,29 Dec 2021 16:17:01.082,29 Dec 2021 16:24:06.481,425.399
614,30 Dec 2021 03:44:24.995,30 Dec 2021 03:49:48.884,323.889
615,30 Dec 2021 05:17:48.534,30 Dec 2021 05:25:11.782,443.248
616,30 Dec 2021 14:30:10.769,30 Dec 2021 14:35:55.570,344.801
617,30 Dec 2021 16:03:15.378,30 Dec 2021 16:10:38.070,442.693
618,31 Dec 2021 03:31:14.679,31 Dec 2021 03:35:38.705,264.026
619,31 Dec 2021 05:04:10.284,31 Dec 2021 05:11:44.432,454.148
620,31 Dec 2021 14:17:03.046,31 Dec 2021 14:22:05.197,302.151
621,31 Dec 2021 15:49:33.304,31 Dec 2021 15:57:07.538,454.235
622,1 Jan 2022 03:18:20.125,1 Jan 2022 03:21:11.110,170.985
623,1 Jan 2022 04:50:33.594,1 Jan 2022 04:58:14.041,460.446
624,1 Jan 2022 06:27:25.766,1 Jan 2022 06:28:15.207,49.441
625,1 Jan 2022 14:04:02.592,1 Jan 2022 14:08:09.057,246.465
626,1 Jan 2022 15:35:54.568,1 Jan 2022 15:43:35.171,460.603
627,2 Jan 2022 04:36:58.448,2 Jan 2022 04:44:40.625,462.177
628,2 Jan 2022 06:12:46.603,2 Jan 2022 06:16:00.325,193.721
629,2 Jan 2022 13:51:15.425,2 Jan 2022 13:54:01.121,165.697
630,2 Jan 2022 15:22:18.992,2 Jan 2022 15:30:01.137,462.145
631,3 Jan 2022 04:23:24.894,3 Jan 2022 04:31:04.130,459.236
632,3 Jan 2022 05:58:43.372,3 Jan 2022 06:03:08.015,264.643
633,3 Jan 2022 15:08:46.469,3 Jan 2022 15:16:25.532,459.063
634,3 Jan 2022 16:45:29.862,3 Jan 2022 16:48:54.088,204.225
635,4 Jan 2022 04:09:53.043,4 Jan 2022 04:17:24.440,451.398
636,4 Jan 2022 05:44:49.270,4 Jan 2022 05:50:05.080,315.810
637,4 Jan 2022 14:55:16.969,4 Jan 2022 15:02:48.391,451.422
638,4 Jan 2022 16:31:09.180,4 Jan 2022 16:35:53.105,283.925
639,5 Jan 2022 03:56:23.101,5 Jan 2022 04:03:41.330,438.229
640,5 Jan 2022 05:31:00.127,5 Jan 2022 05:36:55.683,355.556
641,5 Jan 2022 14:41:50.526,5 Jan 2022 14:49:09.666,439.140
642,5 Jan 2022 16:17:02.112,5 Jan 2022 16:22:40.160,338.048
643,6 Jan 2022 03:42:55.387,6 Jan 2022 03:49:54.477,419.091
644,6 Jan 2022 05:17:14.316,6 Jan 2022 05:23:41.465,387.149
645,6 Jan 2022 14:28:27.246,6 Jan 2022 14:35:29.259,422.013
646,6 Jan 2022 16:03:02.980,6 Jan 2022 16:09:20.879,377.899
647,7 Jan 2022 03:29:30.404,7 Jan 2022 03:36:03.348,392.944
648,7 Jan 2022 05:03:31.010,7 Jan 2022 05:10:23.257,412.248
649,7 Jan 2022 14:15:07.352,7 Jan 2022 14:21:46.950,399.598
650,7 Jan 2022 15:49:09.592,7 Jan 2022 15:55:57.433,407.841
651,8 Jan 2022 03:16:09.000,8 Jan 2022 03:22:07.079,358.079
652,8 Jan 2022 04:49:49.751,8 Jan 2022 04:57:01.524,431.773
653,8 Jan 2022 14:01:51.193,8 Jan 2022 14:08:02.384,371.191
654,8 Jan 2022 15:35:20.821,8 Jan 2022 15:42:30.916,430.095
655,9 Jan 2022 03:02:52.709,9 Jan 2022 03:08:04.108,311.398
656,9 Jan 2022 04:36:10.262,9 Jan 2022 04:43:36.537,446.275
657,9 Jan 2022 13:48:39.412,9 Jan 2022 13:54:14.936,335.524
658,9 Jan 2022 15:21:36.016,9 Jan 2022 15:29:01.965,445.949
659,10 Jan 2022 02:49:44.956,10 Jan 2022 02:53:50.973,246.017
660,10 Jan 2022 04:22:32.391,10 Jan 2022 04:30:08.455,456.065
661,10 Jan 2022 13:35:33.165,10 Jan 2022 13:40:23.439,290.274
662,10 Jan 2022 15:07:54.764,10 Jan 2022 15:15:30.976,456.211
663,11 Jan 2022 02:36:58.187,11 Jan 2022 02:39:15.190,137.004
664,11 Jan 2022 04:08:56.067,11 Jan 2022 04:16:37.343,461.276
665,11 Jan 2022 05:45:22.550,11 Jan 2022 05:47:07.670,105.119
666,11 Jan 2022 13:22:35.035,11 Jan 2022 13:26:25.329,230.293
667,11 Jan 2022 14:54:16.798,11 Jan 2022 15:01:58.196,461.399
668,12 Jan 2022 03:55:21.294,12 Jan 2022 04:03:03.200,461.906
669,12 Jan 2022 05:31:01.209,12 Jan 2022 05:34:34.611,213.402
670,12 Jan 2022 13:09:53.665,12 Jan 2022 13:12:11.959,138.294
671,12 Jan 2022 14:40:41.957,12 Jan 2022 14:48:23.782,461.824
672,12 Jan 2022 16:18:28.507,12 Jan 2022 16:20:00.738,92.230
673,13 Jan 2022 03:41:48.133,13 Jan 2022 03:49:25.955,457.823
674,13 Jan 2022 05:17:00.858,13 Jan 2022 05:21:39.057,278.199
675,13 Jan 2022 14:27:10.158,13 Jan 2022 14:34:47.809,457.651
676,13 Jan 2022 16:03:39.703,13 Jan 2022 16:07:26.607,226.904
677,14 Jan 2022 03:28:16.718,14 Jan 2022 03:35:45.473,448.755
678,14 Jan 2022 05:03:08.168,14 Jan 2022 05:08:34.352,326.184
679,14 Jan 2022 14:13:41.385,14 Jan 2022 14:21:10.297,448.912
680,14 Jan 2022 15:49:23.251,14 Jan 2022 15:54:21.793,298.542
681,15 Jan 2022 03:14:47.271,15 Jan 2022 03:22:01.507,434.236
682,15 Jan 2022 04:49:19.928,15 Jan 2022 04:55:23.695,363.767
683,15 Jan 2022 14:00:15.682,15 Jan 2022 14:07:31.187,435.504
684,15 Jan 2022 15:35:18.385,15 Jan 2022 15:41:07.029,348.644
685,16 Jan 2022 03:01:20.157,16 Jan 2022 03:08:13.685,413.528
686,16 Jan 2022 04:35:34.776,16 Jan 2022 04:42:08.469,393.693
687,16 Jan 2022 13:46:53.185,16 Jan 2022 13:53:50.346,417.161
688,16 Jan 2022 15:21:20.766,16 Jan 2022 15:27:46.616,385.850
689,17 Jan 2022 02:47:55.934,17 Jan 2022 02:54:21.425,385.491
690,17 Jan 2022 04:21:51.990,17 Jan 2022 04:28:49.384,417.394
691,17 Jan 2022 13:33:34.143,17 Jan 2022 13:40:07.540,393.397
692,17 Jan 2022 15:07:28.563,17 Jan 2022 15:14:22.358,413.795
693,18 Jan 2022 02:34:35.572,18 Jan 2022 02:40:23.739,348.167
694,18 Jan 2022 04:08:11.174,18 Jan 2022 04:15:26.854,435.681
695,18 Jan 2022 13:20:18.960,18 Jan 2022 13:26:22.353,363.393
696,18 Jan 2022 14:53:40.786,18 Jan 2022 15:00:55.211,434.426
697,19 Jan 2022 02:21:20.886,19 Jan 2022 02:26:18.773,297.887
698,19 Jan 2022 03:54:32.081,19 Jan 2022 04:02:01.117,449.036
699,19 Jan 2022 13:07:08.362,19 Jan 2022 13:12:34.073,325.712
700,19 Jan 2022 14:39:56.862,19 Jan 2022 14:47:25.746,448.884
701,20 Jan 2022 02:08:16.236,20 Jan 2022 02:12:02.145,225.909
702,20 Jan 2022 03:40:54.582,20 Jan 2022 03:48:32.304,457.723
703,20 Jan 2022 12:54:03.731,20 Jan 2022 12:58:41.325,277.594
704,20 Jan 2022 14:26:16.412,20 Jan 2022 14:33:54.311,457.899
705,21 Jan 2022 01:55:43.005,21 Jan 2022 01:57:12.423,89.419
706,21 Jan 2022 03:27:18.628,21 Jan 2022 03:35:00.473,461.845
707,21 Jan 2022 05:03:29.838,21 Jan 2022 05:05:49.544,139.705
708,21 Jan 2022 12:41:08.317,21 Jan 2022 12:44:40.854,212.537
709,21 Jan 2022 14:12:39.205,21 Jan 2022 14:20:21.129,461.924
710,22 Jan 2022 03:13:44.232,22 Jan 2022 03:21:25.599,461.367
711,22 Jan 2022 04:49:16.771,22 Jan 2022 04:53:07.851,231.080
712,22 Jan 2022 12:28:35.785,22 Jan 2022 12:30:19.005,103.219
713,22 Jan 2022 13:59:05.096,22 Jan 2022 14:06:46.339,461.243
714,22 Jan 2022 15:36:26.253,22 Jan 2022 15:38:45.043,138.790
715,23 Jan 2022 03:00:11.476,23 Jan 2022 03:07:47.598,456.123
716,23 Jan 2022 04:35:18.756,23 Jan 2022 04:40:09.603,290.847
717,23 Jan 2022 13:45:34.018,23 Jan 2022 13:53:09.999,455.981
718,23 Jan 2022 15:21:50.936,23 Jan 2022 15:25:57.831,246.895
719,24 Jan 2022 02:46:40.505,24 Jan 2022 02:54:06.306,445.801
720,24 Jan 2022 04:21:27.320,24 Jan 2022 04:27:03.288,335.968
721,24 Jan 2022 13:32:05.972,24 Jan 2022 13:39:32.112,446.141
722,24 Jan 2022 15:07:37.949,24 Jan 2022 15:12:49.948,311.999
723,25 Jan 2022 02:33:11.576,25 Jan 2022 02:40:21.458,429.882
724,25 Jan 2022 04:07:39.904,25 Jan 2022 04:13:51.454,371.549
725,25 Jan 2022 13:18:41.020,25 Jan 2022 13:25:52.605,431.585
726,25 Jan 2022 14:53:35.064,25 Jan 2022 14:59:33.586,358.522
727,26 Jan 2022 02:19:45.091,26 Jan 2022 02:26:32.644,407.553
728,26 Jan 2022 03:53:55.370,26 Jan 2022 04:00:35.250,399.880
729,26 Jan 2022 13:05:19.321,26 Jan 2022 13:12:11.322,412.001
730,26 Jan 2022 14:39:38.860,26 Jan 2022 14:46:12.137,393.277
731,27 Jan 2022 02:06:21.682,27 Jan 2022 02:12:39.197,377.515
732,27 Jan 2022 03:40:13.082,27 Jan 2022 03:47:15.314,422.233
733,27 Jan 2022 12:52:01.155,27 Jan 2022 12:58:27.992,386.837
734,27 Jan 2022 14:25:47.784,27 Jan 2022 14:32:47.123,419.339
735,28 Jan 2022 01:53:02.461,28 Jan 2022 01:58:39.993,337.532
736,28 Jan 2022 03:26:32.695,28 Jan 2022 03:33:51.999,439.304
737,28 Jan 2022 12:38:46.985,28 Jan 2022 12:44:42.151,355.166
738,28 Jan 2022 14:12:00.973,28 Jan 2022 14:19:19.379,438.406
739,29 Jan 2022 01:39:49.602,29 Jan 2022 01:44:32.810,283.208
740,29 Jan 2022 03:12:53.990,29 Jan 2022 03:20:25.523,451.533
741,29 Jan 2022 12:25:37.648,29 Jan 2022 12:30:52.966,315.318
742,29 Jan 2022 13:58:17.904,29 Jan 2022 14:05:49.417,451.512
743,30 Jan 2022 01:26:48.831,30 Jan 2022 01:30:11.911,203.080
744,30 Jan 2022 02:59:16.863,30 Jan 2022 03:06:55.984,459.121
745,30 Jan 2022 12:12:34.798,30 Jan 2022 12:16:58.792,263.994
746,30 Jan 2022 13:44:38.246,30 Jan 2022 13:52:17.546,459.300
747,31 Jan 2022 02:45:41.278,31 Jan 2022 02:53:23.431,462.154
748,31 Jan 2022 04:21:40.795,31 Jan 2022 04:24:27.662,166.867
749,31 Jan 2022 11:59:42.652,31 Jan 2022 12:02:55.409,192.757
750,31 Jan 2022 13:31:01.788,31 Jan 2022 13:38:43.972,462.183
751,1 Feb 2022 02:32:07.265,1 Feb 2022 02:39:47.821,460.556
752,1 Feb 2022 04:07:33.070,1 Feb 2022 04:11:40.268,247.198
753,1 Feb 2022 11:47:29.406,1 Feb 2022 11:48:14.635,45.229
754,1 Feb 2022 13:17:28.407,1 Feb 2022 13:25:08.809,460.402
755,1 Feb 2022 14:54:30.540,1 Feb 2022 14:57:22.909,172.369
756,2 Feb 2022 02:18:34.916,2 Feb 2022 02:26:09.050,454.133
757,2 Feb 2022 03:53:37.012,2 Feb 2022 03:58:39.708,302.696
758,2 Feb 2022 13:03:58.052,2 Feb 2022 13:11:32.103,454.051
759,2 Feb 2022 14:40:03.255,2 Feb 2022 14:44:28.065,264.810
760,3 Feb 2022 02:05:04.407,3 Feb 2022 02:12:26.938,442.531
761,3 Feb 2022 03:39:46.688,3 Feb 2022 03:45:31.915,345.226
762,3 Feb 2022 12:50:30.733,3 Feb 2022 12:57:53.836,443.102
763,3 Feb 2022 14:25:53.199,3 Feb 2022 14:31:17.640,324.442
764,4 Feb 2022 01:51:36.021,4 Feb 2022 01:58:41.188,425.167
765,4 Feb 2022 03:26:00.043,4 Feb 2022 03:32:18.958,378.915
766,4 Feb 2022 12:37:06.543,4 Feb 2022 12:44:13.922,427.380
767,4 Feb 2022 14:11:52.116,4 Feb 2022 14:17:59.858,367.743
768,5 Feb 2022 01:38:10.198,5 Feb 2022 01:44:51.336,401.137
769,5 Feb 2022 03:12:16.088,5 Feb 2022 03:19:01.825,405.737
770,5 Feb 2022 12:23:45.658,5 Feb 2022 12:30:32.180,406.522
771,5 Feb 2022 13:57:57.244,5 Feb 2022 14:04:37.454,400.210
772,6 Feb 2022 01:24:47.665,6 Feb 2022 01:30:56.643,368.978
773,6 Feb 2022 02:58:34.282,6 Feb 2022 03:05:41.051,426.769
774,6 Feb 2022 12:10:28.393,6 Feb 2022 12:16:48.304,379.911
775,6 Feb 2022 13:44:07.245,6 Feb 2022 13:51:11.729,424.484
776,7 Feb 2022 01:11:29.703,7 Feb 2022 01:16:55.801,326.098
777,7 Feb 2022 02:44:54.311,7 Feb 2022 02:52:16.968,442.657
778,7 Feb 2022 11:57:15.281,7 Feb 2022 12:03:01.758,346.477
779,7 Feb 2022 13:30:21.370,7 Feb 2022 13:37:43.420,442.050
780,8 Feb 2022 00:58:18.954,8 Feb 2022 01:02:46.121,267.167
781,8 Feb 2022 02:31:15.990,8 Feb 2022 02:38:49.752,453.762
782,8 Feb 2022 11:44:07.295,8 Feb 2022 11:49:11.582,304.287
783,8 Feb 2022 13:16:39.142,8 Feb 2022 13:24:12.976,453.834
784,9 Feb 2022 00:45:23.270,9 Feb 2022 00:48:19.733,176.463
785,9 Feb 2022 02:17:39.233,9 Feb 2022 02:25:19.496,460.263
786,9 Feb 2022 03:54:41.245,9 Feb 2022 03:55:10.174,28.929
787,9 Feb 2022 11:31:06.438,9 Feb 2022 11:35:15.774,249.337
788,9 Feb 2022 13:03:00.263,9 Feb 2022 13:10:40.686,460.424
789,10 Feb 2022 02:04:04.018,10 Feb 2022 02:11:46.216,462.198
790,10 Feb 2022 03:39:53.816,10 Feb 2022 03:43:03.631,189.815
791,10 Feb 2022 11:18:18.383,10 Feb 2022 11:21:08.663,170.280
792,10 Feb 2022 12:49:24.549,10 Feb 2022 12:57:06.724,462.175
793,11 Feb 2022 01:50:30.394,11 Feb 2022 01:58:09.860,459.466
794,11 Feb 2022 03:25:49.976,11 Feb 2022 03:30:11.998,262.022
795,11 Feb 2022 12:35:51.892,11 Feb 2022 12:43:31.188,459.296
796,11 Feb 2022 14:12:38.035,11 Feb 2022 14:15:57.661,199.626
797,12 Feb 2022 01:36:58.462,12 Feb 2022 01:44:30.316,451.854
798,12 Feb 2022 03:11:55.586,12 Feb 2022 03:17:09.410,313.824
799,12 Feb 2022 12:22:22.260,12 Feb 2022 12:29:54.117,451.856
800,12 Feb 2022 13:58:16.452,12 Feb 2022 14:02:57.513,281.062
801,13 Feb 2022 01:23:28.431,13 Feb 2022 01:30:47.364,438.933
802,13 Feb 2022 02:58:06.270,13 Feb 2022 03:04:00.254,353.984
803,13 Feb 2022 12:08:55.676,13 Feb 2022 12:16:15.465,439.788
804,13 Feb 2022 13:44:08.946,13 Feb 2022 13:49:44.932,335.986
805,14 Feb 2022 01:10:00.609,14 Feb 2022 01:17:00.686,420.078
806,14 Feb 2022 02:44:20.334,14 Feb 2022 02:50:46.232,385.898
807,14 Feb 2022 11:55:32.252,14 Feb 2022 12:02:35.138,422.886
808,14 Feb 2022 13:30:09.517,14 Feb 2022 13:36:25.875,376.357
809,15 Feb 2022 00:56:35.491,15 Feb 2022 01:03:09.761,394.271
810,15 Feb 2022 02:30:36.928,15 Feb 2022 02:37:28.187,411.259
811,15 Feb 2022 11:42:12.201,15 Feb 2022 11:48:52.918,400.717
812,15 Feb 2022 13:16:15.902,15 Feb 2022 13:23:02.586,406.684
813,16 Feb 2022 00:43:13.903,16 Feb 2022 00:49:13.744,359.841
814,16 Feb 2022 02:16:55.586,16 Feb 2022 02:24:06.602,431.016
815,16 Feb 2022 11:28:55.865,16 Feb 2022 11:35:08.464,372.599
816,16 Feb 2022 13:02:26.943,16 Feb 2022 13:09:36.191,429.248
817,17 Feb 2022 00:29:57.336,17 Feb 2022 00:35:11.122,313.786
818,17 Feb 2022 02:03:16.023,17 Feb 2022 02:10:41.756,445.734
819,17 Feb 2022 11:15:43.868,17 Feb 2022 11:21:21.166,337.298
820,17 Feb 2022 12:48:41.974,17 Feb 2022 12:56:07.337,445.363
821,18 Feb 2022 00:16:49.073,18 Feb 2022 00:20:58.571,249.498
822,18 Feb 2022 01:49:38.081,18 Feb 2022 01:57:13.810,455.729
823,18 Feb 2022 11:02:37.337,18 Feb 2022 11:07:29.886,292.549
824,18 Feb 2022 12:35:00.569,18 Feb 2022 12:42:36.433,455.864
825,19 Feb 2022 00:04:00.590,19 Feb 2022 00:06:24.576,143.986
826,19 Feb 2022 01:36:01.690,19 Feb 2022 01:43:42.831,461.141
827,19 Feb 2022 03:12:31.692,19 Feb 2022 03:14:08.994,97.303
828,19 Feb 2022 10:49:38.747,19 Feb 2022 10:53:32.171,233.424
829,19 Feb 2022 12:21:22.459,19 Feb 2022 12:29:03.730,461.270
830,20 Feb 2022 01:22:26.848,20 Feb 2022 01:30:08.824,461.976
831,20 Feb 2022 02:58:08.213,20 Feb 2022 03:01:38.140,209.927
832,20 Feb 2022 10:36:56.132,20 Feb 2022 10:39:19.979,143.847
833,20 Feb 2022 12:07:47.483,20 Feb 2022 12:15:29.387,461.904
834,20 Feb 2022 13:45:40.325,20 Feb 2022 13:47:00.729,80.404
835,21 Feb 2022 01:08:53.616,21 Feb 2022 01:16:31.724,458.108
836,21 Feb 2022 02:44:07.377,21 Feb 2022 02:48:43.141,275.764
837,21 Feb 2022 11:54:15.549,21 Feb 2022 12:01:53.486,457.937
838,21 Feb 2022 13:30:47.571,21 Feb 2022 13:34:30.471,222.899
839,22 Feb 2022 00:55:22.118,22 Feb 2022 01:02:51.385,449.267
840,22 Feb 2022 02:30:14.439,22 Feb 2022 02:35:38.748,324.310
841,22 Feb 2022 11:40:46.640,22 Feb 2022 11:48:16.041,449.400
842,22 Feb 2022 13:16:30.398,22 Feb 2022 13:21:26.308,295.910
843,23 Feb 2022 00:41:52.578,23 Feb 2022 00:49:07.577,434.999
844,23 Feb 2022 02:16:26.039,23 Feb 2022 02:22:28.320,362.281
845,23 Feb 2022 11:27:20.800,23 Feb 2022 11:34:37.004,436.205
846,23 Feb 2022 13:02:25.140,23 Feb 2022 13:08:11.865,346.725
847,24 Feb 2022 00:28:25.352,24 Feb 2022 00:35:19.941,414.589
848,24 Feb 2022 02:02:40.769,24 Feb 2022 02:09:13.275,392.507
849,24 Feb 2022 11:13:58.156,24 Feb 2022 11:20:56.245,418.089
850,24 Feb 2022 12:48:27.247,24 Feb 2022 12:54:51.654,384.407
851,25 Feb 2022 00:15:00.984,25 Feb 2022 00:21:27.895,386.911
852,25 Feb 2022 01:48:57.888,25 Feb 2022 01:55:54.351,416.463
853,25 Feb 2022 11:00:38.953,25 Feb 2022 11:07:13.535,394.581
854,25 Feb 2022 12:34:34.827,25 Feb 2022 12:41:27.543,412.716
855,26 Feb 2022 00:01:40.421,26 Feb 2022 00:07:30.477,350.056
856,26 Feb 2022 01:35:16.991,26 Feb 2022 01:42:31.969,434.978
857,26 Feb 2022 10:47:23.585,26 Feb 2022 10:53:28.465,364.880
858,26 Feb 2022 12:20:46.867,26 Feb 2022 12:28:00.511,433.644
859,26 Feb 2022 23:48:25.423,26 Feb 2022 23:53:25.899,300.476
860,27 Feb 2022 01:21:37.827,27 Feb 2022 01:29:06.370,448.543
861,27 Feb 2022 10:34:12.760,27 Feb 2022 10:39:40.346,327.586
862,27 Feb 2022 12:07:02.782,27 Feb 2022 12:14:31.141,448.360
863,27 Feb 2022 23:35:20.148,27 Feb 2022 23:39:09.967,229.820
864,28 Feb 2022 01:08:00.258,28 Feb 2022 01:15:37.696,457.438
865,28 Feb 2022 10:21:07.817,28 Feb 2022 10:25:47.843,280.027
866,28 Feb 2022 11:53:22.187,28 Feb 2022 12:00:59.788,457.601
867,28 Feb 2022 23:22:43.578,28 Feb 2022 23:24:23.658,100.080
868,1 Mar 2022 00:54:24.236,1 Mar 2022 01:02:05.994,461.759
869,1 Mar 2022 02:30:37.923,1 Mar 2022 02:32:51.940,134.017
870,1 Mar 2022 10:08:11.860,1 Mar 2022 10:11:47.850,215.989
871,1 Mar 2022 11:39:44.834,1 Mar 2022 11:47:26.680,461.846
872,2 Mar 2022 00:40:49.769,2 Mar 2022 00:48:31.257,461.488
873,2 Mar 2022 02:16:23.620,2 Mar 2022 02:20:11.552,227.933
874,2 Mar 2022 09:55:37.300,2 Mar 2022 09:57:27.961,110.661
875,2 Mar 2022 11:26:10.590,2 Mar 2022 11:33:51.959,461.369
876,2 Mar 2022 13:03:35.816,2 Mar 2022 13:05:47.272,131.455
877,3 Mar 2022 00:27:16.938,3 Mar 2022 00:34:53.396,456.458
878,3 Mar 2022 02:02:25.204,3 Mar 2022 02:07:13.777,288.573
879,3 Mar 2022 11:12:39.377,3 Mar 2022 11:20:15.692,456.315
880,3 Mar 2022 12:48:58.572,3 Mar 2022 12:53:01.910,243.338
881,4 Mar 2022 00:13:45.885,4 Mar 2022 00:21:12.257,446.372
882,4 Mar 2022 01:48:33.546,4 Mar 2022 01:54:07.747,334.201
883,4 Mar 2022 10:59:11.195,4 Mar 2022 11:06:37.874,446.679
884,4 Mar 2022 12:34:44.990,4 Mar 2022 12:39:54.556,309.566
885,5 Mar 2022 00:00:16.858,5 Mar 2022 00:07:27.576,430.717
886,5 Mar 2022 01:34:45.984,5 Mar 2022 01:40:56.120,370.136
887,5 Mar 2022 10:45:46.104,5 Mar 2022 10:52:58.441,432.338
888,5 Mar 2022 12:20:41.746,5 Mar 2022 12:26:38.478,356.732
889,5 Mar 2022 23:46:50.254,5 Mar 2022 23:53:38.947,408.692
890,6 Mar 2022 01:21:01.339,6 Mar 2022 01:27:40.099,398.760
891,6 Mar 2022 10:32:24.255,6 Mar 2022 10:39:17.241,412.986
892,6 Mar 2022 12:06:45.285,6 Mar 2022 12:13:17.212,391.927
893,6 Mar 2022 23:33:26.693,6 Mar 2022 23:39:45.725,379.032
894,7 Mar 2022 01:07:18.960,7 Mar 2022 01:14:20.321,421.361
895,7 Mar 2022 10:19:05.924,7 Mar 2022 10:25:34.013,388.090
896,7 Mar 2022 11:52:54.003,7 Mar 2022 11:59:52.338,418.335
897,7 Mar 2022 23:20:07.249,7 Mar 2022 23:25:46.807,339.558
898,8 Mar 2022 00:53:38.495,8 Mar 2022 01:00:57.148,438.653
899,8 Mar 2022 10:05:51.565,8 Mar 2022 10:11:48.299,356.734
900,8 Mar 2022 11:39:07.015,8 Mar 2022 11:46:24.704,437.689
901,8 Mar 2022 23:06:54.034,8 Mar 2022 23:11:40.063,286.029
902,9 Mar 2022 00:39:59.720,9 Mar 2022 00:47:30.810,451.090
903,9 Mar 2022 09:52:41.984,9 Mar 2022 09:57:59.289,317.306
904,9 Mar 2022 11:25:23.788,9 Mar 2022 11:32:54.833,451.044
905,9 Mar 2022 22:53:52.471,9 Mar 2022 22:57:20.027,207.556
906,10 Mar 2022 00:26:22.524,10 Mar 2022 00:34:01.405,458.881
907,10 Mar 2022 09:39:38.787,10 Mar 2022 09:44:05.395,266.608
908,10 Mar 2022 11:11:43.988,10 Mar 2022 11:19:23.044,459.057
909,11 Mar 2022 00:12:46.871,11 Mar 2022 00:20:28.987,462.116
910,11 Mar 2022 01:48:48.375,11 Mar 2022 01:51:30.584,162.209
911,11 Mar 2022 09:26:45.979,11 Mar 2022 09:30:02.610,196.631
912,11 Mar 2022 10:58:07.387,11 Mar 2022 11:05:49.542,462.155
913,11 Mar 2022 23:59:12.788,12 Mar 2022 00:06:53.514,460.727
914,12 Mar 2022 01:34:39.797,12 Mar 2022 01:38:44.112,244.315
915,12 Mar 2022 09:14:26.997,12 Mar 2022 09:15:27.505,60.509
916,12 Mar 2022 10:44:33.871,12 Mar 2022 10:52:14.446,460.575
917,12 Mar 2022 12:21:39.267,12 Mar 2022 12:24:25.960,166.693
918,12 Mar 2022 23:45:40.362,12 Mar 2022 23:53:14.888,454.527
919,13 Mar 2022 01:20:43.400,13 Mar 2022 01:25:43.956,300.556
920,13 Mar 2022 10:31:03.382,13 Mar 2022 10:38:37.812,454.430
921,13 Mar 2022 12:07:10.707,13 Mar 2022 12:11:32.312,261.605
922,13 Mar 2022 23:32:09.766,13 Mar 2022 23:39:32.929,443.163
923,14 Mar 2022 01:06:52.879,14 Mar 2022 01:12:36.432,343.553
924,14 Mar 2022 10:17:35.926,14 Mar 2022 10:24:59.616,443.690
925,14 Mar 2022 11:53:00.138,14 Mar 2022 11:58:22.331,322.194
926,14 Mar 2022 23:18:41.280,14 Mar 2022 23:25:47.345,426.066
927,15 Mar 2022 00:53:06.096,15 Mar 2022 00:59:23.674,377.578
928,15 Mar 2022 10:04:11.593,15 Mar 2022 10:11:19.776,428.183
929,15 Mar 2022 11:38:58.731,15 Mar 2022 11:45:04.801,366.070
930,15 Mar 2022 23:05:15.329,15 Mar 2022 23:11:57.692,402.363
931,16 Mar 2022 00:39:22.035,16 Mar 2022 00:46:06.712,404.677
932,16 Mar 2022 09:50:50.556,16 Mar 2022 09:57:38.123,407.568
933,16 Mar 2022 11:25:03.616,16 Mar 2022 11:31:42.569,398.952
934,16 Mar 2022 22:51:52.629,16 Mar 2022 22:58:03.234,370.605
935,17 Mar 2022 00:25:40.143,17 Mar 2022 00:32:46.094,425.951
936,17 Mar 2022 09:37:33.120,17 Mar 2022 09:43:54.352,381.232
937,17 Mar 2022 11:11:13.425,17 Mar 2022 11:18:16.975,423.550
938,17 Mar 2022 22:38:34.421,17 Mar 2022 22:44:02.706,328.285
939,18 Mar 2022 00:12:00.094,18 Mar 2022 00:19:22.150,442.056
940,18 Mar 2022 09:24:19.807,18 Mar 2022 09:30:07.942,348.135
941,18 Mar 2022 10:57:27.373,18 Mar 2022 11:04:48.769,441.395
942,18 Mar 2022 22:25:23.259,18 Mar 2022 22:29:53.517,270.258
943,18 Mar 2022 23:58:21.707,19 Mar 2022 00:05:55.070,453.363
944,19 Mar 2022 09:11:11.562,19 Mar 2022 09:16:17.960,306.399
945,19 Mar 2022 10:43:44.991,19 Mar 2022 10:51:18.413,453.422
946,19 Mar 2022 22:12:26.510,19 Mar 2022 22:15:28.269,181.760
947,19 Mar 2022 23:44:44.879,19 Mar 2022 23:52:24.950,460.071
948,20 Mar 2022 08:58:10.315,20 Mar 2022 09:02:22.475,252.159
949,20 Mar 2022 10:30:05.967,20 Mar 2022 10:37:46.202,460.235
950,20 Mar 2022 23:31:09.595,20 Mar 2022 23:38:51.805,462.210
951,21 Mar 2022 01:07:01.084,21 Mar 2022 01:10:06.884,185.800
952,21 Mar 2022 08:45:21.415,21 Mar 2022 08:48:16.137,174.722
953,21 Mar 2022 10:16:30.115,21 Mar 2022 10:24:12.312,462.196
954,21 Mar 2022 23:17:35.894,21 Mar 2022 23:25:15.588,459.694
955,22 Mar 2022 00:52:56.600,22 Mar 2022 00:57:15.961,259.360
956,22 Mar 2022 10:02:57.324,22 Mar 2022 10:10:36.846,459.522
957,22 Mar 2022 11:39:46.282,22 Mar 2022 11:43:01.177,194.896
958,22 Mar 2022 23:04:03.889,22 Mar 2022 23:11:36.189,452.300
959,23 Mar 2022 00:39:01.919,23 Mar 2022 00:44:13.730,311.810
960,23 Mar 2022 09:49:27.554,23 Mar 2022 09:56:59.843,452.289
961,23 Mar 2022 11:25:23.753,23 Mar 2022 11:30:01.897,278.144
962,23 Mar 2022 22:50:33.768,23 Mar 2022 22:57:53.393,439.626
963,24 Mar 2022 00:25:12.426,24 Mar 2022 00:31:04.822,352.396
964,24 Mar 2022 09:36:00.836,24 Mar 2022 09:43:21.263,440.426
965,24 Mar 2022 11:11:15.795,24 Mar 2022 11:16:49.695,333.900
966,24 Mar 2022 22:37:05.839,24 Mar 2022 22:44:06.887,421.048
967,25 Mar 2022 00:11:26.361,25 Mar 2022 00:17:50.991,384.630
968,25 Mar 2022 09:22:37.268,25 Mar 2022 09:29:41.014,423.746
969,25 Mar 2022 10:57:16.072,25 Mar 2022 11:03:30.866,374.793
970,25 Mar 2022 22:23:40.588,25 Mar 2022 22:30:16.169,395.581
971,25 Mar 2022 23:57:42.860,26 Mar 2022 00:04:33.113,410.253
972,26 Mar 2022 09:09:17.060,26 Mar 2022 09:15:58.885,401.825
973,26 Mar 2022 10:43:22.225,26 Mar 2022 10:50:07.737,405.512
974,26 Mar 2022 22:10:18.817,26 Mar 2022 22:16:20.402,361.585
975,26 Mar 2022 23:44:01.428,26 Mar 2022 23:51:11.678,430.250
976,27 Mar 2022 08:56:00.548,27 Mar 2022 09:02:14.540,373.992
977,27 Mar 2022 10:29:33.075,27 Mar 2022 10:36:41.463,428.388
978,27 Mar 2022 21:57:01.979,27 Mar 2022 22:02:18.123,316.144
