csvfiles/Facility-Facility1-To-Satellite-SSO620_Access.csv

"Access","Start Time (UTCG)","Stop Time (UTCG)","Duration (sec)"
1,5 Aug 2021 13:44:50.666,5 Aug 2021 13:52:42.800,472.134
2,5 Aug 2021 15:20:50.157,5 Aug 2021 15:28:29.970,459.812
3,6 Aug 2021 00:42:39.919,6 Aug 2021 00:51:01.160,501.241
4,6 Aug 2021 02:19:41.970,6 Aug 2021 02:26:20.897,398.927
5,6 Aug 2021 13:58:47.272,6 Aug 2021 14:07:11.996,504.724
6,6 Aug 2021 15:35:15.632,6 Aug 2021 15:42:02.114,406.483
7,6 Aug 2021 23:24:11.075,6 Aug 2021 23:27:19.340,188.264
8,7 Aug 2021 00:56:36.310,7 Aug 2021 01:05:14.170,517.859
9,7 Aug 2021 02:34:53.517,7 Aug 2021 02:39:47.753,294.236
10,7 Aug 2021 14:12:50.141,7 Aug 2021 14:21:29.536,519.395
11,7 Aug 2021 15:49:50.758,7 Aug 2021 15:55:19.301,328.543
12,7 Aug 2021 23:36:58.003,7 Aug 2021 23:42:18.979,320.976
13,8 Aug 2021 01:10:42.651,8 Aug 2021 01:19:22.513,519.862
14,8 Aug 2021 12:52:29.353,8 Aug 2021 12:57:12.332,282.978
15,8 Aug 2021 14:26:58.114,8 Aug 2021 14:35:36.659,518.545
16,8 Aug 2021 16:04:47.228,8 Aug 2021 16:08:09.814,202.586
17,8 Aug 2021 23:50:13.736,8 Aug 2021 23:56:55.140,401.404
18,9 Aug 2021 01:24:59.339,9 Aug 2021 01:33:25.814,506.476
19,9 Aug 2021 13:05:53.967,9 Aug 2021 13:12:26.583,392.617
20,9 Aug 2021 14:41:10.755,9 Aug 2021 14:49:33.829,503.074
21,10 Aug 2021 00:03:44.872,10 Aug 2021 00:11:21.210,456.337
22,10 Aug 2021 01:39:27.553,10 Aug 2021 01:47:22.977,475.424
23,10 Aug 2021 13:19:38.026,10 Aug 2021 13:27:15.613,457.586
24,10 Aug 2021 14:55:28.253,10 Aug 2021 15:03:20.881,472.627
25,11 Aug 2021 00:17:27.772,11 Aug 2021 00:25:40.800,493.028
26,11 Aug 2021 01:54:09.814,11 Aug 2021 02:01:11.604,421.790
27,11 Aug 2021 13:33:32.252,11 Aug 2021 13:41:48.898,496.646
28,11 Aug 2021 15:09:51.542,11 Aug 2021 15:16:56.866,425.324
29,11 Aug 2021 22:59:36.254,11 Aug 2021 23:01:28.801,112.548
30,12 Aug 2021 00:31:21.052,12 Aug 2021 00:39:55.286,514.234
31,12 Aug 2021 02:09:12.201,12 Aug 2021 02:14:45.799,333.598
32,12 Aug 2021 13:47:33.337,12 Aug 2021 13:56:09.896,516.559
33,12 Aug 2021 15:24:23.056,12 Aug 2021 15:30:19.322,356.266
34,12 Aug 2021 23:12:01.033,12 Aug 2021 23:16:48.921,287.888
35,13 Aug 2021 00:45:24.270,13 Aug 2021 00:54:05.097,520.828
36,13 Aug 2021 02:25:00.683,13 Aug 2021 02:27:39.831,159.148
37,13 Aug 2021 12:27:33.769,13 Aug 2021 12:31:23.911,230.142
38,13 Aug 2021 14:01:39.788,13 Aug 2021 14:10:20.189,520.401
39,13 Aug 2021 15:39:10.156,13 Aug 2021 15:43:20.875,250.719
40,13 Aug 2021 23:25:10.290,13 Aug 2021 23:31:29.897,379.606
41,14 Aug 2021 00:59:37.640,14 Aug 2021 01:08:10.049,512.409
42,14 Aug 2021 12:40:46.795,14 Aug 2021 12:46:51.609,364.813
43,14 Aug 2021 14:15:50.988,14 Aug 2021 14:24:20.456,509.468
44,14 Aug 2021 23:38:37.192,14 Aug 2021 23:45:58.550,441.358
45,15 Aug 2021 01:14:02.070,15 Aug 2021 01:22:09.306,487.236
46,15 Aug 2021 12:54:26.344,15 Aug 2021 13:01:46.929,440.585
47,15 Aug 2021 14:30:06.910,15 Aug 2021 14:38:10.722,483.812
48,15 Aug 2021 23:52:16.631,16 Aug 2021 00:00:19.952,483.321
49,16 Aug 2021 01:28:39.544,16 Aug 2021 01:36:00.988,441.444
50,16 Aug 2021 13:08:17.892,16 Aug 2021 13:16:24.616,486.723
51,16 Aug 2021 14:44:28.224,16 Aug 2021 14:51:50.331,442.107
52,17 Aug 2021 00:06:06.748,17 Aug 2021 00:14:35.952,509.204
53,17 Aug 2021 01:43:34.543,17 Aug 2021 01:49:40.768,366.225
54,17 Aug 2021 13:22:17.050,17 Aug 2021 13:30:49.218,512.168
55,17 Aug 2021 14:58:56.749,17 Aug 2021 15:05:17.437,380.688
56,17 Aug 2021 22:47:07.372,17 Aug 2021 22:51:16.068,248.697
57,18 Aug 2021 00:20:06.868,18 Aug 2021 00:28:47.214,520.346
58,18 Aug 2021 01:59:01.475,18 Aug 2021 02:02:54.464,232.989
59,18 Aug 2021 12:02:49.211,18 Aug 2021 12:05:23.870,154.659
60,18 Aug 2021 13:36:21.929,18 Aug 2021 13:45:02.747,520.817
61,18 Aug 2021 15:13:37.467,18 Aug 2021 15:18:27.031,289.563
62,18 Aug 2021 23:00:08.484,18 Aug 2021 23:06:03.529,355.044
63,19 Aug 2021 00:34:17.016,19 Aug 2021 00:42:53.734,516.718
64,19 Aug 2021 12:15:41.884,19 Aug 2021 12:21:13.799,331.915
65,19 Aug 2021 13:50:31.667,19 Aug 2021 13:59:06.110,514.443
66,19 Aug 2021 15:28:56.096,19 Aug 2021 15:30:53.376,117.280
67,19 Aug 2021 23:13:30.711,19 Aug 2021 23:20:35.197,424.486
68,20 Aug 2021 00:48:37.843,20 Aug 2021 00:56:54.909,497.066
69,20 Aug 2021 12:29:15.780,20 Aug 2021 12:36:16.569,420.790
70,20 Aug 2021 14:04:46.084,20 Aug 2021 14:12:59.533,493.449
71,20 Aug 2021 23:27:06.520,20 Aug 2021 23:34:58.582,472.063
72,21 Aug 2021 01:03:10.932,21 Aug 2021 01:10:49.254,458.322
73,21 Aug 2021 12:43:04.253,21 Aug 2021 12:50:59.068,474.815
74,21 Aug 2021 14:19:05.592,21 Aug 2021 14:26:42.591,456.999
75,21 Aug 2021 23:40:53.418,21 Aug 2021 23:49:16.156,502.739
76,22 Aug 2021 01:17:59.685,22 Aug 2021 01:24:33.500,393.815
77,22 Aug 2021 12:57:01.312,22 Aug 2021 13:05:27.469,506.156
78,22 Aug 2021 14:33:31.549,22 Aug 2021 14:40:13.919,402.370
79,22 Aug 2021 22:22:18.730,22 Aug 2021 22:25:38.726,199.997
80,22 Aug 2021 23:54:50.447,23 Aug 2021 00:03:28.872,518.424
81,23 Aug 2021 01:33:13.418,23 Aug 2021 01:37:58.550,285.132
82,23 Aug 2021 13:11:04.531,23 Aug 2021 13:19:44.315,519.784
83,23 Aug 2021 14:48:07.509,23 Aug 2021 14:53:29.932,322.423
84,23 Aug 2021 22:35:08.604,23 Aug 2021 22:40:35.755,327.151
85,24 Aug 2021 00:08:57.424,24 Aug 2021 00:17:36.907,519.483
86,24 Aug 2021 11:50:40.111,24 Aug 2021 11:55:32.279,292.168
87,24 Aug 2021 13:25:12.802,24 Aug 2021 13:33:50.802,518.000
88,24 Aug 2021 15:03:06.517,24 Aug 2021 15:06:17.569,191.053
89,24 Aug 2021 22:48:25.525,24 Aug 2021 22:55:11.070,405.545
90,25 Aug 2021 00:23:14.801,25 Aug 2021 00:31:39.859,505.058
91,25 Aug 2021 12:04:06.561,25 Aug 2021 12:10:44.319,397.758
92,25 Aug 2021 13:39:25.745,25 Aug 2021 13:47:47.338,501.593
93,25 Aug 2021 23:01:57.483,25 Aug 2021 23:09:36.656,459.174
94,26 Aug 2021 00:37:43.813,26 Aug 2021 00:45:36.572,472.759
95,26 Aug 2021 12:17:51.435,26 Aug 2021 12:25:32.174,460.739
96,26 Aug 2021 13:53:43.578,26 Aug 2021 14:01:33.726,470.148
97,26 Aug 2021 23:15:41.073,26 Aug 2021 23:23:55.894,494.820
98,27 Aug 2021 00:52:27.112,27 Aug 2021 00:59:24.517,417.405
99,27 Aug 2021 12:31:46.167,27 Aug 2021 12:40:04.604,498.437
100,27 Aug 2021 14:08:07.289,27 Aug 2021 14:15:08.949,421.659
101,27 Aug 2021 21:57:40.095,27 Aug 2021 21:59:51.893,131.798
102,27 Aug 2021 23:29:34.989,27 Aug 2021 23:38:10.079,515.090
103,28 Aug 2021 01:07:31.192,28 Aug 2021 01:12:57.388,326.196
104,28 Aug 2021 12:45:47.626,28 Aug 2021 12:54:24.886,517.261
105,28 Aug 2021 14:22:39.481,28 Aug 2021 14:28:30.388,350.907
106,28 Aug 2021 22:10:11.084,28 Aug 2021 22:15:06.145,295.061
107,28 Aug 2021 23:43:38.840,28 Aug 2021 23:52:19.592,520.752
108,29 Aug 2021 01:23:26.486,29 Aug 2021 01:25:44.997,138.511
109,29 Aug 2021 11:25:43.169,29 Aug 2021 11:29:45.338,242.169
110,29 Aug 2021 12:59:54.390,29 Aug 2021 13:08:34.528,520.139
111,29 Aug 2021 14:37:28.177,29 Aug 2021 14:41:30.005,241.829
112,29 Aug 2021 22:23:21.770,29 Aug 2021 22:29:46.033,384.263
113,29 Aug 2021 23:57:52.878,30 Aug 2021 00:06:24.211,511.333
114,30 Aug 2021 11:38:59.000,30 Aug 2021 11:45:09.849,370.849
115,30 Aug 2021 13:14:05.879,30 Aug 2021 13:22:34.163,508.284
116,30 Aug 2021 22:36:49.567,30 Aug 2021 22:44:14.125,444.559
117,31 Aug 2021 00:12:18.066,31 Aug 2021 00:20:23.056,484.989
118,31 Aug 2021 11:52:39.544,31 Aug 2021 12:00:03.807,444.263
119,31 Aug 2021 13:28:22.121,31 Aug 2021 13:36:23.783,481.662
120,31 Aug 2021 22:50:29.723,31 Aug 2021 22:58:35.147,485.424
121,1 Sep 2021 00:26:56.477,1 Sep 2021 00:34:14.151,437.674
122,1 Sep 2021 12:06:31.669,1 Sep 2021 12:14:40.564,488.895
123,1 Sep 2021 13:42:43.825,1 Sep 2021 13:50:02.667,438.843
124,1 Sep 2021 23:04:20.493,1 Sep 2021 23:12:50.833,510.340
125,2 Sep 2021 00:41:52.878,2 Sep 2021 00:47:52.899,360.020
126,2 Sep 2021 12:20:31.230,2 Sep 2021 12:29:04.419,513.189
127,2 Sep 2021 13:57:12.912,2 Sep 2021 14:03:28.870,375.958
128,2 Sep 2021 21:45:16.655,2 Sep 2021 21:49:33.957,257.301
129,2 Sep 2021 23:18:21.243,2 Sep 2021 23:27:01.801,520.558
130,3 Sep 2021 00:57:23.235,3 Sep 2021 01:01:03.552,220.317
131,3 Sep 2021 11:00:55.423,3 Sep 2021 11:03:48.605,173.182
132,3 Sep 2021 12:34:36.432,3 Sep 2021 12:43:17.283,520.851
133,3 Sep 2021 14:11:54.774,3 Sep 2021 14:16:36.982,282.209
134,3 Sep 2021 21:58:19.609,3 Sep 2021 22:04:19.912,360.303
135,3 Sep 2021 23:32:32.035,3 Sep 2021 23:41:08.006,515.971
136,4 Sep 2021 11:13:53.572,4 Sep 2021 11:19:32.671,339.099
137,4 Sep 2021 12:48:46.471,4 Sep 2021 12:57:20.016,513.545
138,4 Sep 2021 14:27:20.673,4 Sep 2021 14:28:55.718,95.044
139,4 Sep 2021 22:11:42.833,4 Sep 2021 22:18:50.921,428.088
140,4 Sep 2021 23:46:53.587,4 Sep 2021 23:55:08.800,495.212
141,5 Sep 2021 11:27:28.737,5 Sep 2021 11:34:33.805,425.068
142,5 Sep 2021 13:03:01.190,5 Sep 2021 13:11:12.798,491.608
143,5 Sep 2021 22:25:19.399,5 Sep 2021 22:33:13.887,474.488
144,6 Sep 2021 00:01:27.542,6 Sep 2021 00:09:02.630,455.088
145,6 Sep 2021 11:41:17.875,6 Sep 2021 11:49:15.288,477.413
146,6 Sep 2021 13:17:21.057,6 Sep 2021 13:24:55.168,454.111
147,6 Sep 2021 22:39:06.965,6 Sep 2021 22:47:31.132,504.168
148,7 Sep 2021 00:16:17.497,7 Sep 2021 00:22:46.037,388.540
149,7 Sep 2021 11:55:15.380,7 Sep 2021 12:03:42.895,507.515
150,7 Sep 2021 13:31:47.507,7 Sep 2021 13:38:25.665,398.158
151,7 Sep 2021 21:20:26.761,7 Sep 2021 21:23:57.759,210.998
152,7 Sep 2021 22:53:04.621,7 Sep 2021 23:01:43.552,518.930
153,8 Sep 2021 00:31:33.550,8 Sep 2021 00:36:09.139,275.589
154,8 Sep 2021 12:09:18.947,8 Sep 2021 12:17:59.058,520.111
155,8 Sep 2021 13:46:24.342,8 Sep 2021 13:51:40.468,316.126
156,8 Sep 2021 21:33:19.309,8 Sep 2021 21:38:52.451,333.141
157,8 Sep 2021 23:07:12.239,8 Sep 2021 23:15:51.285,519.045
158,9 Sep 2021 10:48:51.062,9 Sep 2021 10:53:52.008,300.947
159,9 Sep 2021 12:23:27.516,9 Sep 2021 12:32:04.906,517.390
160,9 Sep 2021 14:01:26.214,9 Sep 2021 14:04:24.900,178.685
161,9 Sep 2021 21:46:37.375,9 Sep 2021 21:53:26.960,409.585
162,9 Sep 2021 23:21:30.308,9 Sep 2021 23:29:53.882,503.574
163,10 Sep 2021 11:02:19.223,10 Sep 2021 11:09:01.964,402.741
164,10 Sep 2021 12:37:40.756,10 Sep 2021 12:46:00.811,500.055
165,10 Sep 2021 22:00:10.143,10 Sep 2021 22:07:52.078,461.935
166,10 Sep 2021 23:36:00.130,10 Sep 2021 23:43:50.132,470.002
167,11 Sep 2021 11:16:04.882,11 Sep 2021 11:23:48.674,463.792
168,11 Sep 2021 12:51:58.922,11 Sep 2021 12:59:46.526,467.605
169,11 Sep 2021 22:13:54.414,11 Sep 2021 22:22:10.970,496.557
170,11 Sep 2021 23:50:44.488,11 Sep 2021 23:57:37.372,412.884
171,12 Sep 2021 11:30:00.109,12 Sep 2021 11:38:20.259,500.150
172,12 Sep 2021 13:06:23.070,12 Sep 2021 13:13:20.977,417.907
173,12 Sep 2021 20:55:45.237,12 Sep 2021 20:58:13.710,148.473
174,12 Sep 2021 22:27:48.966,12 Sep 2021 22:36:24.846,515.880
175,13 Sep 2021 00:05:50.343,13 Sep 2021 00:11:08.839,318.495
176,13 Sep 2021 11:44:01.940,13 Sep 2021 11:52:39.831,517.891
177,13 Sep 2021 13:20:55.966,13 Sep 2021 13:26:41.373,345.407
178,13 Sep 2021 21:08:21.262,13 Sep 2021 21:13:23.263,302.002
179,13 Sep 2021 22:41:53.446,13 Sep 2021 22:50:34.064,520.618
180,14 Sep 2021 00:21:54.314,14 Sep 2021 00:23:48.158,113.843
181,14 Sep 2021 10:23:52.921,14 Sep 2021 10:28:06.387,253.466
182,14 Sep 2021 11:58:09.015,14 Sep 2021 12:06:48.827,519.812
183,14 Sep 2021 13:35:46.395,14 Sep 2021 13:39:38.919,232.524
184,14 Sep 2021 21:21:33.314,14 Sep 2021 21:28:02.117,388.804
185,14 Sep 2021 22:56:08.161,14 Sep 2021 23:04:38.353,510.191
186,15 Sep 2021 10:37:11.293,15 Sep 2021 10:43:27.975,376.683
187,15 Sep 2021 12:12:20.795,15 Sep 2021 12:20:47.834,507.039
188,15 Sep 2021 21:35:01.988,15 Sep 2021 21:42:29.676,447.688
189,15 Sep 2021 23:10:34.112,15 Sep 2021 23:18:36.777,482.665
190,16 Sep 2021 10:50:52.790,16 Sep 2021 10:58:20.619,447.829
191,16 Sep 2021 12:26:37.353,16 Sep 2021 12:34:36.799,479.446
192,16 Sep 2021 21:48:42.857,16 Sep 2021 21:56:50.319,487.462
193,16 Sep 2021 23:25:13.478,16 Sep 2021 23:32:27.266,433.788
194,17 Sep 2021 11:04:45.469,17 Sep 2021 11:12:56.465,490.996
195,17 Sep 2021 12:40:59.450,17 Sep 2021 12:48:14.954,435.504
196,17 Sep 2021 22:02:34.273,17 Sep 2021 22:11:05.696,511.423
197,17 Sep 2021 23:40:11.326,17 Sep 2021 23:46:04.932,353.606
198,18 Sep 2021 11:18:45.433,18 Sep 2021 11:27:19.582,514.149
199,18 Sep 2021 12:55:29.127,18 Sep 2021 13:01:40.227,371.100
200,18 Sep 2021 20:43:26.114,18 Sep 2021 20:47:51.688,265.573
201,18 Sep 2021 22:16:35.654,18 Sep 2021 22:25:16.366,520.712
202,18 Sep 2021 23:55:45.493,18 Sep 2021 23:59:12.163,206.670
203,19 Sep 2021 09:59:02.624,19 Sep 2021 10:02:12.331,189.706
204,19 Sep 2021 11:32:50.963,19 Sep 2021 11:41:31.781,520.817
205,19 Sep 2021 13:10:12.201,19 Sep 2021 13:14:46.792,274.591
206,19 Sep 2021 20:56:30.812,19 Sep 2021 21:02:36.240,365.429
207,19 Sep 2021 22:30:47.102,19 Sep 2021 22:39:22.259,515.157
208,20 Sep 2021 10:12:05.380,20 Sep 2021 10:17:51.405,346.025
209,20 Sep 2021 11:47:01.294,20 Sep 2021 11:55:33.880,512.586
210,20 Sep 2021 13:25:48.925,20 Sep 2021 13:26:54.366,65.442
211,20 Sep 2021 21:09:55.009,20 Sep 2021 21:17:06.615,431.606
212,20 Sep 2021 22:45:09.381,20 Sep 2021 22:53:22.665,493.284
213,21 Sep 2021 10:25:41.748,21 Sep 2021 10:32:50.966,429.218
214,21 Sep 2021 12:01:16.319,21 Sep 2021 12:09:26.022,489.703
215,21 Sep 2021 21:23:32.323,21 Sep 2021 21:31:29.169,476.846
216,21 Sep 2021 22:59:44.215,21 Sep 2021 23:07:15.967,451.752
217,22 Sep 2021 10:39:31.532,22 Sep 2021 10:47:31.447,479.914
218,22 Sep 2021 12:15:36.548,22 Sep 2021 12:23:07.696,451.149
219,22 Sep 2021 21:37:20.543,22 Sep 2021 21:45:46.091,505.548
220,22 Sep 2021 23:14:35.405,22 Sep 2021 23:20:58.499,383.094
221,23 Sep 2021 10:53:29.470,23 Sep 2021 11:01:58.276,508.806
222,23 Sep 2021 12:30:03.506,23 Sep 2021 12:36:37.350,393.844
223,23 Sep 2021 20:18:35.115,23 Sep 2021 20:22:16.489,221.373
224,23 Sep 2021 21:51:18.831,23 Sep 2021 21:59:58.210,519.379
225,23 Sep 2021 23:29:53.943,23 Sep 2021 23:34:19.495,265.553
226,24 Sep 2021 09:34:36.983,24 Sep 2021 09:35:53.009,76.026
227,24 Sep 2021 11:07:33.373,24 Sep 2021 11:16:13.758,520.385
228,24 Sep 2021 12:44:41.259,24 Sep 2021 12:49:50.894,309.635
229,24 Sep 2021 20:31:30.108,24 Sep 2021 20:37:09.080,338.972
230,24 Sep 2021 22:05:27.097,24 Sep 2021 22:14:05.639,518.542
231,25 Sep 2021 09:47:02.187,25 Sep 2021 09:52:11.540,309.353
232,25 Sep 2021 11:21:42.247,25 Sep 2021 11:30:18.965,516.718
233,25 Sep 2021 12:59:46.413,25 Sep 2021 13:02:31.707,165.294
234,25 Sep 2021 20:44:49.283,25 Sep 2021 20:51:42.816,413.533
235,25 Sep 2021 22:19:45.863,25 Sep 2021 22:28:07.877,502.014
236,26 Sep 2021 10:00:31.950,26 Sep 2021 10:07:19.518,407.568
237,26 Sep 2021 11:35:55.788,26 Sep 2021 11:44:14.239,498.451
238,26 Sep 2021 20:58:22.846,26 Sep 2021 21:06:07.475,464.628
239,26 Sep 2021 22:34:16.504,26 Sep 2021 22:42:03.656,467.151
240,27 Sep 2021 10:14:18.364,27 Sep 2021 10:22:05.116,466.752
241,27 Sep 2021 11:50:14.290,27 Sep 2021 11:57:59.283,464.993
242,27 Sep 2021 21:12:07.795,27 Sep 2021 21:20:26.022,498.227
243,27 Sep 2021 22:49:01.948,27 Sep 2021 22:55:50.170,408.222
244,28 Sep 2021 10:28:14.076,28 Sep 2021 10:36:35.870,501.793
245,28 Sep 2021 12:04:38.885,28 Sep 2021 12:11:32.950,414.065
246,28 Sep 2021 19:53:51.286,28 Sep 2021 19:56:34.643,163.357
247,28 Sep 2021 21:26:02.983,28 Sep 2021 21:34:39.603,516.620
248,28 Sep 2021 23:04:09.665,28 Sep 2021 23:09:20.147,310.482
249,29 Sep 2021 10:42:16.270,29 Sep 2021 10:50:54.739,518.469
250,29 Sep 2021 12:19:12.515,29 Sep 2021 12:24:52.277,339.762
251,29 Sep 2021 20:06:31.559,29 Sep 2021 20:11:40.284,308.725
252,29 Sep 2021 21:40:08.104,29 Sep 2021 21:48:48.517,520.413
253,29 Sep 2021 23:20:25.957,29 Sep 2021 23:21:47.534,81.577
254,30 Sep 2021 09:22:02.977,30 Sep 2021 09:26:27.108,264.132
255,30 Sep 2021 10:56:23.654,30 Sep 2021 11:05:03.085,519.431
256,30 Sep 2021 12:34:04.837,30 Sep 2021 12:37:47.590,222.753
257,30 Sep 2021 20:19:44.928,30 Sep 2021 20:26:18.165,393.237
258,30 Sep 2021 21:54:23.491,30 Sep 2021 22:02:52.469,508.978
259,1 Oct 2021 09:35:23.671,1 Oct 2021 09:41:46.001,382.330
260,1 Oct 2021 11:10:35.734,1 Oct 2021 11:19:01.462,505.728
261,1 Oct 2021 20:33:14.461,1 Oct 2021 20:40:45.196,450.735
262,1 Oct 2021 22:08:50.213,1 Oct 2021 22:16:50.465,480.252
263,2 Oct 2021 09:49:06.080,2 Oct 2021 09:56:37.364,451.285
264,2 Oct 2021 11:24:52.608,2 Oct 2021 11:32:49.774,477.166
265,2 Oct 2021 20:46:56.035,2 Oct 2021 20:55:05.475,489.440
266,2 Oct 2021 22:23:30.555,2 Oct 2021 22:30:40.334,429.780
267,3 Oct 2021 10:02:59.304,3 Oct 2021 10:11:12.320,493.016
268,3 Oct 2021 11:39:15.107,3 Oct 2021 11:46:27.190,432.083
269,3 Oct 2021 19:29:30.273,3 Oct 2021 19:30:30.494,60.221
270,3 Oct 2021 21:00:48.089,3 Oct 2021 21:09:20.538,512.450
271,3 Oct 2021 22:38:29.906,3 Oct 2021 22:44:16.864,346.958
272,4 Oct 2021 10:16:59.664,4 Oct 2021 10:25:34.697,515.033
273,4 Oct 2021 11:53:45.394,4 Oct 2021 11:59:51.519,366.124
274,4 Oct 2021 19:41:35.749,4 Oct 2021 19:46:09.270,273.521
275,4 Oct 2021 21:14:50.102,4 Oct 2021 21:23:30.916,520.814
276,4 Oct 2021 22:54:08.350,4 Oct 2021 22:57:20.201,191.851
277,5 Oct 2021 08:57:10.575,5 Oct 2021 09:00:35.279,204.704
278,5 Oct 2021 10:31:05.510,5 Oct 2021 10:39:46.241,520.731
279,5 Oct 2021 12:08:29.760,5 Oct 2021 12:12:56.446,266.687
280,5 Oct 2021 19:54:42.090,5 Oct 2021 20:00:52.516,370.426
281,5 Oct 2021 21:29:02.213,5 Oct 2021 21:37:36.488,514.275
282,6 Oct 2021 09:10:17.299,6 Oct 2021 09:16:10.002,352.704
283,6 Oct 2021 10:45:16.137,6 Oct 2021 10:53:47.709,511.573
284,6 Oct 2021 20:08:07.238,6 Oct 2021 20:15:22.278,435.039
285,6 Oct 2021 21:43:25.226,6 Oct 2021 21:51:36.504,491.278
286,7 Oct 2021 09:23:54.810,7 Oct 2021 09:31:08.052,433.242
287,7 Oct 2021 10:59:31.470,7 Oct 2021 11:07:39.208,487.738
288,7 Oct 2021 20:21:45.291,7 Oct 2021 20:29:44.427,479.136
289,7 Oct 2021 21:58:00.953,7 Oct 2021 22:05:29.260,448.307
290,8 Oct 2021 09:37:45.218,8 Oct 2021 09:45:47.554,482.336
291,8 Oct 2021 11:13:52.066,8 Oct 2021 11:21:20.179,448.113
292,8 Oct 2021 20:35:34.167,8 Oct 2021 20:44:01.027,506.861
293,8 Oct 2021 22:12:53.415,8 Oct 2021 22:19:10.888,377.473
294,9 Oct 2021 09:51:43.584,9 Oct 2021 10:00:13.611,510.027
295,9 Oct 2021 11:28:19.545,9 Oct 2021 11:34:48.967,389.421
296,9 Oct 2021 19:16:43.750,9 Oct 2021 19:20:34.963,231.212
297,9 Oct 2021 20:49:33.085,9 Oct 2021 20:58:12.853,519.768
298,9 Oct 2021 22:28:14.621,9 Oct 2021 22:32:29.590,254.969
299,10 Oct 2021 08:32:35.517,10 Oct 2021 08:34:25.502,109.984
300,10 Oct 2021 10:05:47.828,10 Oct 2021 10:14:28.417,520.589
301,10 Oct 2021 11:42:58.267,10 Oct 2021 11:48:01.208,302.941
302,10 Oct 2021 19:29:40.996,10 Oct 2021 19:35:25.637,344.641
303,10 Oct 2021 21:03:41.991,10 Oct 2021 21:12:19.972,517.981
304,11 Oct 2021 08:45:13.473,11 Oct 2021 08:50:30.884,317.411
305,11 Oct 2021 10:19:57.002,11 Oct 2021 10:28:32.990,515.988
306,11 Oct 2021 11:58:07.244,11 Oct 2021 12:00:37.857,150.612
307,11 Oct 2021 19:43:01.250,11 Oct 2021 19:49:58.634,417.384
308,11 Oct 2021 21:18:01.466,11 Oct 2021 21:26:21.846,500.380
309,12 Oct 2021 08:58:44.742,12 Oct 2021 09:05:36.989,412.247
310,12 Oct 2021 10:34:10.837,12 Oct 2021 10:42:27.625,496.788
311,12 Oct 2021 19:56:35.595,12 Oct 2021 20:04:22.844,467.249
312,12 Oct 2021 21:32:32.937,12 Oct 2021 21:40:17.143,464.206
313,13 Oct 2021 09:12:31.884,13 Oct 2021 09:20:21.499,469.615
314,13 Oct 2021 10:48:29.682,13 Oct 2021 10:56:11.992,462.310
315,13 Oct 2021 20:10:21.218,13 Oct 2021 20:18:41.055,499.837
316,13 Oct 2021 21:47:19.492,13 Oct 2021 21:54:02.906,403.414
317,14 Oct 2021 09:26:28.069,14 Oct 2021 09:34:51.432,503.364
318,14 Oct 2021 11:02:54.731,14 Oct 2021 11:09:44.866,410.135
319,14 Oct 2021 18:51:58.008,14 Oct 2021 18:54:54.916,176.908
320,14 Oct 2021 20:24:17.035,14 Oct 2021 20:32:54.333,517.299
321,14 Oct 2021 22:02:29.169,14 Oct 2021 22:07:31.293,302.124
322,15 Oct 2021 09:40:30.617,15 Oct 2021 09:49:09.601,518.984
323,15 Oct 2021 11:17:29.131,15 Oct 2021 11:23:03.084,333.953
324,15 Oct 2021 19:04:41.969,15 Oct 2021 19:09:57.213,315.244
325,15 Oct 2021 20:38:22.792,15 Oct 2021 20:47:02.949,520.157
326,15 Oct 2021 22:19:14.092,15 Oct 2021 22:19:30.439,16.347
327,16 Oct 2021 08:20:13.300,16 Oct 2021 08:24:47.536,274.237
328,16 Oct 2021 09:54:38.307,16 Oct 2021 10:03:17.307,519.000
329,16 Oct 2021 11:32:23.523,16 Oct 2021 11:35:55.983,212.459
330,16 Oct 2021 19:17:56.601,16 Oct 2021 19:24:34.169,397.568
331,16 Oct 2021 20:52:38.866,16 Oct 2021 21:01:06.561,507.695
332,17 Oct 2021 08:33:36.120,17 Oct 2021 08:40:03.919,387.800
333,17 Oct 2021 10:08:50.683,17 Oct 2021 10:17:15.048,504.365
334,17 Oct 2021 19:31:26.982,17 Oct 2021 19:39:00.689,453.706
335,17 Oct 2021 21:07:06.367,17 Oct 2021 21:15:04.126,477.759
336,18 Oct 2021 08:47:19.411,18 Oct 2021 08:54:54.046,454.635
337,18 Oct 2021 10:23:07.886,18 Oct 2021 10:31:02.703,474.818
338,18 Oct 2021 19:45:09.255,18 Oct 2021 19:53:20.605,491.350
339,18 Oct 2021 21:21:47.705,18 Oct 2021 21:28:53.351,425.646
340,19 Oct 2021 09:01:13.166,19 Oct 2021 09:09:28.118,494.951
341,19 Oct 2021 10:37:30.795,19 Oct 2021 10:44:39.373,428.578
342,19 Oct 2021 18:27:28.053,19 Oct 2021 18:28:59.610,91.557
343,19 Oct 2021 19:59:01.955,19 Oct 2021 20:07:35.368,513.413
344,19 Oct 2021 21:36:48.619,19 Oct 2021 21:42:28.686,340.067
345,20 Oct 2021 09:15:13.911,20 Oct 2021 09:23:49.772,515.861
346,20 Oct 2021 10:52:01.714,20 Oct 2021 10:58:02.733,361.018
347,20 Oct 2021 18:39:45.537,20 Oct 2021 18:44:26.717,281.180
348,20 Oct 2021 20:13:04.600,20 Oct 2021 20:21:45.446,520.846
349,20 Oct 2021 21:52:31.955,20 Oct 2021 21:55:27.513,175.557
350,21 Oct 2021 07:55:19.115,21 Oct 2021 07:58:57.611,218.496
351,21 Oct 2021 09:29:20.076,21 Oct 2021 09:38:00.658,520.583
352,21 Oct 2021 11:06:47.466,21 Oct 2021 11:11:05.935,258.469
353,21 Oct 2021 18:52:53.440,21 Oct 2021 18:59:08.739,375.299
354,21 Oct 2021 20:27:17.367,21 Oct 2021 20:35:50.691,513.324
355,22 Oct 2021 08:08:29.319,22 Oct 2021 08:14:28.471,359.152
356,22 Oct 2021 09:43:30.998,22 Oct 2021 09:52:01.496,510.498
357,22 Oct 2021 19:06:19.519,22 Oct 2021 19:13:37.908,438.390
358,22 Oct 2021 20:41:41.120,22 Oct 2021 20:49:50.312,489.192
359,23 Oct 2021 08:22:07.920,23 Oct 2021 08:29:25.067,437.147
360,23 Oct 2021 09:57:46.641,23 Oct 2021 10:05:52.350,485.709
361,23 Oct 2021 19:19:58.302,23 Oct 2021 19:27:59.663,481.361
362,23 Oct 2021 20:56:17.756,23 Oct 2021 21:03:42.516,444.759
363,24 Oct 2021 08:35:58.935,24 Oct 2021 08:44:03.607,484.672
364,24 Oct 2021 10:12:07.611,24 Oct 2021 10:19:32.605,444.994
365,24 Oct 2021 19:33:47.830,24 Oct 2021 19:42:15.948,508.118
366,24 Oct 2021 21:11:11.529,24 Oct 2021 21:17:23.191,371.662
367,25 Oct 2021 08:49:57.719,25 Oct 2021 08:58:28.899,511.180
368,25 Oct 2021 10:26:35.629,25 Oct 2021 10:33:00.526,384.898
369,25 Oct 2021 18:14:52.635,25 Oct 2021 18:18:53.205,240.570
370,25 Oct 2021 19:47:47.378,25 Oct 2021 19:56:27.476,520.098
371,25 Oct 2021 21:26:35.622,25 Oct 2021 21:30:39.385,243.763
372,26 Oct 2021 07:30:38.309,26 Oct 2021 07:32:53.704,135.395
373,26 Oct 2021 09:04:02.298,26 Oct 2021 09:12:43.034,520.736
374,26 Oct 2021 10:41:15.372,26 Oct 2021 10:46:11.403,296.031
375,26 Oct 2021 18:27:51.969,26 Oct 2021 18:33:42.128,350.159
376,26 Oct 2021 20:01:56.937,26 Oct 2021 20:10:34.284,517.347
377,27 Oct 2021 07:43:24.906,27 Oct 2021 07:48:50.055,325.149
378,27 Oct 2021 09:18:11.765,27 Oct 2021 09:26:46.973,515.208
379,27 Oct 2021 10:56:28.915,27 Oct 2021 10:58:43.141,134.226
380,27 Oct 2021 18:41:13.270,27 Oct 2021 18:48:14.419,421.149
381,27 Oct 2021 20:16:17.116,27 Oct 2021 20:24:35.794,498.678
382,28 Oct 2021 07:56:57.586,28 Oct 2021 08:03:54.377,416.791
383,28 Oct 2021 09:32:25.908,28 Oct 2021 09:40:40.974,495.067
384,28 Oct 2021 18:54:48.389,28 Oct 2021 19:02:38.193,469.804
385,28 Oct 2021 20:30:49.431,28 Oct 2021 20:38:30.596,461.165
386,29 Oct 2021 08:10:45.439,29 Oct 2021 08:18:37.824,472.385
387,29 Oct 2021 09:46:45.099,29 Oct 2021 09:54:24.655,459.556
388,29 Oct 2021 19:08:34.681,29 Oct 2021 19:16:56.065,501.385
389,29 Oct 2021 20:45:37.125,29 Oct 2021 20:52:15.578,398.453
390,30 Oct 2021 08:24:42.087,30 Oct 2021 08:33:06.946,504.859
391,30 Oct 2021 10:01:10.617,30 Oct 2021 10:07:56.726,406.109
392,30 Oct 2021 17:50:05.270,30 Oct 2021 17:53:14.677,189.407
393,30 Oct 2021 19:22:31.137,30 Oct 2021 19:31:09.047,517.910
394,30 Oct 2021 21:00:48.871,30 Oct 2021 21:05:42.269,293.398
395,31 Oct 2021 08:38:44.993,31 Oct 2021 08:47:24.418,519.425
396,31 Oct 2021 10:15:45.818,31 Oct 2021 10:21:13.807,327.988
397,31 Oct 2021 18:02:52.486,31 Oct 2021 18:08:14.056,321.570
398,31 Oct 2021 19:36:37.533,31 Oct 2021 19:45:17.362,519.829
399,1 Nov 2021 07:18:23.859,1 Nov 2021 07:23:07.703,283.844
400,1 Nov 2021 08:52:52.989,1 Nov 2021 09:01:31.485,518.496
401,1 Nov 2021 10:30:42.509,1 Nov 2021 10:34:04.067,201.557
402,1 Nov 2021 18:16:08.337,1 Nov 2021 18:22:50.135,401.798
403,1 Nov 2021 19:50:54.285,1 Nov 2021 19:59:20.630,506.345
404,2 Nov 2021 07:31:48.647,2 Nov 2021 07:38:21.745,393.098
405,2 Nov 2021 09:07:05.662,2 Nov 2021 09:15:28.597,502.935
406,2 Nov 2021 18:29:39.551,2 Nov 2021 18:37:16.158,456.607
407,2 Nov 2021 20:05:22.573,2 Nov 2021 20:13:17.751,475.177
408,3 Nov 2021 07:45:32.783,3 Nov 2021 07:53:10.665,457.882
409,3 Nov 2021 09:21:23.186,3 Nov 2021 09:29:15.588,472.401
410,3 Nov 2021 18:43:22.516,3 Nov 2021 18:51:35.715,493.199
411,3 Nov 2021 20:20:04.931,3 Nov 2021 20:27:06.315,421.384
412,4 Nov 2021 07:59:27.056,4 Nov 2021 08:07:43.870,496.815
413,4 Nov 2021 09:35:46.514,4 Nov 2021 09:42:51.503,424.989
414,4 Nov 2021 17:25:30.040,4 Nov 2021 17:27:24.538,114.499
415,4 Nov 2021 18:57:15.851,4 Nov 2021 19:05:50.173,514.322
416,4 Nov 2021 20:35:07.472,4 Nov 2021 20:40:40.389,332.916
417,5 Nov 2021 08:13:28.180,5 Nov 2021 08:22:04.801,516.621
418,5 Nov 2021 09:50:18.089,5 Nov 2021 09:56:13.865,355.776
419,5 Nov 2021 17:37:55.469,5 Nov 2021 17:42:44.039,288.571
420,5 Nov 2021 19:11:19.128,5 Nov 2021 19:19:59.955,520.828
421,5 Nov 2021 20:50:56.534,5 Nov 2021 20:53:33.877,157.343
422,6 Nov 2021 06:53:28.138,6 Nov 2021 06:57:19.428,231.290
423,6 Nov 2021 08:27:34.659,6 Nov 2021 08:36:15.034,520.374
424,6 Nov 2021 10:05:05.331,6 Nov 2021 10:09:15.243,249.912
425,6 Nov 2021 17:51:04.863,6 Nov 2021 17:57:24.912,380.049
426,6 Nov 2021 19:25:32.564,6 Nov 2021 19:34:04.876,512.312
427,7 Nov 2021 07:06:41.437,7 Nov 2021 07:12:46.818,365.382
428,7 Nov 2021 08:41:45.876,7 Nov 2021 08:50:15.242,509.365
429,7 Nov 2021 18:04:31.849,7 Nov 2021 18:11:53.510,441.661
430,7 Nov 2021 19:39:57.064,7 Nov 2021 19:48:04.095,487.030
431,8 Nov 2021 07:20:21.079,8 Nov 2021 07:27:42.009,440.931
432,8 Nov 2021 08:56:01.832,8 Nov 2021 09:04:05.447,483.615
433,8 Nov 2021 18:18:11.355,8 Nov 2021 18:26:14.875,483.520
434,8 Nov 2021 19:54:34.625,8 Nov 2021 20:01:55.722,441.097
435,9 Nov 2021 07:34:12.681,9 Nov 2021 07:42:19.610,486.929
436,9 Nov 2021 09:10:23.182,9 Nov 2021 09:17:44.990,441.807
437,9 Nov 2021 18:32:01.537,9 Nov 2021 18:40:30.841,509.303
438,9 Nov 2021 20:09:29.753,9 Nov 2021 20:15:35.407,365.654
439,10 Nov 2021 07:48:11.876,10 Nov 2021 07:56:44.141,512.265
440,10 Nov 2021 09:24:51.758,10 Nov 2021 09:31:12.011,380.253
441,10 Nov 2021 17:13:01.732,10 Nov 2021 17:17:11.254,249.521
442,10 Nov 2021 18:46:01.716,10 Nov 2021 18:54:42.080,520.364
443,10 Nov 2021 20:24:56.991,10 Nov 2021 20:28:48.835,231.844
444,11 Nov 2021 06:28:43.250,11 Nov 2021 06:31:19.726,156.475
445,11 Nov 2021 08:02:16.782,11 Nov 2021 08:10:57.609,520.827
446,11 Nov 2021 09:39:32.578,11 Nov 2021 09:44:21.472,288.894
447,11 Nov 2021 17:26:03.023,11 Nov 2021 17:31:58.565,355.543
448,11 Nov 2021 19:00:11.916,11 Nov 2021 19:08:48.574,516.659
449,12 Nov 2021 06:41:36.476,12 Nov 2021 06:47:09.068,332.592
450,12 Nov 2021 08:16:26.554,12 Nov 2021 08:25:00.914,514.360
451,12 Nov 2021 09:54:51.792,12 Nov 2021 09:56:47.202,115.409
452,12 Nov 2021 17:39:25.344,12 Nov 2021 17:46:30.170,424.826
453,12 Nov 2021 19:14:32.814,12 Nov 2021 19:22:49.710,496.896
454,13 Nov 2021 06:55:10.492,13 Nov 2021 07:02:11.684,421.192
455,13 Nov 2021 08:30:40.997,13 Nov 2021 08:38:54.278,493.281
456,13 Nov 2021 17:53:01.224,13 Nov 2021 18:00:53.516,472.292
457,13 Nov 2021 19:29:05.984,13 Nov 2021 19:36:44.008,458.024
458,14 Nov 2021 07:08:59.028,14 Nov 2021 07:16:54.089,475.061
459,14 Nov 2021 08:45:00.538,14 Nov 2021 08:52:37.272,456.734
460,14 Nov 2021 18:06:48.184,14 Nov 2021 18:15:11.060,502.875
461,14 Nov 2021 19:43:54.848,14 Nov 2021 19:50:28.177,393.329
462,15 Nov 2021 07:22:56.131,15 Nov 2021 07:31:22.414,506.282
463,15 Nov 2021 08:59:26.540,15 Nov 2021 09:06:08.523,401.982
464,15 Nov 2021 16:48:12.969,15 Nov 2021 16:51:34.021,201.053
465,15 Nov 2021 18:20:45.273,15 Nov 2021 18:29:23.747,518.474
466,15 Nov 2021 19:59:08.789,15 Nov 2021 20:03:53.052,284.263
467,16 Nov 2021 07:36:59.384,16 Nov 2021 07:45:39.197,519.813
468,16 Nov 2021 09:14:02.580,16 Nov 2021 09:19:24.427,321.847
469,16 Nov 2021 17:01:03.104,16 Nov 2021 17:06:30.821,327.717
470,16 Nov 2021 18:34:52.309,16 Nov 2021 18:43:31.756,519.448
471,17 Nov 2021 06:16:34.630,17 Nov 2021 06:21:27.632,293.002
472,17 Nov 2021 07:51:07.682,17 Nov 2021 07:59:45.625,517.943
473,17 Nov 2021 09:29:01.839,17 Nov 2021 09:32:11.778,189.939
474,17 Nov 2021 17:14:20.133,17 Nov 2021 17:21:06.059,405.926
475,17 Nov 2021 18:49:09.750,17 Nov 2021 18:57:34.673,504.922
476,18 Nov 2021 06:30:01.244,18 Nov 2021 06:36:39.473,398.229
477,18 Nov 2021 08:05:20.649,18 Nov 2021 08:13:42.101,501.452
478,18 Nov 2021 17:27:52.166,18 Nov 2021 17:35:31.600,459.434
479,18 Nov 2021 19:03:38.837,18 Nov 2021 19:11:31.343,472.507
480,19 Nov 2021 06:43:46.193,19 Nov 2021 06:51:27.221,461.028
481,19 Nov 2021 08:19:38.512,19 Nov 2021 08:27:28.427,469.915
482,19 Nov 2021 17:41:35.821,19 Nov 2021 17:49:50.808,494.987
483,19 Nov 2021 19:18:22.233,19 Nov 2021 19:25:19.223,416.990
484,20 Nov 2021 06:57:40.971,20 Nov 2021 07:05:59.571,498.600
485,20 Nov 2021 08:34:02.264,20 Nov 2021 08:41:03.577,421.313
486,20 Nov 2021 16:23:34.036,20 Nov 2021 16:25:47.475,133.439
487,20 Nov 2021 17:55:29.795,20 Nov 2021 18:04:04.957,515.162
488,20 Nov 2021 19:33:26.474,20 Nov 2021 19:38:51.964,325.490
489,21 Nov 2021 07:11:42.464,21 Nov 2021 07:20:19.786,517.323
490,21 Nov 2021 08:48:34.520,21 Nov 2021 08:54:24.925,350.404
491,21 Nov 2021 16:36:05.534,21 Nov 2021 16:41:01.248,295.715
492,21 Nov 2021 18:09:33.705,21 Nov 2021 18:18:14.447,520.742
493,21 Nov 2021 19:49:22.482,21 Nov 2021 19:51:38.901,136.418
494,22 Nov 2021 05:51:37.568,22 Nov 2021 05:55:40.820,243.252
495,22 Nov 2021 07:25:49.256,22 Nov 2021 07:34:29.367,520.111
496,22 Nov 2021 09:03:23.371,22 Nov 2021 09:07:24.350,240.979
497,22 Nov 2021 16:49:16.349,22 Nov 2021 16:55:41.038,384.690
498,22 Nov 2021 18:23:47.805,22 Nov 2021 18:32:19.035,511.230
499,23 Nov 2021 06:04:53.646,23 Nov 2021 06:11:05.048,371.401
500,23 Nov 2021 07:40:00.773,23 Nov 2021 07:48:28.943,508.170
501,23 Nov 2021 17:02:44.225,23 Nov 2021 17:10:09.081,444.855
502,23 Nov 2021 18:38:13.064,23 Nov 2021 18:46:17.840,484.777
503,24 Nov 2021 06:18:34.281,24 Nov 2021 06:25:58.882,444.601
504,24 Nov 2021 07:54:17.044,24 Nov 2021 08:02:18.502,481.458
505,24 Nov 2021 17:16:24.450,24 Nov 2021 17:24:30.067,485.617
506,24 Nov 2021 18:52:51.563,24 Nov 2021 19:00:08.881,437.318
507,25 Nov 2021 06:32:26.459,25 Nov 2021 06:40:35.552,489.093
508,25 Nov 2021 08:08:38.785,25 Nov 2021 08:15:57.319,438.535
509,25 Nov 2021 17:30:15.280,25 Nov 2021 17:38:45.723,510.443
510,25 Nov 2021 19:07:48.092,25 Nov 2021 19:13:47.530,359.438
511,26 Nov 2021 06:46:26.062,26 Nov 2021 06:54:59.338,513.276
512,26 Nov 2021 08:23:07.926,26 Nov 2021 08:29:23.436,375.510
513,26 Nov 2021 16:11:11.036,26 Nov 2021 16:15:29.119,258.084
514,26 Nov 2021 17:44:16.089,26 Nov 2021 17:52:56.664,520.575
515,26 Nov 2021 19:23:18.789,26 Nov 2021 19:26:57.882,219.093
516,27 Nov 2021 05:26:49.558,27 Nov 2021 05:29:44.363,174.806
517,27 Nov 2021 07:00:31.290,27 Nov 2021 07:09:12.140,520.851
518,27 Nov 2021 08:37:49.898,27 Nov 2021 08:42:31.408,281.510
519,27 Nov 2021 16:24:14.156,27 Nov 2021 16:30:14.937,360.781
520,27 Nov 2021 17:58:26.942,27 Nov 2021 18:07:02.840,515.898
521,28 Nov 2021 05:39:48.172,28 Nov 2021 05:45:27.930,339.758
522,28 Nov 2021 07:14:41.356,28 Nov 2021 07:23:14.815,513.459
523,28 Nov 2021 08:53:16.611,28 Nov 2021 08:54:49.296,92.686
524,28 Nov 2021 16:37:37.471,28 Nov 2021 16:44:45.889,428.418
525,28 Nov 2021 18:12:48.562,28 Nov 2021 18:21:03.601,495.040
526,29 Nov 2021 05:53:23.451,29 Nov 2021 06:00:28.912,425.461
527,29 Nov 2021 07:28:56.104,29 Nov 2021 07:37:07.537,491.433
528,29 Nov 2021 16:51:14.107,29 Nov 2021 16:59:08.815,474.708
529,29 Nov 2021 18:27:22.597,29 Nov 2021 18:34:57.380,454.783
530,30 Nov 2021 06:07:12.651,30 Nov 2021 06:15:10.301,477.650
531,30 Nov 2021 07:43:16.004,30 Nov 2021 07:50:49.842,453.837
532,30 Nov 2021 17:05:01.729,30 Nov 2021 17:13:26.032,504.302
533,30 Nov 2021 18:42:12.666,30 Nov 2021 18:48:40.708,388.042
534,1 Dec 2021 06:21:10.197,1 Dec 2021 06:29:37.833,507.636
535,1 Dec 2021 07:57:42.502,1 Dec 2021 08:04:20.261,397.759
536,1 Dec 2021 15:46:21.036,1 Dec 2021 15:49:53.017,211.981
537,1 Dec 2021 17:18:59.449,1 Dec 2021 17:27:38.423,518.974
538,1 Dec 2021 18:57:28.941,1 Dec 2021 19:02:03.622,274.681
539,2 Dec 2021 06:35:13.795,2 Dec 2021 06:43:53.934,520.139
540,2 Dec 2021 08:12:19.421,2 Dec 2021 08:17:34.943,315.522
541,2 Dec 2021 15:59:13.819,2 Dec 2021 16:04:47.505,333.686
542,2 Dec 2021 17:33:07.121,2 Dec 2021 17:41:46.125,519.003
543,3 Dec 2021 05:14:45.593,3 Dec 2021 05:19:47.342,301.749
544,3 Dec 2021 06:49:22.392,3 Dec 2021 06:57:59.719,517.327
545,3 Dec 2021 08:27:21.582,3 Dec 2021 08:30:19.058,177.476
546,3 Dec 2021 16:12:31.988,3 Dec 2021 16:19:21.941,409.953
547,3 Dec 2021 17:47:25.259,3 Dec 2021 17:55:48.692,503.433
548,4 Dec 2021 05:28:13.909,4 Dec 2021 05:34:57.108,403.199
549,4 Dec 2021 07:03:35.660,4 Dec 2021 07:11:55.568,499.908
550,4 Dec 2021 16:26:04.829,4 Dec 2021 16:33:47.016,462.187
551,4 Dec 2021 18:01:55.156,4 Dec 2021 18:09:44.899,469.742
552,5 Dec 2021 05:41:59.636,5 Dec 2021 05:49:43.712,464.076
553,5 Dec 2021 07:17:53.857,5 Dec 2021 07:25:41.220,467.363
554,5 Dec 2021 16:39:49.163,5 Dec 2021 16:48:05.876,496.714
555,5 Dec 2021 18:16:39.613,5 Dec 2021 18:23:32.072,412.458
556,6 Dec 2021 05:55:54.912,6 Dec 2021 06:04:15.219,500.307
557,6 Dec 2021 07:32:18.046,6 Dec 2021 07:39:15.597,417.551
558,6 Dec 2021 15:21:39.282,6 Dec 2021 15:24:09.189,149.907
559,6 Dec 2021 16:53:43.773,6 Dec 2021 17:02:19.728,515.955
560,6 Dec 2021 18:31:45.636,6 Dec 2021 18:37:03.408,317.771
561,7 Dec 2021 06:09:56.777,7 Dec 2021 06:18:34.727,517.950
562,7 Dec 2021 07:46:51.010,7 Dec 2021 07:52:35.897,344.887
563,7 Dec 2021 15:34:15.722,7 Dec 2021 15:39:18.353,302.631
564,7 Dec 2021 17:07:48.313,7 Dec 2021 17:16:28.915,520.602
565,7 Dec 2021 18:47:50.549,7 Dec 2021 18:49:41.817,111.269
566,8 Dec 2021 04:49:47.346,8 Dec 2021 04:54:01.835,254.488
567,8 Dec 2021 06:24:03.876,8 Dec 2021 06:32:43.660,519.784
568,8 Dec 2021 08:01:41.608,8 Dec 2021 08:05:33.239,231.631
569,8 Dec 2021 15:47:27.899,8 Dec 2021 15:53:57.116,389.217
570,8 Dec 2021 17:22:03.090,8 Dec 2021 17:30:33.168,510.077
571,9 Dec 2021 05:03:05.943,9 Dec 2021 05:09:23.162,377.219
572,9 Dec 2021 06:38:15.688,9 Dec 2021 06:46:42.608,506.920
573,9 Dec 2021 16:00:56.652,9 Dec 2021 16:08:24.625,447.973
574,9 Dec 2021 17:36:29.113,9 Dec 2021 17:44:31.556,482.444
575,10 Dec 2021 05:16:47.529,10 Dec 2021 05:24:15.685,448.157
576,10 Dec 2021 06:52:32.277,10 Dec 2021 07:00:31.513,479.236
577,10 Dec 2021 16:14:37.587,10 Dec 2021 16:22:45.234,487.647
578,10 Dec 2021 17:51:08.568,10 Dec 2021 17:58:21.990,433.422
579,11 Dec 2021 05:30:40.260,11 Dec 2021 05:38:51.448,491.188
580,11 Dec 2021 07:06:54.412,11 Dec 2021 07:14:09.599,435.188
581,11 Dec 2021 16:28:29.062,11 Dec 2021 16:37:00.582,511.520
582,11 Dec 2021 18:06:06.553,11 Dec 2021 18:11:59.554,353.001
583,12 Dec 2021 05:44:40.265,12 Dec 2021 05:53:14.496,514.230
584,12 Dec 2021 07:21:24.145,12 Dec 2021 07:27:34.784,370.639
585,12 Dec 2021 15:09:20.512,12 Dec 2021 15:13:46.831,266.320
586,12 Dec 2021 16:42:30.498,12 Dec 2021 16:51:11.226,520.728
587,12 Dec 2021 18:21:41.093,12 Dec 2021 18:25:06.445,205.352
588,13 Dec 2021 04:24:56.836,13 Dec 2021 04:28:08.004,191.168
589,13 Dec 2021 05:58:45.821,13 Dec 2021 06:07:26.633,520.812
590,13 Dec 2021 07:36:07.337,13 Dec 2021 07:40:41.199,273.862
591,13 Dec 2021 15:22:25.365,13 Dec 2021 15:28:31.260,365.895
592,13 Dec 2021 16:56:42.011,13 Dec 2021 17:05:17.088,515.077
593,14 Dec 2021 04:37:59.987,14 Dec 2021 04:43:46.647,346.660
594,14 Dec 2021 06:12:56.179,14 Dec 2021 06:21:28.673,512.493
595,14 Dec 2021 07:51:45.437,14 Dec 2021 07:52:47.366,61.928
596,14 Dec 2021 15:35:49.651,14 Dec 2021 15:43:01.577,431.926
597,14 Dec 2021 17:11:04.358,14 Dec 2021 17:19:17.463,493.105
598,15 Dec 2021 04:51:36.464,15 Dec 2021 04:58:46.064,429.600
599,15 Dec 2021 06:27:11.233,15 Dec 2021 06:35:20.755,489.521
600,15 Dec 2021 15:49:27.033,15 Dec 2021 15:57:24.093,477.060
601,15 Dec 2021 17:25:39.273,15 Dec 2021 17:33:10.712,451.439
602,16 Dec 2021 05:05:26.307,16 Dec 2021 05:13:26.452,480.145
603,16 Dec 2021 06:41:31.496,16 Dec 2021 06:49:02.363,450.867
604,16 Dec 2021 16:03:15.314,16 Dec 2021 16:11:40.985,505.672
605,16 Dec 2021 17:40:30.581,16 Dec 2021 17:46:53.162,382.581
606,17 Dec 2021 05:19:24.285,17 Dec 2021 05:27:53.208,508.922
607,17 Dec 2021 06:55:58.502,17 Dec 2021 07:02:31.934,393.432
608,17 Dec 2021 14:44:29.417,17 Dec 2021 14:48:11.716,222.299
609,17 Dec 2021 16:17:13.664,17 Dec 2021 16:25:53.077,519.413
610,17 Dec 2021 17:55:49.353,17 Dec 2021 18:00:13.955,264.602
611,18 Dec 2021 04:00:30.021,18 Dec 2021 04:01:49.866,79.844
612,18 Dec 2021 05:33:28.225,18 Dec 2021 05:42:08.628,520.403
613,18 Dec 2021 07:10:36.344,18 Dec 2021 07:15:45.357,309.013
614,18 Dec 2021 14:57:24.624,18 Dec 2021 15:03:04.124,339.500
615,18 Dec 2021 16:31:21.984,18 Dec 2021 16:40:00.477,518.493
616,19 Dec 2021 04:12:56.731,19 Dec 2021 04:18:06.852,310.121
617,19 Dec 2021 05:47:37.125,19 Dec 2021 05:56:13.775,516.649
618,19 Dec 2021 07:25:41.829,19 Dec 2021 07:28:25.807,163.978
619,19 Dec 2021 15:10:43.899,19 Dec 2021 15:17:37.791,413.892
620,19 Dec 2021 16:45:40.816,19 Dec 2021 16:54:02.682,501.866
621,20 Dec 2021 04:26:26.638,20 Dec 2021 04:33:14.651,408.013
622,20 Dec 2021 06:01:50.691,20 Dec 2021 06:10:08.989,498.298
623,20 Dec 2021 15:24:17.535,20 Dec 2021 15:32:02.408,464.873
624,20 Dec 2021 17:00:11.533,20 Dec 2021 17:07:58.417,466.884
625,21 Dec 2021 04:40:13.122,21 Dec 2021 04:48:00.146,467.024
626,21 Dec 2021 06:16:09.225,21 Dec 2021 06:23:53.970,464.745
627,21 Dec 2021 15:38:02.545,21 Dec 2021 15:46:20.924,498.378
628,21 Dec 2021 17:14:57.078,21 Dec 2021 17:21:44.862,407.784
629,22 Dec 2021 04:54:08.879,22 Dec 2021 05:02:30.822,501.943
630,22 Dec 2021 06:30:33.862,22 Dec 2021 06:37:27.563,413.701
631,22 Dec 2021 14:19:45.394,22 Dec 2021 14:22:30.051,164.656
632,22 Dec 2021 15:51:57.787,22 Dec 2021 16:00:34.477,516.690
633,22 Dec 2021 17:30:04.971,22 Dec 2021 17:35:14.697,309.726
634,23 Dec 2021 05:08:11.103,23 Dec 2021 05:16:49.626,518.524
635,23 Dec 2021 06:45:07.563,23 Dec 2021 06:50:46.788,339.226
636,23 Dec 2021 14:32:26.029,23 Dec 2021 14:37:35.360,309.332
637,23 Dec 2021 16:06:02.972,23 Dec 2021 16:14:43.363,520.392
638,23 Dec 2021 17:46:22.742,23 Dec 2021 17:47:40.643,77.901
639,24 Dec 2021 03:47:57.427,24 Dec 2021 03:52:22.524,265.097
640,24 Dec 2021 05:22:18.515,24 Dec 2021 05:30:57.912,519.397
641,24 Dec 2021 07:00:00.066,24 Dec 2021 07:03:41.883,221.817
642,24 Dec 2021 14:45:39.514,24 Dec 2021 14:52:13.157,393.643
643,24 Dec 2021 16:20:18.422,24 Dec 2021 16:28:47.285,508.863
644,25 Dec 2021 04:01:18.327,25 Dec 2021 04:07:41.172,382.845
645,25 Dec 2021 05:36:30.623,25 Dec 2021 05:44:56.230,505.607
646,25 Dec 2021 14:59:09.128,25 Dec 2021 15:06:40.140,451.012
647,25 Dec 2021 16:34:45.215,25 Dec 2021 16:42:45.241,480.025
648,26 Dec 2021 04:15:00.820,26 Dec 2021 04:22:32.422,451.602
649,26 Dec 2021 05:50:47.532,26 Dec 2021 05:58:44.481,476.949
650,26 Dec 2021 15:12:50.767,26 Dec 2021 15:21:00.382,489.615
651,26 Dec 2021 16:49:25.649,26 Dec 2021 16:56:35.052,429.403
652,27 Dec 2021 04:28:54.095,27 Dec 2021 04:37:07.292,493.197
653,27 Dec 2021 06:05:10.069,27 Dec 2021 06:12:21.828,431.759
654,27 Dec 2021 13:55:23.257,27 Dec 2021 13:56:27.016,63.760
655,27 Dec 2021 15:26:42.885,27 Dec 2021 15:35:15.421,512.536
656,27 Dec 2021 17:04:25.142,27 Dec 2021 17:10:11.474,346.332
657,28 Dec 2021 04:42:54.491,28 Dec 2021 04:51:29.603,515.112
658,28 Dec 2021 06:19:40.416,28 Dec 2021 06:25:46.067,365.651
659,28 Dec 2021 14:07:30.160,28 Dec 2021 14:12:04.398,274.238
660,28 Dec 2021 15:40:44.956,28 Dec 2021 15:49:25.771,520.815
661,28 Dec 2021 17:20:04.009,28 Dec 2021 17:23:14.424,190.416
662,29 Dec 2021 03:23:04.846,29 Dec 2021 03:26:30.883,206.037
663,29 Dec 2021 04:57:00.365,29 Dec 2021 05:05:41.087,520.722
664,29 Dec 2021 06:34:24.906,29 Dec 2021 06:38:50.837,265.931
665,29 Dec 2021 14:20:36.647,29 Dec 2021 14:26:47.524,370.876
666,29 Dec 2021 15:54:57.123,29 Dec 2021 16:03:31.314,514.190
667,30 Dec 2021 03:36:11.913,30 Dec 2021 03:42:05.229,353.316
668,30 Dec 2021 05:11:11.026,30 Dec 2021 05:19:42.496,511.470
669,30 Dec 2021 14:34:01.882,30 Dec 2021 14:41:17.232,435.350
670,30 Dec 2021 16:09:20.204,30 Dec 2021 16:17:31.293,491.089
671,31 Dec 2021 03:49:49.528,31 Dec 2021 03:57:03.140,433.612
672,31 Dec 2021 05:25:26.383,31 Dec 2021 05:33:33.934,487.551
673,31 Dec 2021 14:47:40.002,31 Dec 2021 14:55:39.346,479.343
674,31 Dec 2021 16:23:56.014,31 Dec 2021 16:31:23.998,447.984
675,1 Jan 2022 04:03:39.994,1 Jan 2022 04:11:42.552,482.558
676,1 Jan 2022 05:39:47.013,1 Jan 2022 05:47:14.839,447.825
677,1 Jan 2022 15:01:28.943,1 Jan 2022 15:09:55.916,506.973
678,1 Jan 2022 16:38:48.595,1 Jan 2022 16:45:05.540,376.946
679,2 Jan 2022 04:17:38.399,2 Jan 2022 04:26:08.532,510.133
680,2 Jan 2022 05:54:14.542,2 Jan 2022 06:00:43.545,389.003
681,2 Jan 2022 13:42:38.072,2 Jan 2022 13:46:30.165,232.093
682,2 Jan 2022 15:15:27.914,2 Jan 2022 15:24:07.715,519.801
683,2 Jan 2022 16:54:10.057,2 Jan 2022 16:58:24.020,253.963
684,3 Jan 2022 02:58:29.144,3 Jan 2022 03:00:21.758,112.614
685,3 Jan 2022 04:31:42.674,3 Jan 2022 04:40:23.280,520.605
686,3 Jan 2022 06:08:53.357,3 Jan 2022 06:13:55.662,302.305
687,3 Jan 2022 13:55:35.516,3 Jan 2022 14:01:20.674,345.158
688,3 Jan 2022 15:29:36.885,3 Jan 2022 15:38:14.806,517.921
689,4 Jan 2022 03:11:08.030,4 Jan 2022 03:16:26.175,318.145
690,4 Jan 2022 04:45:51.871,4 Jan 2022 04:54:27.794,515.923
691,4 Jan 2022 06:24:02.723,4 Jan 2022 06:26:31.888,149.165
692,4 Jan 2022 14:08:55.868,4 Jan 2022 14:15:53.603,417.735
693,4 Jan 2022 15:43:56.420,4 Jan 2022 15:52:16.646,500.226
694,5 Jan 2022 03:24:39.434,5 Jan 2022 03:31:32.111,412.677
695,5 Jan 2022 05:00:05.739,5 Jan 2022 05:08:22.369,496.630
696,5 Jan 2022 14:22:30.285,5 Jan 2022 14:30:17.773,467.488
697,5 Jan 2022 15:58:27.968,5 Jan 2022 16:06:11.897,463.929
698,6 Jan 2022 03:38:26.644,6 Jan 2022 03:46:16.520,469.877
699,6 Jan 2022 05:14:24.616,6 Jan 2022 05:22:06.673,462.057
700,6 Jan 2022 14:36:15.970,6 Jan 2022 14:44:35.949,499.979
701,6 Jan 2022 16:13:14.629,6 Jan 2022 16:19:57.590,402.961
702,7 Jan 2022 03:52:22.873,7 Jan 2022 04:00:46.378,503.506
703,7 Jan 2022 05:28:49.708,7 Jan 2022 05:35:39.473,409.765
704,7 Jan 2022 13:17:52.169,7 Jan 2022 13:20:50.272,178.103
705,7 Jan 2022 14:50:11.846,7 Jan 2022 14:58:49.207,517.361
706,7 Jan 2022 16:28:24.492,7 Jan 2022 16:33:25.825,301.333
707,8 Jan 2022 04:06:25.454,8 Jan 2022 04:15:04.482,519.029
708,8 Jan 2022 05:43:24.181,8 Jan 2022 05:48:57.591,333.409
709,8 Jan 2022 13:30:36.446,8 Jan 2022 13:35:52.283,315.838
710,8 Jan 2022 15:04:17.667,8 Jan 2022 15:12:57.792,520.125
711,9 Jan 2022 02:46:07.773,9 Jan 2022 02:50:42.923,275.150
712,9 Jan 2022 04:20:33.173,9 Jan 2022 04:29:12.129,518.956
713,9 Jan 2022 05:58:18.778,9 Jan 2022 06:01:50.249,211.471
714,9 Jan 2022 13:43:51.192,9 Jan 2022 13:50:29.156,397.964
715,9 Jan 2022 15:18:33.798,9 Jan 2022 15:27:01.372,507.574
716,10 Jan 2022 02:59:30.786,10 Jan 2022 03:05:59.085,388.299
717,10 Jan 2022 04:34:45.581,10 Jan 2022 04:43:09.811,504.230
718,10 Jan 2022 13:57:21.651,10 Jan 2022 14:04:55.629,453.978
719,10 Jan 2022 15:33:01.373,10 Jan 2022 15:40:58.896,477.524
720,11 Jan 2022 03:13:14.154,11 Jan 2022 03:20:49.095,454.941
721,11 Jan 2022 04:49:02.809,11 Jan 2022 04:56:57.405,474.596
722,11 Jan 2022 14:11:03.988,11 Jan 2022 14:19:15.514,491.526
723,11 Jan 2022 15:47:42.804,11 Jan 2022 15:54:48.061,425.258
724,12 Jan 2022 03:27:07.958,12 Jan 2022 03:35:23.087,495.129
725,12 Jan 2022 05:03:25.757,12 Jan 2022 05:10:34.004,428.248
726,12 Jan 2022 12:53:21.625,12 Jan 2022 12:54:55.544,93.919
727,12 Jan 2022 14:24:56.742,12 Jan 2022 14:33:30.246,513.504
728,12 Jan 2022 16:02:43.865,12 Jan 2022 16:08:23.282,339.417
729,13 Jan 2022 03:41:08.736,13 Jan 2022 03:49:44.669,515.932
730,13 Jan 2022 05:17:56.736,13 Jan 2022 05:23:57.272,360.537
731,13 Jan 2022 13:05:39.958,13 Jan 2022 13:10:21.831,281.874
732,13 Jan 2022 14:38:59.450,13 Jan 2022 14:47:40.296,520.846
733,13 Jan 2022 16:18:27.689,13 Jan 2022 16:21:21.658,173.969
734,14 Jan 2022 02:21:13.436,14 Jan 2022 02:24:53.160,219.725
735,14 Jan 2022 03:55:14.927,14 Jan 2022 04:03:55.497,520.571
736,14 Jan 2022 05:32:42.624,14 Jan 2022 05:37:00.309,257.685
737,14 Jan 2022 13:18:48.001,14 Jan 2022 13:25:03.744,375.743
738,14 Jan 2022 14:53:12.279,14 Jan 2022 15:01:45.511,513.233
739,15 Jan 2022 02:34:23.942,15 Jan 2022 02:40:23.682,359.740
740,15 Jan 2022 04:09:25.881,15 Jan 2022 04:17:56.277,510.396
741,15 Jan 2022 13:32:14.164,15 Jan 2022 13:39:32.860,438.696
742,15 Jan 2022 15:07:36.100,15 Jan 2022 15:15:45.095,488.995
743,16 Jan 2022 02:48:02.641,16 Jan 2022 02:55:20.145,437.503
744,16 Jan 2022 04:23:41.553,16 Jan 2022 04:31:47.069,485.517
745,16 Jan 2022 13:45:53.014,16 Jan 2022 13:53:54.578,481.564
746,16 Jan 2022 15:22:12.821,16 Jan 2022 15:29:37.246,444.425
747,17 Jan 2022 03:01:53.712,17 Jan 2022 03:09:58.597,484.885
748,17 Jan 2022 04:38:02.557,17 Jan 2022 04:45:27.262,444.704
749,17 Jan 2022 13:59:42.607,17 Jan 2022 14:08:10.834,508.226
750,17 Jan 2022 15:37:06.718,17 Jan 2022 15:43:17.832,371.114
751,18 Jan 2022 03:15:52.534,18 Jan 2022 03:24:23.817,511.283
752,18 Jan 2022 04:52:30.626,18 Jan 2022 04:58:55.099,384.473
753,18 Jan 2022 12:40:46.973,18 Jan 2022 12:44:48.390,241.418
754,18 Jan 2022 14:13:42.214,18 Jan 2022 14:22:22.335,520.121
755,18 Jan 2022 15:52:31.091,18 Jan 2022 15:56:33.777,242.686
756,19 Jan 2022 01:56:32.198,19 Jan 2022 01:58:49.694,137.496
757,19 Jan 2022 03:29:57.144,19 Jan 2022 03:38:37.891,520.747
758,19 Jan 2022 05:07:10.465,19 Jan 2022 05:12:05.847,295.381
759,19 Jan 2022 12:53:46.494,19 Jan 2022 12:59:37.163,350.670
760,19 Jan 2022 14:27:51.829,19 Jan 2022 14:36:29.114,517.285
761,20 Jan 2022 02:09:19.478,20 Jan 2022 02:14:45.332,325.854
762,20 Jan 2022 03:44:06.644,20 Jan 2022 03:52:41.772,515.127
763,20 Jan 2022 05:22:24.478,20 Jan 2022 05:24:37.085,132.607
764,20 Jan 2022 13:07:07.891,20 Jan 2022 13:14:09.385,421.494
765,20 Jan 2022 14:42:12.074,20 Jan 2022 14:50:30.589,498.515
766,21 Jan 2022 02:22:52.288,21 Jan 2022 02:29:49.489,417.201
767,21 Jan 2022 03:58:20.809,21 Jan 2022 04:06:35.714,494.904
768,21 Jan 2022 13:20:43.081,21 Jan 2022 13:28:33.119,470.038
769,21 Jan 2022 14:56:44.466,21 Jan 2022 15:04:25.345,460.878
770,22 Jan 2022 02:36:40.202,22 Jan 2022 02:44:32.838,472.636
771,22 Jan 2022 04:12:40.033,22 Jan 2022 04:20:19.332,459.299
772,22 Jan 2022 13:34:29.435,22 Jan 2022 13:42:50.961,501.526
773,22 Jan 2022 15:11:32.269,22 Jan 2022 15:18:10.252,397.983
774,23 Jan 2022 02:50:36.892,23 Jan 2022 02:59:01.886,504.994
775,23 Jan 2022 04:27:05.595,23 Jan 2022 04:33:51.327,405.732
776,23 Jan 2022 12:15:59.468,23 Jan 2022 12:19:09.995,190.526
777,23 Jan 2022 13:48:25.950,23 Jan 2022 13:57:03.915,517.965
778,23 Jan 2022 15:26:44.214,23 Jan 2022 15:31:36.780,292.565
779,24 Jan 2022 03:04:39.831,24 Jan 2022 03:13:19.294,519.463
780,24 Jan 2022 04:41:40.872,24 Jan 2022 04:47:08.301,327.429
781,24 Jan 2022 12:28:46.969,24 Jan 2022 12:34:09.119,322.150
782,24 Jan 2022 14:02:32.405,24 Jan 2022 14:11:12.201,519.796
783,25 Jan 2022 01:44:18.356,25 Jan 2022 01:49:03.064,284.708
784,25 Jan 2022 03:18:47.855,25 Jan 2022 03:27:26.302,518.447
785,25 Jan 2022 04:56:37.788,25 Jan 2022 04:59:58.305,200.517
786,25 Jan 2022 12:42:02.932,25 Jan 2022 12:48:45.118,402.187
787,25 Jan 2022 14:16:49.221,25 Jan 2022 14:25:15.437,506.216
788,26 Jan 2022 01:57:43.317,26 Jan 2022 02:04:16.896,393.579
789,26 Jan 2022 03:33:00.550,26 Jan 2022 03:41:23.355,502.805
790,26 Jan 2022 12:55:34.223,26 Jan 2022 13:03:11.096,456.873
791,26 Jan 2022 14:31:17.583,26 Jan 2022 14:39:12.518,474.934
792,27 Jan 2022 02:11:27.529,27 Jan 2022 02:19:05.706,458.177
793,27 Jan 2022 03:47:18.109,27 Jan 2022 03:55:10.284,472.175
794,27 Jan 2022 13:09:17.251,27 Jan 2022 13:17:30.623,493.371
795,27 Jan 2022 14:46:00.036,27 Jan 2022 14:53:01.017,420.981
796,28 Jan 2022 02:25:21.849,28 Jan 2022 02:33:38.831,496.983
797,28 Jan 2022 04:01:41.476,28 Jan 2022 04:08:46.129,424.653
798,28 Jan 2022 11:51:23.841,28 Jan 2022 11:53:20.241,116.399
799,28 Jan 2022 13:23:10.645,28 Jan 2022 13:31:45.048,514.404
800,28 Jan 2022 15:01:02.732,28 Jan 2022 15:06:34.969,332.237
801,29 Jan 2022 02:39:23.003,29 Jan 2022 02:47:59.695,516.693
802,29 Jan 2022 04:16:13.112,29 Jan 2022 04:22:08.402,355.290
803,29 Jan 2022 12:03:49.898,29 Jan 2022 12:08:39.145,289.247
804,29 Jan 2022 13:37:13.980,29 Jan 2022 13:45:54.803,520.822
805,29 Jan 2022 15:16:52.381,29 Jan 2022 15:19:27.906,155.525
806,30 Jan 2022 01:19:22.504,30 Jan 2022 01:23:14.928,232.425
807,30 Jan 2022 02:53:29.511,30 Jan 2022 03:02:09.868,520.357
808,30 Jan 2022 04:31:00.496,30 Jan 2022 04:35:09.598,249.102
809,30 Jan 2022 12:16:59.426,30 Jan 2022 12:23:19.913,380.487
810,30 Jan 2022 13:51:27.479,30 Jan 2022 13:59:59.693,512.214
811,31 Jan 2022 01:32:36.070,31 Jan 2022 01:38:42.014,365.944
812,31 Jan 2022 03:07:40.760,31 Jan 2022 03:16:10.017,509.258
813,31 Jan 2022 12:30:26.497,31 Jan 2022 12:37:48.459,441.963
814,31 Jan 2022 14:05:52.049,31 Jan 2022 14:13:58.873,486.824
815,1 Feb 2022 01:46:15.806,1 Feb 2022 01:53:37.079,441.273
816,1 Feb 2022 03:21:56.744,1 Feb 2022 03:30:00.162,483.419
817,1 Feb 2022 12:44:06.070,1 Feb 2022 12:52:09.789,483.719
818,1 Feb 2022 14:20:29.697,1 Feb 2022 14:27:50.445,440.748
819,2 Feb 2022 02:00:07.462,2 Feb 2022 02:08:14.593,487.131
820,2 Feb 2022 03:36:18.131,2 Feb 2022 03:43:39.640,441.508
821,2 Feb 2022 12:57:56.313,2 Feb 2022 13:06:25.730,509.417
822,2 Feb 2022 14:35:24.954,2 Feb 2022 14:41:30.035,365.081
823,3 Feb 2022 02:14:06.695,3 Feb 2022 02:22:39.056,512.361
824,3 Feb 2022 03:50:46.754,3 Feb 2022 03:57:06.581,379.827
825,3 Feb 2022 11:38:56.090,3 Feb 2022 11:43:06.428,250.338
826,3 Feb 2022 13:11:56.550,3 Feb 2022 13:20:36.936,520.386
827,3 Feb 2022 14:50:52.502,3 Feb 2022 14:54:43.190,230.688
828,4 Feb 2022 00:54:37.300,4 Feb 2022 00:57:15.557,158.257
829,4 Feb 2022 02:28:11.630,4 Feb 2022 02:36:52.462,520.832
830,4 Feb 2022 04:05:27.678,4 Feb 2022 04:10:15.907,288.229
831,4 Feb 2022 11:51:57.553,4 Feb 2022 11:57:53.593,356.040
832,4 Feb 2022 13:26:06.811,4 Feb 2022 13:34:43.401,516.590
833,5 Feb 2022 01:07:31.063,5 Feb 2022 01:13:04.324,333.260
834,5 Feb 2022 02:42:21.427,5 Feb 2022 02:50:55.709,514.282
835,5 Feb 2022 04:20:47.485,5 Feb 2022 04:22:41.013,113.528
836,5 Feb 2022 12:05:19.968,5 Feb 2022 12:12:25.135,425.167
837,5 Feb 2022 13:40:27.777,5 Feb 2022 13:48:44.502,496.725
838,6 Feb 2022 01:21:05.198,6 Feb 2022 01:28:06.787,421.589
839,6 Feb 2022 02:56:35.900,6 Feb 2022 03:04:49.015,493.114
840,6 Feb 2022 12:18:55.920,6 Feb 2022 12:26:48.441,472.522
841,6 Feb 2022 13:55:01.027,6 Feb 2022 14:02:38.751,457.725
842,7 Feb 2022 01:34:53.796,7 Feb 2022 01:42:49.099,475.304
843,7 Feb 2022 03:10:55.473,7 Feb 2022 03:18:31.945,456.471
844,7 Feb 2022 12:32:42.942,7 Feb 2022 12:41:05.954,503.012
845,7 Feb 2022 14:09:50.002,7 Feb 2022 14:16:22.845,392.843
846,8 Feb 2022 01:48:50.939,8 Feb 2022 01:57:17.349,506.410
847,8 Feb 2022 03:25:21.520,8 Feb 2022 03:32:03.120,401.600
848,8 Feb 2022 11:14:07.200,8 Feb 2022 11:17:29.306,202.106
849,8 Feb 2022 12:46:40.088,8 Feb 2022 12:55:18.613,518.525
850,8 Feb 2022 14:25:04.155,8 Feb 2022 14:29:47.540,283.385
851,9 Feb 2022 02:02:54.219,9 Feb 2022 02:11:34.069,519.850
852,9 Feb 2022 03:39:57.638,9 Feb 2022 03:45:18.914,321.277
853,9 Feb 2022 11:26:57.594,9 Feb 2022 11:32:25.874,328.280
854,9 Feb 2022 13:00:47.180,9 Feb 2022 13:09:26.590,519.410
855,10 Feb 2022 00:42:29.148,10 Feb 2022 00:47:22.968,293.821
856,10 Feb 2022 02:17:02.546,10 Feb 2022 02:25:40.438,517.892
857,10 Feb 2022 03:54:57.147,10 Feb 2022 03:58:05.985,188.839
858,10 Feb 2022 11:40:14.732,10 Feb 2022 11:47:01.040,406.308
859,10 Feb 2022 13:15:04.691,10 Feb 2022 13:23:29.476,504.785
860,11 Feb 2022 00:55:55.923,11 Feb 2022 01:02:34.614,398.691
861,11 Feb 2022 02:31:15.543,11 Feb 2022 02:39:36.855,501.313
862,11 Feb 2022 11:53:46.841,11 Feb 2022 12:01:26.536,459.695
863,11 Feb 2022 13:29:33.852,11 Feb 2022 13:37:26.103,472.251
864,12 Feb 2022 01:09:40.944,12 Feb 2022 01:17:22.255,461.311
865,12 Feb 2022 02:45:33.435,12 Feb 2022 02:53:23.120,469.684
866,12 Feb 2022 12:07:30.559,12 Feb 2022 12:15:45.711,495.152
867,12 Feb 2022 13:44:17.347,12 Feb 2022 13:51:13.918,416.570
868,13 Feb 2022 01:23:35.767,13 Feb 2022 01:31:54.527,498.760
869,13 Feb 2022 02:59:57.227,13 Feb 2022 03:06:58.200,420.973
870,13 Feb 2022 10:49:27.967,13 Feb 2022 10:51:43.049,135.082
871,13 Feb 2022 12:21:24.588,13 Feb 2022 12:29:59.835,515.247
872,13 Feb 2022 13:59:21.751,13 Feb 2022 14:04:46.529,324.777
873,14 Feb 2022 01:37:37.298,14 Feb 2022 01:46:14.674,517.375
874,14 Feb 2022 03:14:29.545,14 Feb 2022 03:20:19.454,349.908
875,14 Feb 2022 11:01:59.971,14 Feb 2022 11:06:56.349,296.377
876,14 Feb 2022 12:35:28.557,14 Feb 2022 12:44:09.292,520.735
877,14 Feb 2022 14:15:18.493,14 Feb 2022 14:17:32.764,134.271
878,15 Feb 2022 00:17:31.974,15 Feb 2022 00:21:36.280,244.306
879,15 Feb 2022 01:51:44.115,15 Feb 2022 02:00:24.198,520.083
880,15 Feb 2022 03:29:18.548,15 Feb 2022 03:33:18.696,240.148
881,15 Feb 2022 11:15:10.917,15 Feb 2022 11:21:36.039,385.122
882,15 Feb 2022 12:49:42.725,15 Feb 2022 12:58:13.850,511.125
883,16 Feb 2022 00:30:48.292,16 Feb 2022 00:37:00.232,371.940
884,16 Feb 2022 02:05:55.659,16 Feb 2022 02:14:23.714,508.056
885,16 Feb 2022 11:28:38.879,16 Feb 2022 11:36:04.030,445.151
886,16 Feb 2022 13:04:08.055,16 Feb 2022 13:12:12.615,484.560
887,17 Feb 2022 00:44:29.016,17 Feb 2022 00:51:53.945,444.929
888,17 Feb 2022 02:20:11.958,17 Feb 2022 02:28:13.213,481.256
889,17 Feb 2022 11:42:19.169,17 Feb 2022 11:50:24.980,485.811
890,17 Feb 2022 13:18:46.644,17 Feb 2022 13:26:03.599,436.955
891,18 Feb 2022 00:58:21.244,18 Feb 2022 01:06:30.531,489.287
892,18 Feb 2022 02:34:33.734,18 Feb 2022 02:41:51.967,438.233
893,18 Feb 2022 11:56:10.055,18 Feb 2022 12:04:40.606,510.551
894,18 Feb 2022 13:33:43.307,18 Feb 2022 13:39:42.147,358.840
895,19 Feb 2022 01:12:20.880,19 Feb 2022 01:20:54.249,513.370
896,19 Feb 2022 02:49:02.927,19 Feb 2022 02:55:18.001,375.073
897,19 Feb 2022 10:37:05.405,19 Feb 2022 10:41:24.282,258.877
898,19 Feb 2022 12:10:10.929,19 Feb 2022 12:18:51.520,520.591
899,19 Feb 2022 13:49:14.349,19 Feb 2022 13:52:52.191,217.843
900,19 Feb 2022 23:52:43.720,19 Feb 2022 23:55:40.086,176.365
901,20 Feb 2022 01:26:26.141,20 Feb 2022 01:35:06.991,520.850
902,20 Feb 2022 03:03:45.006,20 Feb 2022 03:08:25.834,280.827
903,20 Feb 2022 10:50:08.693,20 Feb 2022 10:56:09.966,361.273
904,20 Feb 2022 12:24:21.846,20 Feb 2022 12:32:57.666,515.820
905,21 Feb 2022 00:05:42.775,21 Feb 2022 00:11:23.172,340.398
906,21 Feb 2022 01:40:36.235,21 Feb 2022 01:49:09.608,513.373
907,21 Feb 2022 03:19:12.535,21 Feb 2022 03:20:42.877,90.342
908,21 Feb 2022 11:03:32.101,21 Feb 2022 11:10:40.854,428.753
909,21 Feb 2022 12:38:43.530,21 Feb 2022 12:46:58.388,494.857
910,22 Feb 2022 00:19:18.165,22 Feb 2022 00:26:24.009,425.844
911,22 Feb 2022 01:54:51.010,22 Feb 2022 02:03:02.274,491.264
912,22 Feb 2022 11:17:08.807,22 Feb 2022 11:25:03.739,474.932
913,22 Feb 2022 12:53:17.648,22 Feb 2022 13:00:52.120,454.472
914,23 Feb 2022 00:33:07.423,23 Feb 2022 00:41:05.304,477.881
915,23 Feb 2022 02:09:10.942,23 Feb 2022 02:16:44.512,453.570
916,23 Feb 2022 11:30:56.491,23 Feb 2022 11:39:20.925,504.434
917,23 Feb 2022 13:08:07.832,23 Feb 2022 13:14:35.368,387.536
918,24 Feb 2022 00:47:05.009,24 Feb 2022 00:55:32.765,507.757
919,24 Feb 2022 02:23:37.485,24 Feb 2022 02:30:14.854,397.370
920,24 Feb 2022 10:12:15.295,24 Feb 2022 10:15:48.279,212.984
921,24 Feb 2022 11:44:54.270,24 Feb 2022 11:53:33.288,519.018
922,24 Feb 2022 13:23:24.334,24 Feb 2022 13:27:58.087,273.753
923,24 Feb 2022 23:28:37.429,24 Feb 2022 23:29:01.313,23.884
924,25 Feb 2022 01:01:08.633,25 Feb 2022 01:09:48.803,520.170
925,25 Feb 2022 02:38:14.484,25 Feb 2022 02:43:29.423,314.939
926,25 Feb 2022 10:25:08.316,25 Feb 2022 10:30:42.560,334.244
927,25 Feb 2022 11:59:02.005,25 Feb 2022 12:07:40.960,518.955
928,25 Feb 2022 23:40:40.131,25 Feb 2022 23:45:42.656,302.525
929,26 Feb 2022 01:15:17.261,26 Feb 2022 01:23:54.532,517.271
930,26 Feb 2022 02:53:16.926,26 Feb 2022 02:56:13.223,176.297
931,26 Feb 2022 10:38:26.591,26 Feb 2022 10:45:16.921,410.330
932,26 Feb 2022 12:13:20.205,26 Feb 2022 12:21:43.493,503.288
933,26 Feb 2022 23:54:08.596,27 Feb 2022 00:00:52.240,403.643
934,27 Feb 2022 01:29:30.556,27 Feb 2022 01:37:50.320,499.764
935,27 Feb 2022 10:51:59.508,27 Feb 2022 10:59:41.952,462.444
936,27 Feb 2022 12:27:50.179,27 Feb 2022 12:35:39.655,469.476
937,28 Feb 2022 00:07:54.395,28 Feb 2022 00:15:38.741,464.347
938,28 Feb 2022 01:43:48.783,28 Feb 2022 01:51:35.911,467.128
939,28 Feb 2022 11:05:43.905,28 Feb 2022 11:14:00.776,496.871
940,28 Feb 2022 12:42:34.738,28 Feb 2022 12:49:26.762,412.024
941,1 Mar 2022 00:21:49.713,1 Mar 2022 00:30:10.171,500.458
942,1 Mar 2022 01:58:13.012,1 Mar 2022 02:05:10.217,417.205
943,1 Mar 2022 09:47:33.300,1 Mar 2022 09:50:04.681,151.381
944,1 Mar 2022 11:19:38.572,1 Mar 2022 11:28:14.602,516.030
945,1 Mar 2022 12:57:40.934,1 Mar 2022 13:02:57.954,317.020
946,2 Mar 2022 00:35:51.612,2 Mar 2022 00:44:29.616,518.004
947,2 Mar 2022 02:12:46.040,2 Mar 2022 02:18:30.421,344.381
948,2 Mar 2022 10:00:10.171,2 Mar 2022 10:05:13.450,303.279
949,2 Mar 2022 11:33:43.176,2 Mar 2022 11:42:23.760,520.585
950,2 Mar 2022 13:13:46.843,2 Mar 2022 13:15:35.410,108.567
951,2 Mar 2022 23:15:41.787,2 Mar 2022 23:19:57.263,255.476
952,3 Mar 2022 00:49:58.738,3 Mar 2022 00:58:38.489,519.751
953,3 Mar 2022 02:27:36.803,3 Mar 2022 02:31:27.569,230.766
954,3 Mar 2022 10:13:22.474,3 Mar 2022 10:19:52.118,389.644
955,3 Mar 2022 11:47:58.017,3 Mar 2022 11:56:27.981,509.965
956,3 Mar 2022 23:29:00.604,3 Mar 2022 23:35:18.340,377.736
957,4 Mar 2022 01:04:10.577,4 Mar 2022 01:12:37.381,506.803
958,4 Mar 2022 10:26:51.310,4 Mar 2022 10:34:19.575,448.265
959,4 Mar 2022 12:02:24.112,4 Mar 2022 12:10:26.330,482.218
960,4 Mar 2022 23:42:42.270,4 Mar 2022 23:50:10.744,448.474
961,5 Mar 2022 01:18:27.194,5 Mar 2022 01:26:26.226,479.031
962,5 Mar 2022 10:40:32.312,5 Mar 2022 10:48:40.148,487.836
963,5 Mar 2022 12:17:03.659,5 Mar 2022 12:24:16.705,433.046
964,5 Mar 2022 23:56:35.051,6 Mar 2022 00:04:46.425,491.374
965,6 Mar 2022 01:32:49.365,6 Mar 2022 01:40:04.245,434.880
966,6 Mar 2022 10:54:23.846,6 Mar 2022 11:02:55.467,511.621
967,6 Mar 2022 12:32:01.783,6 Mar 2022 12:37:54.163,352.380
968,7 Mar 2022 00:10:35.087,7 Mar 2022 00:19:09.405,514.318
969,7 Mar 2022 01:47:19.152,7 Mar 2022 01:53:29.348,370.195
970,7 Mar 2022 09:35:14.897,7 Mar 2022 09:39:41.983,267.087
971,7 Mar 2022 11:08:25.347,7 Mar 2022 11:17:06.082,520.735
972,7 Mar 2022 12:47:36.710,7 Mar 2022 12:51:00.702,203.992
973,7 Mar 2022 22:50:51.072,7 Mar 2022 22:54:03.650,192.578
974,8 Mar 2022 00:24:40.671,8 Mar 2022 00:33:21.481,520.810
975,8 Mar 2022 02:02:02.458,8 Mar 2022 02:06:35.615,273.157
976,8 Mar 2022 09:48:19.909,8 Mar 2022 09:54:26.279,366.369
977,8 Mar 2022 11:22:36.917,8 Mar 2022 11:31:11.912,514.995
978,8 Mar 2022 23:03:54.602,8 Mar 2022 23:09:41.878,347.275
